# 
# Header Description:
# 
# Version: v2.0.0.1 Platform: 8.0.0 Manufacturer: Xiaomi Model: MIX 2
# 
# Raw,ElapsedRealtimeMillis,TimeNanos,LeapSecond,TimeUncertaintyNanos,FullBiasNanos,BiasNanos,BiasUncertaintyNanos,DriftNanosPerSecond,DriftUncertaintyNanosPerSecond,HardwareClockDiscontinuityCount,Svid,TimeOffsetNanos,State,ReceivedSvTimeNanos,ReceivedSvTimeUncertaintyNanos,Cn0DbHz,PseudorangeRateMetersPerSecond,PseudorangeRateUncertaintyMetersPerSecond,AccumulatedDeltaRangeState,AccumulatedDeltaRangeMeters,AccumulatedDeltaRangeUncertaintyMeters,CarrierFrequencyHz,CarrierCycles,CarrierPhase,CarrierPhaseUncertainty,MultipathIndicator,SnrInDb,ConstellationType,AgcDb,CarrierFrequencyHz
# 
# Fix,Provider,Latitude,Longitude,Altitude,Speed,Accuracy,(UTC)TimeInMs
# 
# Nav,Svid,Type,Status,MessageId,Sub-messageId,Data(Bytes)
# 
Raw,255221759,33468900000000,,,-1221705665545849344,0.0,14.773714610782918,-3.9990302982674435,9.575314725496042,62,10,0.0,15,43134377269696,5,40.4,-314.2080078125,0.04490000009536743,0,0.0,0.0,,,,,0,,1,,
Raw,255221760,33468900000000,,,-1221705665545849344,0.0,14.773714610782918,-3.9990302982674435,9.575314725496042,62,12,0.0,15,43134371894551,9,35.9,20.288930892944336,0.038100000470876694,0,0.0,0.0,,,,,0,,1,,
Raw,255221761,33468900000000,,,-1221705665545849344,0.0,14.773714610782918,-3.9990302982674435,9.575314725496042,62,14,0.0,15,43134366733693,11,33.8,-267.1092529296875,0.03189999982714653,0,0.0,0.0,,,,,0,,1,,
Raw,255221762,33468900000000,,,-1221705665545849344,0.0,14.773714610782918,-3.9990302982674435,9.575314725496042,62,15,0.0,15,43134363970768,12,32.2,367.4513244628906,0.0284000001847744,0,0.0,0.0,,,,,0,,1,,
Raw,255221763,33468900000000,,,-1221705665545849344,0.0,14.773714610782918,-3.9990302982674435,9.575314725496042,62,20,0.0,15,43134379161321,5,41.6,93.83325958251953,0.047600001096725464,0,0.0,0.0,,,,,0,,1,,
Raw,255221764,33468900000000,,,-1221705665545849344,0.0,14.773714610782918,-3.9990302982674435,9.575314725496042,62,21,0.0,15,43134369683978,10,34.8,470.3390197753906,0.035600002855062485,0,0.0,0.0,,,,,0,,1,,
Raw,255221765,33468900000000,,,-1221705665545849344,0.0,14.773714610782918,-3.9990302982674435,9.575314725496042,62,24,0.0,15,43134367489008,10,34.1,612.4530029296875,0.032600000500679016,0,0.0,0.0,,,,,0,,1,,
Raw,255221766,33468900000000,,,-1221705665545849344,0.0,14.773714610782918,-3.9990302982674435,9.575314725496042,62,25,0.0,15,43134373238595,7,37.7,-399.6480712890625,0.04010000079870224,0,0.0,0.0,,,,,0,,1,,
Raw,255221767,33468900000000,,,-1221705665545849344,0.0,14.773714610782918,-3.9990302982674435,9.575314725496042,62,31,0.0,15,43134369719025,9,35.0,-527.0889892578125,0.035100001841783524,0,0.0,0.0,,,,,0,,1,,
Raw,255221768,33468900000000,,,-1221705665545849344,0.0,14.773714610782918,-3.9990302982674435,9.575314725496042,62,32,0.0,15,43134370954207,8,36.6,-233.67897033691406,0.03620000183582306,0,0.0,0.0,,,,,0,,1,,
Raw,255222754,33469900000000,,,-1221705665545849344,0.0,14.787032341700979,-6.446581055069831,9.51222526018292,62,10,0.0,15,43135377270748,4,42.9,-315.3384094238281,0.04430000111460686,0,0.0,0.0,,,,,0,,1,,
Raw,255222754,33469900000000,,,-1221705665545849344,0.0,14.787032341700979,-6.446581055069831,9.51222526018292,62,12,0.0,15,43135371894479,6,38.6,19.22809410095215,0.03660000115633011,0,0.0,0.0,,,,,0,,1,,
Raw,255222755,33469900000000,,,-1221705665545849344,0.0,14.787032341700979,-6.446581055069831,9.51222526018292,62,14,0.0,15,43135366734585,8,36.9,-268.281982421875,0.03020000085234642,0,0.0,0.0,,,,,0,,1,,
Raw,255222755,33469900000000,,,-1221705665545849344,0.0,14.787032341700979,-6.446581055069831,9.51222526018292,62,15,0.0,15,43135363969556,9,35.1,366.3194885253906,0.026100000366568565,0,0.0,0.0,,,,,0,,1,,
Raw,255222756,33469900000000,,,-1221705665545849344,0.0,14.787032341700979,-6.446581055069831,9.51222526018292,62,20,0.0,15,43135379161019,4,44.1,92.73495483398438,0.046800002455711365,0,0.0,0.0,,,,,0,,1,,
Raw,255222756,33469900000000,,,-1221705665545849344,0.0,14.787032341700979,-6.446581055069831,9.51222526018292,62,21,0.0,15,43135369682400,7,37.4,469.2046813964844,0.0340999998152256,0,0.0,0.0,,,,,0,,1,,
Raw,255222757,33469900000000,,,-1221705665545849344,0.0,14.787032341700979,-6.446581055069831,9.51222526018292,62,24,0.0,15,43135367486972,8,36.4,611.3076782226562,0.031700000166893005,0,0.0,0.0,,,,,0,,1,,
Raw,255222757,33469900000000,,,-1221705665545849344,0.0,14.787032341700979,-6.446581055069831,9.51222526018292,62,25,0.0,15,43135373239930,5,40.1,-400.7419738769531,0.03890000283718109,0,0.0,0.0,,,,,0,,1,,
Raw,255222757,33469900000000,,,-1221705665545849344,0.0,14.787032341700979,-6.446581055069831,9.51222526018292,62,31,0.0,15,43135369720780,7,37.5,-528.1058349609375,0.0340999998152256,0,0.0,0.0,,,,,0,,1,,
Raw,255222758,33469900000000,,,-1221705665545849344,0.0,14.787032341700979,-6.446581055069831,9.51222526018292,62,32,0.0,15,43135370955002,6,39.2,-234.8600616455078,0.03460000082850456,0,0.0,0.0,,,,,0,,1,,
Raw,255223761,33470900000000,,,-1221705665545849344,0.0,14.534452930092812,-10.119851646881134,9.51220219709841,62,10,0.0,15,43136377271792,4,44.1,-313.4646301269531,0.043800003826618195,0,0.0,0.0,,,,,0,,1,,
Raw,255223762,33470900000000,,,-1221705665545849344,0.0,14.534452930092812,-10.119851646881134,9.51220219709841,62,12,0.0,15,43136371894405,5,40.2,21.141328811645508,0.03590000048279762,0,0.0,0.0,,,,,0,,1,,
Raw,255223763,33470900000000,,,-1221705665545849344,0.0,14.534452930092812,-10.119851646881134,9.51220219709841,62,14,0.0,15,43136366735477,6,38.4,-266.49395751953125,0.029100000858306885,0,0.0,0.0,,,,,0,,1,,
Raw,255223764,33470900000000,,,-1221705665545849344,0.0,14.534452930092812,-10.119851646881134,9.51220219709841,62,15,0.0,15,43136363968329,8,36.7,368.1107177734375,0.025700001046061516,0,0.0,0.0,,,,,0,,1,,
Raw,255223765,33470900000000,,,-1221705665545849344,0.0,14.534452930092812,-10.119851646881134,9.51220219709841,62,20,0.0,15,43136379160695,4,45.4,94.6298599243164,0.04660000279545784,0,0.0,0.0,,,,,0,,1,,
Raw,255223769,33470900000000,,,-1221705665545849344,0.0,14.534452930092812,-10.119851646881134,9.51220219709841,62,21,0.0,15,43136369680835,6,38.9,471.0131530761719,0.03360000252723694,0,0.0,0.0,,,,,0,,1,,
Raw,255223770,33470900000000,,,-1221705665545849344,0.0,14.534452930092812,-10.119851646881134,9.51220219709841,62,24,0.0,15,43136367484910,6,38.1,613.0940551757812,0.03060000203549862,0,0.0,0.0,,,,,0,,1,,
Raw,255223771,33470900000000,,,-1221705665545849344,0.0,14.534452930092812,-10.119851646881134,9.51220219709841,62,25,0.0,15,43136373241262,5,41.8,-398.870361328125,0.038600001484155655,0,0.0,0.0,,,,,0,,1,,
Raw,255223773,33470900000000,,,-1221705665545849344,0.0,14.534452930092812,-10.119851646881134,9.51220219709841,62,31,0.0,15,43136369722536,6,39.0,-526.3517456054688,0.03310000151395798,0,0.0,0.0,,,,,0,,1,,
Raw,255223774,33470900000000,,,-1221705665545849344,0.0,14.534452930092812,-10.119851646881134,9.51220219709841,62,32,0.0,15,43136370955776,5,41.0,-233.0725860595703,0.0340999998152256,0,0.0,0.0,,,,,0,,1,,
Raw,255224721,33471900000000,,,-1221705665545849344,0.0,14.515642760670744,-4.267884229534527,9.51218151985023,62,10,0.0,15,43137377272833,5,47.9,-312.8094482421875,0.04330000281333923,0,0.0,0.0,,,,,0,,1,,
Raw,255224722,33471900000000,,,-1221705665545849344,0.0,14.515642760670744,-4.267884229534527,9.51218151985023,62,12,0.0,15,43137371894333,4,44.7,21.823945999145508,0.03480000048875809,0,0.0,0.0,,,,,0,,1,,
Raw,255224722,33471900000000,,,-1221705665545849344,0.0,14.515642760670744,-4.267884229534527,9.51218151985023,62,14,0.0,15,43137366736363,4,43.1,-265.9385070800781,0.0276000015437603,0,0.0,0.0,,,,,0,,1,,
Raw,255224723,33471900000000,,,-1221705665545849344,0.0,14.515642760670744,-4.267884229534527,9.51218151985023,62,15,0.0,15,43137363967093,5,41.4,368.6666564941406,0.023600000888109207,0,0.0,0.0,,,,,0,,1,,
Raw,255224723,33471900000000,,,-1221705665545849344,0.0,14.515642760670744,-4.267884229534527,9.51218151985023,62,20,0.0,15,43137379160377,4,50.1,95.31396484375,0.046300001442432404,0,0.0,0.0,,,,,0,,1,,
Raw,255224723,33471900000000,,,-1221705665545849344,0.0,14.515642760670744,-4.267884229534527,9.51218151985023,62,21,0.0,15,43137369679256,4,43.4,471.5987854003906,0.032099999487400055,0,0.0,0.0,,,,,0,,1,,
Raw,255224724,33471900000000,,,-1221705665545849344,0.0,14.515642760670744,-4.267884229534527,9.51218151985023,62,24,0.0,15,43137367482862,4,42.2,613.6513671875,0.02930000051856041,0,0.0,0.0,,,,,0,,1,,
Raw,255224725,33471900000000,,,-1221705665545849344,0.0,14.515642760670744,-4.267884229534527,9.51218151985023,62,25,0.0,15,43137373242586,5,47.0,-398.2179870605469,0.037300001829862595,0,0.0,0.0,,,,,0,,1,,
Raw,255224725,33471900000000,,,-1221705665545849344,0.0,14.515642760670744,-4.267884229534527,9.51218151985023,62,31,0.0,15,43137369724291,4,43.2,-525.7139282226562,0.032099999487400055,0,0.0,0.0,,,,,0,,1,,
Raw,255224725,33471900000000,,,-1221705665545849344,0.0,14.515642760670744,-4.267884229534527,9.51218151985023,62,32,0.0,15,43137370956552,4,45.8,-232.51222229003906,0.03310000151395798,0,0.0,0.0,,,,,0,,1,,
Raw,255225763,33472900000000,,,-1221705665545849344,0.0,14.515622751787305,-2.4434926480273145,9.512161637880826,62,10,0.0,15,43138377273871,5,48.4,-313.3593444824219,0.04330000281333923,0,0.0,0.0,,,,,0,,1,,
Raw,255225764,33472900000000,,,-1221705665545849344,0.0,14.515622751787305,-2.4434926480273145,9.512161637880826,62,12,0.0,15,43138371894258,4,45.0,21.307010650634766,0.03460000082850456,0,0.0,0.0,,,,,0,,1,,
Raw,255225764,33472900000000,,,-1221705665545849344,0.0,14.515622751787305,-2.4434926480273145,9.512161637880826,62,14,0.0,15,43138366737239,4,43.4,-266.5794677734375,0.0276000015437603,0,0.0,0.0,,,,,0,,1,,
Raw,255225765,33472900000000,,,-1221705665545849344,0.0,14.515622751787305,-2.4434926480273145,9.512161637880826,62,15,0.0,15,43138363965862,5,41.7,368.0328674316406,0.023600000888109207,0,0.0,0.0,,,,,0,,1,,
Raw,255225765,33472900000000,,,-1221705665545849344,0.0,14.515622751787305,-2.4434926480273145,9.512161637880826,62,20,0.0,15,43138379160054,4,50.2,94.79727935791016,0.046300001442432404,0,0.0,0.0,,,,,0,,1,,
Raw,255225766,33472900000000,,,-1221705665545849344,0.0,14.515622751787305,-2.4434926480273145,9.512161637880826,62,21,0.0,15,43138369677676,4,43.5,470.9793395996094,0.032099999487400055,0,0.0,0.0,,,,,0,,1,,
Raw,255225767,33472900000000,,,-1221705665545849344,0.0,14.515622751787305,-2.4434926480273145,9.512161637880826,62,24,0.0,15,43138367480815,4,42.3,613.0274658203125,0.02930000051856041,0,0.0,0.0,,,,,0,,1,,
Raw,255225767,33472900000000,,,-1221705665545849344,0.0,14.515622751787305,-2.4434926480273145,9.512161637880826,62,25,0.0,15,43138373243910,5,46.7,-398.7688293457031,0.03750000149011612,0,0.0,0.0,,,,,0,,1,,
Raw,255225769,33472900000000,,,-1221705665545849344,0.0,14.515622751787305,-2.4434926480273145,9.512161637880826,62,31,0.0,15,43138369726041,4,43.6,-526.2893676757812,0.032099999487400055,0,0.0,0.0,,,,,0,,1,,
Raw,255225769,33472900000000,,,-1221705665545849344,0.0,14.515622751787305,-2.4434926480273145,9.512161637880826,62,32,0.0,15,43138370957319,4,44.3,-233.13961791992188,0.0333000011742115,0,0.0,0.0,,,,,0,,1,,
Raw,255226754,33473900000000,,,-1221705665545849344,0.0,14.515602742903866,-4.595134288417199,9.512141755911422,62,10,0.0,15,43139377274913,5,47.7,-313.8248291015625,0.04330000281333923,0,0.0,0.0,,,,,0,,1,,
Raw,255226754,33473900000000,,,-1221705665545849344,0.0,14.515602742903866,-4.595134288417199,9.512141755911422,62,12,0.0,15,43139371894190,4,43.7,20.88135528564453,0.035100001841783524,0,0.0,0.0,,,,,0,,1,,
Raw,255226755,33473900000000,,,-1221705665545849344,0.0,14.515602742903866,-4.595134288417199,9.512141755911422,62,14,0.0,15,43139366738133,4,42.4,-267.1247253417969,0.027800001204013824,0,0.0,0.0,,,,,0,,1,,
Raw,255226755,33473900000000,,,-1221705665545849344,0.0,14.515602742903866,-4.595134288417199,9.512141755911422,62,15,0.0,15,43139363964627,5,40.4,367.4917297363281,0.023900000378489494,0,0.0,0.0,,,,,0,,1,,
Raw,255226756,33473900000000,,,-1221705665545849344,0.0,14.515602742903866,-4.595134288417199,9.512141755911422,62,20,0.0,15,43139379159734,4,49.1,94.3542251586914,0.046300001442432404,0,0.0,0.0,,,,,0,,1,,
Raw,255226756,33473900000000,,,-1221705665545849344,0.0,14.515602742903866,-4.595134288417199,9.512141755911422,62,21,0.0,15,43139369676103,4,42.9,470.4659729003906,0.03230000287294388,0,0.0,0.0,,,,,0,,1,,
Raw,255226757,33473900000000,,,-1221705665545849344,0.0,14.515602742903866,-4.595134288417199,9.512141755911422,62,24,0.0,15,43139367478770,4,42.2,612.479736328125,0.02930000051856041,0,0.0,0.0,,,,,0,,1,,
Raw,255226757,33473900000000,,,-1221705665545849344,0.0,14.515602742903866,-4.595134288417199,9.512141755911422,62,25,0.0,15,43139373245239,5,46.1,-399.2320861816406,0.03750000149011612,0,0.0,0.0,,,,,0,,1,,
Raw,255226758,33473900000000,,,-1221705665545849344,0.0,14.515602742903866,-4.595134288417199,9.512141755911422,62,31,0.0,15,43139369727792,4,42.6,-526.7599487304688,0.03230000287294388,0,0.0,0.0,,,,,0,,1,,
Raw,255226758,33473900000000,,,-1221705665545849344,0.0,14.515602742903866,-4.595134288417199,9.512141755911422,62,32,0.0,15,43139370958100,4,44.1,-233.67958068847656,0.0333000011742115,0,0.0,0.0,,,,,0,,1,,
Raw,255227767,33474900000000,,,-1221705665545849344,0.0,14.515582734020427,-6.398204247115749,9.512121873942018,62,10,0.0,15,43140377275959,4,42.2,-313.9608459472656,0.04430000111460686,0,0.0,0.0,,,,,0,,1,,
Raw,255227768,33474900000000,,,-1221705665545849344,0.0,14.515582734020427,-6.398204247115749,9.512121873942018,62,12,0.0,15,43140371894116,7,37.8,20.785297393798828,0.03710000216960907,0,0.0,0.0,,,,,0,,1,,
Raw,255227769,33474900000000,,,-1221705665545849344,0.0,14.515582734020427,-6.398204247115749,9.512121873942018,62,14,0.0,15,43140366739032,9,35.9,-267.3384704589844,0.03060000203549862,0,0.0,0.0,,,,,0,,1,,
Raw,255227769,33474900000000,,,-1221705665545849344,0.0,14.515582734020427,-6.398204247115749,9.512121873942018,62,15,0.0,15,43140363963399,10,34.2,367.49359130859375,0.026600001379847527,0,0.0,0.0,,,,,0,,1,,
Raw,255227770,33474900000000,,,-1221705665545849344,0.0,14.515582734020427,-6.398204247115749,9.512121873942018,62,20,0.0,15,43140379159417,4,43.5,94.24263000488281,0.0471000038087368,0,0.0,0.0,,,,,0,,1,,
Raw,255227771,33474900000000,,,-1221705665545849344,0.0,14.515582734020427,-6.398204247115749,9.512121873942018,62,21,0.0,15,43140369674531,8,36.6,470.27734375,0.034700002521276474,0,0.0,0.0,,,,,0,,1,,
Raw,255227771,33474900000000,,,-1221705665545849344,0.0,14.515582734020427,-6.398204247115749,9.512121873942018,62,24,0.0,15,43140367476721,8,36.0,612.278564453125,0.031700000166893005,0,0.0,0.0,,,,,0,,1,,
Raw,255227773,33474900000000,,,-1221705665545849344,0.0,14.515582734020427,-6.398204247115749,9.512121873942018,62,25,0.0,15,43140373246567,6,39.6,-399.3652648925781,0.039100002497434616,0,0.0,0.0,,,,,0,,1,,
Raw,255227773,33474900000000,,,-1221705665545849344,0.0,14.515582734020427,-6.398204247115749,9.512121873942018,62,31,0.0,15,43140369729545,8,36.8,-526.8048095703125,0.034700002521276474,0,0.0,0.0,,,,,0,,1,,
Raw,255227774,33474900000000,,,-1221705665545849344,0.0,14.515582734020427,-6.398204247115749,9.512121873942018,62,32,0.0,15,43140370958869,6,38.4,-233.89869689941406,0.035100001841783524,0,0.0,0.0,,,,,0,,1,,
Raw,255228756,33475900000000,,,-1221705665545849344,0.0,14.515562725136988,-6.710680809813003,9.512101196693838,62,10,0.0,15,43141377277008,6,39.9,-313.11236572265625,0.045100003480911255,0,0.0,0.0,,,,,0,,1,,
Raw,255228757,33475900000000,,,-1221705665545849344,0.0,14.515562725136988,-6.710680809813003,9.512101196693838,62,12,0.0,15,43141371894050,9,35.4,21.676965713500977,0.038100000470876694,0,0.0,0.0,,,,,0,,1,,
Raw,255228757,33475900000000,,,-1221705665545849344,0.0,14.515562725136988,-6.710680809813003,9.512101196693838,62,14,0.0,15,43141366739924,11,33.3,-266.55743408203125,0.03189999982714653,0,0.0,0.0,,,,,0,,1,,
Raw,255228757,33475900000000,,,-1221705665545849344,0.0,14.515562725136988,-6.710680809813003,9.512101196693838,62,15,0.0,15,43141363962177,13,31.7,368.05224609375,0.02970000170171261,0,0.0,0.0,,,,,0,,1,,
Raw,255228758,33475900000000,,,-1221705665545849344,0.0,14.515562725136988,-6.710680809813003,9.512101196693838,62,20,0.0,15,43141379159112,5,41.2,95.12183380126953,0.047600001096725464,0,0.0,0.0,,,,,0,,1,,
Raw,255228758,33475900000000,,,-1221705665545849344,0.0,14.515562725136988,-6.710680809813003,9.512101196693838,62,21,0.0,15,43141369672980,10,34.6,471.06732177734375,0.035600002855062485,0,0.0,0.0,,,,,0,,1,,
Raw,255228759,33475900000000,,,-1221705665545849344,0.0,14.515562725136988,-6.710680809813003,9.512101196693838,62,24,0.0,15,43141367474679,11,33.5,613.0523071289062,0.033400002866983414,0,0.0,0.0,,,,,0,,1,,
Raw,255228759,33475900000000,,,-1221705665545849344,0.0,14.515562725136988,-6.710680809813003,9.512101196693838,62,25,0.0,15,43141373247906,7,37.0,-398.5046691894531,0.04010000079870224,0,0.0,0.0,,,,,0,,1,,
Raw,255228760,33475900000000,,,-1221705665545849344,0.0,14.515562725136988,-6.710680809813003,9.512101196693838,62,31,0.0,15,43141369731321,10,34.2,-526.0599365234375,0.035600002855062485,0,0.0,0.0,,,,,0,,1,,
Raw,255228760,33475900000000,,,-1221705665545849344,0.0,14.515562725136988,-6.710680809813003,9.512101196693838,62,32,0.0,15,43141370959651,8,36.0,-233.13211059570312,0.03620000183582306,0,0.0,0.0,,,,,0,,1,,
Raw,255229724,33476900000000,,,-1221705665545849344,0.0,14.515542716253549,-4.519251968710695,9.512081314724433,62,10,0.0,15,43142377278044,8,36.7,-312.9613342285156,0.04670000076293945,0,0.0,0.0,,,,,0,,1,,
Raw,255229725,33476900000000,,,-1221705665545849344,0.0,14.515542716253549,-4.519251968710695,9.512081314724433,62,12,0.0,15,43142371893945,12,32.3,21.849637985229492,0.040400002151727676,0,0.0,0.0,,,,,0,,1,,
Raw,255229725,33476900000000,,,-1221705665545849344,0.0,14.515542716253549,-4.519251968710695,9.512081314724433,62,14,0.0,15,43142366740792,14,30.5,-266.5272521972656,0.03480000048875809,0,0.0,0.0,,,,,0,,1,,
Raw,255229725,33476900000000,,,-1221705665545849344,0.0,14.515542716253549,-4.519251968710695,9.512081314724433,62,15,0.0,15,43142363960919,17,28.5,368.2135925292969,0.03779999911785126,0,0.0,0.0,,,,,0,,1,,
Raw,255229726,33476900000000,,,-1221705665545849344,0.0,14.515542716253549,-4.519251968710695,9.512081314724433,62,20,0.0,15,43142379158770,6,38.0,95.29777526855469,0.048600003123283386,0,0.0,0.0,,,,,0,,1,,
Raw,255229726,33476900000000,,,-1221705665545849344,0.0,14.515542716253549,-4.519251968710695,9.512081314724433,62,21,0.0,15,43142369671366,13,31.4,471.1520690917969,0.038700003176927567,0,0.0,0.0,,,,,0,,1,,
Raw,255229727,33476900000000,,,-1221705665545849344,0.0,14.515542716253549,-4.519251968710695,9.512081314724433,62,24,0.0,15,43142367472628,14,30.5,613.3857421875,0.03629999980330467,0,0.0,0.0,,,,,0,,1,,
Raw,255229727,33476900000000,,,-1221705665545849344,0.0,14.515542716253549,-4.519251968710695,9.512081314724433,62,25,0.0,15,43142373249212,10,34.1,-398.3609313964844,0.041600000113248825,0,0.0,0.0,,,,,0,,1,,
Raw,255229727,33476900000000,,,-1221705665545849344,0.0,14.515542716253549,-4.519251968710695,9.512081314724433,62,31,0.0,15,43142369733053,14,30.9,-525.9468994140625,0.03930000215768814,0,0.0,0.0,,,,,0,,1,,
Raw,255229728,33476900000000,,,-1221705665545849344,0.0,14.515542716253549,-4.519251968710695,9.512081314724433,62,32,0.0,15,43142370960403,12,32.9,-233.07518005371094,0.03890000283718109,0,0.0,0.0,,,,,0,,1,,
Raw,255230756,33477900000000,,,-1221705665545849344,0.0,16.713533113943413,-3.976207785588465,10.884930506799483,62,10,0.0,15,43143377279077,4,43.3,-313.6116638183594,0.04410000145435333,0,0.0,0.0,,,,,0,,1,,
Raw,255230758,33477900000000,,,-1221705665545849344,0.0,16.713533113943413,-3.976207785588465,10.884930506799483,62,12,0.0,15,43143371893880,6,39.4,21.2365779876709,0.03610000014305115,0,0.0,0.0,,,,,0,,1,,
Raw,255230758,33477900000000,,,-1221705665545849344,0.0,16.713533113943413,-3.976207785588465,10.884930506799483,62,14,0.0,15,43143366741671,7,37.3,-267.25128173828125,0.029600001871585846,0,0.0,0.0,,,,,0,,1,,
Raw,255230759,33477900000000,,,-1221705665545849344,0.0,16.713533113943413,-3.976207785588465,10.884930506799483,62,15,0.0,15,43143363959707,9,35.5,367.3878479003906,0.026100000366568565,0,0.0,0.0,,,,,0,,1,,
Raw,255230759,33477900000000,,,-1221705665545849344,0.0,16.713533113943413,-3.976207785588465,10.884930506799483,62,20,0.0,15,43143379158451,4,44.7,94.67928314208984,0.046800002455711365,0,0.0,0.0,,,,,0,,1,,
Raw,255230760,33477900000000,,,-1221705665545849344,0.0,16.713533113943413,-3.976207785588465,10.884930506799483,62,21,0.0,15,43143369669804,6,38.0,470.43768310546875,0.03360000252723694,0,0.0,0.0,,,,,0,,1,,
Raw,255230760,33477900000000,,,-1221705665545849344,0.0,16.713533113943413,-3.976207785588465,10.884930506799483,62,24,0.0,15,43143367470585,7,37.7,612.376953125,0.03110000118613243,0,0.0,0.0,,,,,0,,1,,
Raw,255230760,33477900000000,,,-1221705665545849344,0.0,16.713533113943413,-3.976207785588465,10.884930506799483,62,25,0.0,15,43143373250545,5,41.0,-399.0075988769531,0.038600001484155655,0,0.0,0.0,,,,,0,,1,,
Raw,255230761,33477900000000,,,-1221705665545849344,0.0,16.713533113943413,-3.976207785588465,10.884930506799483,62,31,0.0,15,43143369734798,6,38.0,-526.6146850585938,0.03360000252723694,0,0.0,0.0,,,,,0,,1,,
Raw,255230761,33477900000000,,,-1221705665545849344,0.0,16.713533113943413,-3.976207785588465,10.884930506799483,62,32,0.0,15,43143370961184,6,39.5,-233.80947875976562,0.03460000082850456,0,0.0,0.0,,,,,0,,1,,
Raw,255231757,33478900000000,,,-1221705665545849344,0.0,14.515677321469411,-6.846034076401082,9.512215716837606,62,10,0.0,15,43144377280126,4,44.6,-313.2888488769531,0.043800003826618195,0,0.0,0.0,,,,,0,,1,,
Raw,255231757,33478900000000,,,-1221705665545849344,0.0,14.515677321469411,-6.846034076401082,9.512215716837606,62,12,0.0,15,43144371893819,5,40.6,21.6105899810791,0.03590000048279762,0,0.0,0.0,,,,,0,,1,,
Raw,255231758,33478900000000,,,-1221705665545849344,0.0,14.515677321469411,-6.846034076401082,9.512215716837606,62,14,0.0,15,43144366742566,6,38.3,-266.992431640625,0.029100000858306885,0,0.0,0.0,,,,,0,,1,,
Raw,255231758,33478900000000,,,-1221705665545849344,0.0,14.515677321469411,-6.846034076401082,9.512215716837606,62,15,0.0,15,43144363958481,7,37.4,367.6581115722656,0.025100000202655792,0,0.0,0.0,,,,,0,,1,,
Raw,255231758,33478900000000,,,-1221705665545849344,0.0,14.515677321469411,-6.846034076401082,9.512215716837606,62,20,0.0,15,43144379158142,5,46.1,95.02828979492188,0.04650000110268593,0,0.0,0.0,,,,,0,,1,,
Raw,255231759,33478900000000,,,-1221705665545849344,0.0,14.515677321469411,-6.846034076401082,9.512215716837606,62,21,0.0,15,43144369668240,6,39.5,470.724853515625,0.03310000151395798,0,0.0,0.0,,,,,0,,1,,
Raw,255231759,33478900000000,,,-1221705665545849344,0.0,14.515677321469411,-6.846034076401082,9.512215716837606,62,24,0.0,15,43144367468539,6,38.7,612.6393432617188,0.03060000203549862,0,0.0,0.0,,,,,0,,1,,
Raw,255231759,33478900000000,,,-1221705665545849344,0.0,14.515677321469411,-6.846034076401082,9.512215716837606,62,25,0.0,15,43144373251874,4,42.4,-398.6689453125,0.03830000013113022,0,0.0,0.0,,,,,0,,1,,
Raw,255231760,33478900000000,,,-1221705665545849344,0.0,14.515677321469411,-6.846034076401082,9.512215716837606,62,31,0.0,15,43144369736559,6,39.5,-526.2910766601562,0.03310000151395798,0,0.0,0.0,,,,,0,,1,,
Raw,255231760,33478900000000,,,-1221705665545849344,0.0,14.515677321469411,-6.846034076401082,9.512215716837606,62,32,0.0,15,43144370961985,5,41.3,-233.5516815185547,0.0340999998152256,0,0.0,0.0,,,,,0,,1,,
Raw,255232754,33479900000000,,,-1221705665545849344,0.0,14.51548178010853,-5.9404242874224344,9.512020873537447,62,10,0.0,15,43145377281170,5,48.1,-312.5799865722656,0.04330000281333923,0,0.0,0.0,,,,,0,,1,,
Raw,255232755,33479900000000,,,-1221705665545849344,0.0,14.51548178010853,-5.9404242874224344,9.512020873537447,62,12,0.0,15,43145371893745,4,44.3,22.351667404174805,0.03480000048875809,0,0.0,0.0,,,,,0,,1,,
Raw,255232755,33479900000000,,,-1221705665545849344,0.0,14.51548178010853,-5.9404242874224344,9.512020873537447,62,14,0.0,15,43145366743460,4,43.0,-266.3808288574219,0.0276000015437603,0,0.0,0.0,,,,,0,,1,,
Raw,255232755,33479900000000,,,-1221705665545849344,0.0,14.51548178010853,-5.9404242874224344,9.512020873537447,62,15,0.0,15,43145363957253,5,41.0,368.2823181152344,0.023600000888109207,0,0.0,0.0,,,,,0,,1,,
Raw,255232756,33479900000000,,,-1221705665545849344,0.0,14.51548178010853,-5.9404242874224344,9.512020873537447,62,20,0.0,15,43145379157823,4,50.0,95.75972747802734,0.046300001442432404,0,0.0,0.0,,,,,0,,1,,
Raw,255232756,33479900000000,,,-1221705665545849344,0.0,14.51548178010853,-5.9404242874224344,9.512020873537447,62,21,0.0,15,43145369666667,4,43.6,471.3683776855469,0.032099999487400055,0,0.0,0.0,,,,,0,,1,,
Raw,255232757,33479900000000,,,-1221705665545849344,0.0,14.51548178010853,-5.9404242874224344,9.512020873537447,62,24,0.0,15,43145367466487,4,42.9,613.2581176757812,0.02930000051856041,0,0.0,0.0,,,,,0,,1,,
Raw,255232757,33479900000000,,,-1221705665545849344,0.0,14.51548178010853,-5.9404242874224344,9.512020873537447,62,25,0.0,15,43145373253204,5,46.6,-397.9654846191406,0.03750000149011612,0,0.0,0.0,,,,,0,,1,,
Raw,255232757,33479900000000,,,-1221705665545849344,0.0,14.51548178010853,-5.9404242874224344,9.512020873537447,62,31,0.0,15,43145369738313,4,43.4,-525.599853515625,0.032099999487400055,0,0.0,0.0,,,,,0,,1,,
Raw,255232758,33479900000000,,,-1221705665545849344,0.0,14.51548178010853,-5.9404242874224344,9.512020873537447,62,32,0.0,15,43145370962755,4,45.6,-232.926025390625,0.03310000151395798,0,0.0,0.0,,,,,0,,1,,
Raw,255233746,33480900000000,,,-1221705665545849344,0.0,14.515462680719793,-3.893791057817606,9.512000991568042,62,10,0.0,15,43146377282209,5,48.2,-312.3602600097656,0.04330000281333923,0,0.0,0.0,,,,,0,,1,,
Raw,255233746,33480900000000,,,-1221705665545849344,0.0,14.515462680719793,-3.893791057817606,9.512000991568042,62,12,0.0,15,43146371893659,4,45.4,22.6109676361084,0.03460000082850456,0,0.0,0.0,,,,,0,,1,,
Raw,255233747,33480900000000,,,-1221705665545849344,0.0,14.515462680719793,-3.893791057817606,9.512000991568042,62,14,0.0,15,43146366744339,4,43.4,-266.2562561035156,0.0276000015437603,0,0.0,0.0,,,,,0,,1,,
Raw,255233747,33480900000000,,,-1221705665545849344,0.0,14.515462680719793,-3.893791057817606,9.512000991568042,62,15,0.0,15,43146363956026,5,41.9,368.4194030761719,0.023600000888109207,0,0.0,0.0,,,,,0,,1,,
Raw,255233748,33480900000000,,,-1221705665545849344,0.0,14.515462680719793,-3.893791057817606,9.512000991568042,62,20,0.0,15,43146379157494,4,50.6,96.01288604736328,0.046300001442432404,0,0.0,0.0,,,,,0,,1,,
Raw,255233748,33480900000000,,,-1221705665545849344,0.0,14.515462680719793,-3.893791057817606,9.512000991568042,62,21,0.0,15,43146369665093,4,43.5,471.53192138671875,0.032099999487400055,0,0.0,0.0,,,,,0,,1,,
Raw,255233749,33480900000000,,,-1221705665545849344,0.0,14.515462680719793,-3.893791057817606,9.512000991568042,62,24,0.0,15,43146367464436,4,43.0,613.4083862304688,0.029100000858306885,0,0.0,0.0,,,,,0,,1,,
Raw,255233749,33480900000000,,,-1221705665545849344,0.0,14.515462680719793,-3.893791057817606,9.512000991568042,62,25,0.0,15,43146373254524,5,47.2,-397.7417297363281,0.037300001829862595,0,0.0,0.0,,,,,0,,1,,
Raw,255233750,33480900000000,,,-1221705665545849344,0.0,14.515462680719793,-3.893791057817606,9.512000991568042,62,31,0.0,15,43146369740064,4,43.5,-525.3917236328125,0.032099999487400055,0,0.0,0.0,,,,,0,,1,,
Raw,255233750,33480900000000,,,-1221705665545849344,0.0,14.515462680719793,-3.893791057817606,9.512000991568042,62,32,0.0,15,43146370963523,5,46.3,-232.78419494628906,0.032999999821186066,0,0.0,0.0,,,,,0,,1,,
Raw,255234735,33481900000000,,,-1221705665545849344,0.0,14.515441762341652,-3.4525270501082863,9.511980314319862,62,10,0.0,15,43147377283245,5,48.5,-312.25152587890625,0.04330000281333923,0,0.0,0.0,,,,,0,,1,,
Raw,255234735,33481900000000,,,-1221705665545849344,0.0,14.515441762341652,-3.4525270501082863,9.511980314319862,62,12,0.0,15,43147371893580,4,44.1,22.752758026123047,0.03480000048875809,0,0.0,0.0,,,,,0,,1,,
Raw,255234736,33481900000000,,,-1221705665545849344,0.0,14.515441762341652,-3.4525270501082863,9.511980314319862,62,14,0.0,15,43147366745233,4,42.2,-266.2367858886719,0.027800001204013824,0,0.0,0.0,,,,,0,,1,,
Raw,255234736,33481900000000,,,-1221705665545849344,0.0,14.515441762341652,-3.4525270501082863,9.511980314319862,62,15,0.0,15,43147363954785,5,40.5,368.4503173828125,0.023900000378489494,0,0.0,0.0,,,,,0,,1,,
Raw,255234736,33481900000000,,,-1221705665545849344,0.0,14.515441762341652,-3.4525270501082863,9.511980314319862,62,20,0.0,15,43147379157173,4,49.3,96.15060424804688,0.046300001442432404,0,0.0,0.0,,,,,0,,1,,
Raw,255234737,33481900000000,,,-1221705665545849344,0.0,14.515441762341652,-3.4525270501082863,9.511980314319862,62,21,0.0,15,43147369663514,4,42.4,471.5762023925781,0.03230000287294388,0,0.0,0.0,,,,,0,,1,,
Raw,255234737,33481900000000,,,-1221705665545849344,0.0,14.515441762341652,-3.4525270501082863,9.511980314319862,62,24,0.0,15,43147367462394,5,41.5,613.427734375,0.029600001871585846,0,0.0,0.0,,,,,0,,1,,
Raw,255234737,33481900000000,,,-1221705665545849344,0.0,14.515441762341652,-3.4525270501082863,9.511980314319862,62,25,0.0,15,43147373255850,4,45.4,-397.6300048828125,0.03760000318288803,0,0.0,0.0,,,,,0,,1,,
Raw,255234738,33481900000000,,,-1221705665545849344,0.0,14.515441762341652,-3.4525270501082863,9.511980314319862,62,31,0.0,15,43147369741805,4,42.5,-525.3011474609375,0.03230000287294388,0,0.0,0.0,,,,,0,,1,,
Raw,255234738,33481900000000,,,-1221705665545849344,0.0,14.515441762341652,-3.4525270501082863,9.511980314319862,62,32,0.0,15,43147370964295,4,44.7,-232.76405334472656,0.0333000011742115,0,0.0,0.0,,,,,0,,1,,
Raw,255235756,33482900000000,,,-1221705665545849344,0.0,14.515421753458213,-3.398743539394451,9.511960432350458,62,10,0.0,15,43148377284287,5,40.9,-312.56005859375,0.04490000009536743,0,0.0,0.0,,,,,0,,1,,
Raw,255235756,33482900000000,,,-1221705665545849344,0.0,14.515421753458213,-3.398743539394451,9.511960432350458,62,12,0.0,15,43148371893496,8,36.0,22.479774475097656,0.037700001150369644,0,0.0,0.0,,,,,0,,1,,
Raw,255235757,33482900000000,,,-1221705665545849344,0.0,14.515421753458213,-3.398743539394451,9.511960432350458,62,14,0.0,15,43148366746110,10,34.2,-266.54937744140625,0.03110000118613243,0,0.0,0.0,,,,,0,,1,,
Raw,255235757,33482900000000,,,-1221705665545849344,0.0,14.515421753458213,-3.398743539394451,9.511960432350458,62,15,0.0,15,43148363953549,12,32.2,367.94232177734375,0.3709999918937683,0,0.0,0.0,,,,,0,,1,,
Raw,255235757,33482900000000,,,-1221705665545849344,0.0,14.515421753458213,-3.398743539394451,9.511960432350458,62,20,0.0,15,43148379156847,5,41.9,95.96402740478516,0.047600001096725464,0,0.0,0.0,,,,,0,,1,,
Raw,255235758,33482900000000,,,-1221705665545849344,0.0,14.515421753458213,-3.398743539394451,9.511960432350458,62,21,0.0,15,43148369661953,10,34.8,471.51251220703125,0.035600002855062485,0,0.0,0.0,,,,,0,,1,,
Raw,255235758,33482900000000,,,-1221705665545849344,0.0,14.515421753458213,-3.398743539394451,9.511960432350458,62,24,0.0,15,43148367460344,10,34.5,613.040283203125,0.032600000500679016,0,0.0,0.0,,,,,0,,1,,
Raw,255235759,33482900000000,,,-1221705665545849344,0.0,14.515421753458213,-3.398743539394451,9.511960432350458,62,25,0.0,15,43148373257177,7,37.6,-397.93798828125,0.04010000079870224,0,0.0,0.0,,,,,0,,1,,
Raw,255235759,33482900000000,,,-1221705665545849344,0.0,14.515421753458213,-3.398743539394451,9.511960432350458,62,31,0.0,15,43148369743551,10,34.9,-525.6267700195312,0.035600002855062485,0,0.0,0.0,,,,,0,,1,,
Raw,255235760,33482900000000,,,-1221705665545849344,0.0,14.515421753458213,-3.398743539394451,9.511960432350458,62,32,0.0,15,43148370965081,8,36.9,-233.1605682373047,0.03620000183582306,0,0.0,0.0,,,,,0,,1,,
Raw,255236757,33483900000000,,,-1221705665545849344,0.0,15.489180441363715,-4.434088745686352,10.485719647855573,62,10,0.0,15,43149377285326,4,43.6,-312.593505859375,0.04410000145435333,0,0.0,0.0,,,,,0,,1,,
Raw,255236758,33483900000000,,,-1221705665545849344,0.0,15.489180441363715,-4.434088745686352,10.485719647855573,62,12,0.0,15,43149371893419,6,38.9,22.492692947387695,0.03660000115633011,0,0.0,0.0,,,,,0,,1,,
Raw,255236759,33483900000000,,,-1221705665545849344,0.0,15.489180441363715,-4.434088745686352,10.485719647855573,62,14,0.0,15,43149366746993,8,36.9,-266.7386779785156,0.03020000085234642,0,0.0,0.0,,,,,0,,1,,
Raw,255236759,33483900000000,,,-1221705665545849344,0.0,15.489180441363715,-4.434088745686352,10.485719647855573,62,15,0.0,15,43149363952335,9,35.3,367.9564208984375,0.026100000366568565,0,0.0,0.0,,,,,0,,1,,
Raw,255236760,33483900000000,,,-1221705665545849344,0.0,15.489180441363715,-4.434088745686352,10.485719647855573,62,20,0.0,15,43149379156528,4,44.4,95.85507202148438,0.046800002455711365,0,0.0,0.0,,,,,0,,1,,
Raw,255236761,33483900000000,,,-1221705665545849344,0.0,15.489180441363715,-4.434088745686352,10.485719647855573,62,21,0.0,15,43149369660370,7,37.8,471.1233215332031,0.0340999998152256,0,0.0,0.0,,,,,0,,1,,
Raw,255236761,33483900000000,,,-1221705665545849344,0.0,15.489180441363715,-4.434088745686352,10.485719647855573,62,24,0.0,15,43149367458305,8,36.6,612.9346923828125,0.031700000166893005,0,0.0,0.0,,,,,0,,1,,
Raw,255236762,33483900000000,,,-1221705665545849344,0.0,15.489180441363715,-4.434088745686352,10.485719647855573,62,25,0.0,15,43149373258496,5,40.6,-397.9654235839844,0.03890000283718109,0,0.0,0.0,,,,,0,,1,,
Raw,255236762,33483900000000,,,-1221705665545849344,0.0,15.489180441363715,-4.434088745686352,10.485719647855573,62,31,0.0,15,43149369745309,7,37.5,-525.6668090820312,0.0340999998152256,0,0.0,0.0,,,,,0,,1,,
Raw,255236763,33483900000000,,,-1221705665545849344,0.0,15.489180441363715,-4.434088745686352,10.485719647855573,62,32,0.0,15,43149370965849,6,39.6,-233.26902770996094,0.03460000082850456,0,0.0,0.0,,,,,0,,1,,
Raw,255237754,33484900000000,,,-1221705665545849344,0.0,14.515489965560846,-5.058729326521828,9.512028031046432,62,10,0.0,15,43150377286366,4,42.8,-311.9361877441406,0.04430000111460686,0,0.0,0.0,,,,,0,,1,,
Raw,255237755,33484900000000,,,-1221705665545849344,0.0,14.515489965560846,-5.058729326521828,9.512028031046432,62,12,0.0,15,43150371893357,6,38.3,23.17889404296875,0.03660000115633011,0,0.0,0.0,,,,,0,,1,,
Raw,255237755,33484900000000,,,-1221705665545849344,0.0,14.515489965560846,-5.058729326521828,9.512028031046432,62,14,0.0,15,43150366747892,8,36.2,-266.1679382324219,0.03020000085234642,0,0.0,0.0,,,,,0,,1,,
Raw,255237755,33484900000000,,,-1221705665545849344,0.0,14.515489965560846,-5.058729326521828,9.512028031046432,62,15,0.0,15,43150363951101,9,35.0,368.535400390625,0.026100000366568565,0,0.0,0.0,,,,,0,,1,,
Raw,255237756,33484900000000,,,-1221705665545849344,0.0,14.515489965560846,-5.058729326521828,9.512028031046432,62,20,0.0,15,43150379156204,4,44.1,96.54513549804688,0.046800002455711365,0,0.0,0.0,,,,,0,,1,,
Raw,255237756,33484900000000,,,-1221705665545849344,0.0,14.515489965560846,-5.058729326521828,9.512028031046432,62,21,0.0,15,43150369658785,7,37.1,471.72412109375,0.0340999998152256,0,0.0,0.0,,,,,0,,1,,
Raw,255237756,33484900000000,,,-1221705665545849344,0.0,14.515489965560846,-5.058729326521828,9.512028031046432,62,24,0.0,15,43150367456250,8,36.2,613.5052490234375,0.031700000166893005,0,0.0,0.0,,,,,0,,1,,
Raw,255237757,33484900000000,,,-1221705665545849344,0.0,14.515489965560846,-5.058729326521828,9.512028031046432,62,25,0.0,15,43150373259827,6,39.9,-397.3068542480469,0.039100002497434616,0,0.0,0.0,,,,,0,,1,,
Raw,255237757,33484900000000,,,-1221705665545849344,0.0,14.515489965560846,-5.058729326521828,9.512028031046432,62,31,0.0,15,43150369747056,7,37.3,-525.0271606445312,0.0340999998152256,0,0.0,0.0,,,,,0,,1,,
Raw,255237757,33484900000000,,,-1221705665545849344,0.0,14.515489965560846,-5.058729326521828,9.512028031046432,62,32,0.0,15,43150370966623,6,39.2,-232.79275512695312,0.03460000082850456,0,0.0,0.0,,,,,0,,1,,
Raw,255238751,33485900000000,,,-1221705665545849344,0.0,14.515360817313194,-3.191159077961238,9.51189999116347,62,10,0.0,15,43151377287403,5,40.5,-311.6751403808594,0.04490000009536743,0,0.0,0.0,,,,,0,,1,,
Raw,255238752,33485900000000,,,-1221705665545849344,0.0,14.515360817313194,-3.191159077961238,9.51189999116347,62,12,0.0,15,43151371893265,9,35.9,23.485578536987305,0.038100000470876694,0,0.0,0.0,,,,,0,,1,,
Raw,255238753,33485900000000,,,-1221705665545849344,0.0,14.515360817313194,-3.191159077961238,9.51189999116347,62,14,0.0,15,43151366748777,11,33.5,-266.0968322753906,0.03189999982714653,0,0.0,0.0,,,,,0,,1,,
Raw,255238754,33485900000000,,,-1221705665545849344,0.0,14.515360817313194,-3.191159077961238,9.51189999116347,62,15,0.0,15,43151363949866,12,32.2,367.85748291015625,0.0284000001847744,0,0.0,0.0,,,,,0,,1,,
Raw,255238754,33485900000000,,,-1221705665545849344,0.0,14.515360817313194,-3.191159077961238,9.51189999116347,62,20,0.0,15,43151379155875,5,41.7,96.83734130859375,0.047600001096725464,0,0.0,0.0,,,,,0,,1,,
Raw,255238755,33485900000000,,,-1221705665545849344,0.0,14.515360817313194,-3.191159077961238,9.51189999116347,62,21,0.0,15,43151369657222,9,35.1,471.93768310546875,0.035100001841783524,0,0.0,0.0,,,,,0,,1,,
Raw,255238755,33485900000000,,,-1221705665545849344,0.0,14.515360817313194,-3.191159077961238,9.51189999116347,62,24,0.0,15,43151367454184,10,34.0,613.703125,0.032600000500679016,0,0.0,0.0,,,,,0,,1,,
Raw,255238756,33485900000000,,,-1221705665545849344,0.0,14.515360817313194,-3.191159077961238,9.51189999116347,62,25,0.0,15,43151373261153,7,37.4,-397.0363464355469,0.04010000079870224,0,0.0,0.0,,,,,0,,1,,
Raw,255238757,33485900000000,,,-1221705665545849344,0.0,14.515360817313194,-3.191159077961238,9.51189999116347,62,31,0.0,15,43151369748817,10,34.9,-524.674072265625,0.035600002855062485,0,0.0,0.0,,,,,0,,1,,
Raw,255238757,33485900000000,,,-1221705665545849344,0.0,14.515360817313194,-3.191159077961238,9.51189999116347,62,32,0.0,15,43151370967403,8,36.8,-232.51454162597656,0.03620000183582306,0,0.0,0.0,,,,,0,,1,,
Raw,255239733,33486900000000,,,-1221705665545849344,0.0,14.582172298105434,-2.5581185638722204,9.578711361149042,62,10,0.0,15,43152377288448,4,45.6,-311.566162109375,0.04360000044107437,0,0.0,0.0,,,,,0,,1,,
Raw,255239733,33486900000000,,,-1221705665545849344,0.0,14.582172298105434,-2.5581185638722204,9.578711361149042,62,12,0.0,15,43152371893191,5,41.4,23.624298095703125,0.035600002855062485,0,0.0,0.0,,,,,0,,1,,
Raw,255239734,33486900000000,,,-1221705665545849344,0.0,14.582172298105434,-2.5581185638722204,9.578711361149042,62,14,0.0,15,43152366749670,6,39.4,-265.97210693359375,0.028600001707673073,0,0.0,0.0,,,,,0,,1,,
Raw,255239734,33486900000000,,,-1221705665545849344,0.0,14.582172298105434,-2.5581185638722204,9.578711361149042,62,15,0.0,15,43152363948641,6,38.0,368.6083679199219,0.23099999129772186,0,0.0,0.0,,,,,0,,1,,
Raw,255239734,33486900000000,,,-1221705665545849344,0.0,14.582172298105434,-2.5581185638722204,9.578711361149042,62,20,0.0,15,43152379155557,5,46.7,96.97401428222656,0.04650000110268593,0,0.0,0.0,,,,,0,,1,,
Raw,255239735,33486900000000,,,-1221705665545849344,0.0,14.582172298105434,-2.5581185638722204,9.578711361149042,62,21,0.0,15,43152369655644,5,40.3,471.97216796875,0.03290000185370445,0,0.0,0.0,,,,,0,,1,,
Raw,255239735,33486900000000,,,-1221705665545849344,0.0,14.582172298105434,-2.5581185638722204,9.578711361149042,62,24,0.0,15,43152367452149,6,39.2,613.7183227539062,0.030100001022219658,0,0.0,0.0,,,,,0,,1,,
Raw,255239735,33486900000000,,,-1221705665545849344,0.0,14.582172298105434,-2.5581185638722204,9.578711361149042,62,25,0.0,15,43152373262469,4,42.9,-396.9322509765625,0.03830000013113022,0,0.0,0.0,,,,,0,,1,,
Raw,255239736,33486900000000,,,-1221705665545849344,0.0,14.582172298105434,-2.5581185638722204,9.578711361149042,62,31,0.0,15,43152369750565,6,39.9,-524.6835327148438,0.03310000151395798,0,0.0,0.0,,,,,0,,1,,
Raw,255239737,33486900000000,,,-1221705665545849344,0.0,14.582172298105434,-2.5581185638722204,9.578711361149042,62,32,0.0,15,43152370968177,4,42.1,-232.49021911621094,0.03380000218749046,0,0.0,0.0,,,,,0,,1,,
Raw,255240746,33487900000000,,,-1221705665545849344,0.0,14.576749890693463,-2.535451329374288,9.573288355174377,62,10,0.0,15,43153377289475,5,48.1,-311.921142578125,0.04330000281333923,0,0.0,0.0,,,,,0,,1,,
Raw,255240747,33487900000000,,,-1221705665545849344,0.0,14.576749890693463,-2.535451329374288,9.573288355174377,62,12,0.0,15,43153371893105,4,45.0,23.30922508239746,0.03460000082850456,0,0.0,0.0,,,,,0,,1,,
Raw,255240748,33487900000000,,,-1221705665545849344,0.0,14.576749890693463,-2.535451329374288,9.573288355174377,62,14,0.0,15,43153366750540,4,43.2,-266.4088439941406,0.0276000015437603,0,0.0,0.0,,,,,0,,1,,
Raw,255240748,33487900000000,,,-1221705665545849344,0.0,14.576749890693463,-2.535451329374288,9.573288355174377,62,15,0.0,15,43153363947405,5,41.6,368.3174743652344,0.023600000888109207,0,0.0,0.0,,,,,0,,1,,
Raw,255240749,33487900000000,,,-1221705665545849344,0.0,14.576749890693463,-2.535451329374288,9.573288355174377,62,20,0.0,15,43153379155228,4,50.7,96.64270782470703,0.046300001442432404,0,0.0,0.0,,,,,0,,1,,
Raw,255240750,33487900000000,,,-1221705665545849344,0.0,14.576749890693463,-2.535451329374288,9.573288355174377,62,21,0.0,15,43153369654061,4,43.4,471.565185546875,0.032099999487400055,0,0.0,0.0,,,,,0,,1,,
Raw,255240750,33487900000000,,,-1221705665545849344,0.0,14.576749890693463,-2.535451329374288,9.573288355174377,62,24,0.0,15,43153367450098,4,42.7,613.29248046875,0.02930000051856041,0,0.0,0.0,,,,,0,,1,,
Raw,255240751,33487900000000,,,-1221705665545849344,0.0,14.576749890693463,-2.535451329374288,9.573288355174377,62,25,0.0,15,43153373263790,5,46.9,-397.2840881347656,0.03750000149011612,0,0.0,0.0,,,,,0,,1,,
Raw,255240752,33487900000000,,,-1221705665545849344,0.0,14.576749890693463,-2.535451329374288,9.573288355174377,62,31,0.0,15,43153369752307,4,43.7,-525.0521850585938,0.032099999487400055,0,0.0,0.0,,,,,0,,1,,
Raw,255240752,33487900000000,,,-1221705665545849344,0.0,14.576749890693463,-2.535451329374288,9.573288355174377,62,32,0.0,15,43153370968948,4,45.9,-232.9242401123047,0.03310000151395798,0,0.0,0.0,,,,,0,,1,,
Raw,255241753,33488900000000,,,-1221705665545849344,0.0,14.51530260965228,-3.9489297235660255,9.511841935812809,62,10,0.0,15,43154377290513,5,48.1,-311.46771240234375,0.04330000281333923,0,0.0,0.0,,,,,0,,1,,
Raw,255241753,33488900000000,,,-1221705665545849344,0.0,14.51530260965228,-3.9489297235660255,9.511841935812809,62,12,0.0,15,43154371893025,4,44.6,23.798437118530273,0.03480000048875809,0,0.0,0.0,,,,,0,,1,,
Raw,255241754,33488900000000,,,-1221705665545849344,0.0,14.51530260965228,-3.9489297235660255,9.511841935812809,62,14,0.0,15,43154366751424,4,42.9,-266.03912353515625,0.027800001204013824,0,0.0,0.0,,,,,0,,1,,
Raw,255241755,33488900000000,,,-1221705665545849344,0.0,14.51530260965228,-3.9489297235660255,9.511841935812809,62,15,0.0,15,43154363946164,5,41.4,368.69390869140625,0.023600000888109207,0,0.0,0.0,,,,,0,,1,,
Raw,255241755,33488900000000,,,-1221705665545849344,0.0,14.51530260965228,-3.9489297235660255,9.511841935812809,62,20,0.0,15,43154379154900,4,49.8,97.1234130859375,0.046300001442432404,0,0.0,0.0,,,,,0,,1,,
Raw,255241756,33488900000000,,,-1221705665545849344,0.0,14.51530260965228,-3.9489297235660255,9.511841935812809,62,21,0.0,15,43154369652477,4,43.6,471.9600830078125,0.032099999487400055,0,0.0,0.0,,,,,0,,1,,
Raw,255241757,33488900000000,,,-1221705665545849344,0.0,14.51530260965228,-3.9489297235660255,9.511841935812809,62,24,0.0,15,43154367448050,5,41.9,613.66552734375,0.029600001871585846,0,0.0,0.0,,,,,0,,1,,
Raw,255241757,33488900000000,,,-1221705665545849344,0.0,14.51530260965228,-3.9489297235660255,9.511841935812809,62,25,0.0,15,43154373265106,5,46.5,-396.8284912109375,0.03750000149011612,0,0.0,0.0,,,,,0,,1,,
Raw,255241758,33488900000000,,,-1221705665545849344,0.0,14.51530260965228,-3.9489297235660255,9.511841935812809,62,31,0.0,15,43154369754054,4,43.8,-524.615966796875,0.032099999487400055,0,0.0,0.0,,,,,0,,1,,
Raw,255241758,33488900000000,,,-1221705665545849344,0.0,14.51530260965228,-3.9489297235660255,9.511841935812809,62,32,0.0,15,43154370969712,5,46.1,-232.5546417236328,0.032999999821186066,0,0.0,0.0,,,,,0,,1,,
Raw,255242750,33489900000000,,,-1221705665545849344,0.0,14.515280781779438,-2.721174770168905,9.511819668007076,62,10,0.0,15,43155377291546,5,47.0,-311.1216125488281,0.04330000281333923,0,0.0,0.0,,,,,0,,1,,
Raw,255242751,33489900000000,,,-1221705665545849344,0.0,14.515280781779438,-2.721174770168905,9.511819668007076,62,12,0.0,15,43155371892945,4,43.4,24.184484481811523,0.035100001841783524,0,0.0,0.0,,,,,0,,1,,
Raw,255242752,33489900000000,,,-1221705665545849344,0.0,14.515280781779438,-2.721174770168905,9.511819668007076,62,14,0.0,15,43155366752305,5,41.5,-265.7735290527344,0.02810000069439411,0,0.0,0.0,,,,,0,,1,,
Raw,255242752,33489900000000,,,-1221705665545849344,0.0,14.515280781779438,-2.721174770168905,9.511819668007076,62,15,0.0,15,43155363944935,6,39.7,368.9625549316406,0.02410000190138817,0,0.0,0.0,,,,,0,,1,,
Raw,255242752,33489900000000,,,-1221705665545849344,0.0,14.515280781779438,-2.721174770168905,9.511819668007076,62,20,0.0,15,43155379154574,5,48.7,97.4949951171875,0.046300001442432404,0,0.0,0.0,,,,,0,,1,,
Raw,255242753,33489900000000,,,-1221705665545849344,0.0,14.515280781779438,-2.721174770168905,9.511819668007076,62,21,0.0,15,43155369650904,4,42.1,472.24969482421875,0.03230000287294388,0,0.0,0.0,,,,,0,,1,,
Raw,255242753,33489900000000,,,-1221705665545849344,0.0,14.515280781779438,-2.721174770168905,9.511819668007076,62,24,0.0,15,43155367445992,5,40.9,613.9342041015625,0.029900001361966133,0,0.0,0.0,,,,,0,,1,,
Raw,255242753,33489900000000,,,-1221705665545849344,0.0,14.515280781779438,-2.721174770168905,9.511819668007076,62,25,0.0,15,43155373266429,4,45.1,-396.4768981933594,0.03760000318288803,0,0.0,0.0,,,,,0,,1,,
Raw,255242754,33489900000000,,,-1221705665545849344,0.0,14.515280781779438,-2.721174770168905,9.511819668007076,62,31,0.0,15,43155369755799,5,41.9,-524.2782592773438,0.032600000500679016,0,0.0,0.0,,,,,0,,1,,
Raw,255242754,33489900000000,,,-1221705665545849344,0.0,14.515280781779438,-2.721174770168905,9.511819668007076,62,32,0.0,15,43155370970486,4,44.0,-232.28782653808594,0.0333000011742115,0,0.0,0.0,,,,,0,,1,,
Raw,255243748,33490900000000,,,-1221705665545849344,0.0,14.515259863401297,-1.8311071143128386,9.511798990758896,62,10,0.0,15,43156377292578,6,39.7,-311.11993408203125,0.045100003480911255,0,0.0,0.0,,,,,0,,1,,
Raw,255243748,33490900000000,,,-1221705665545849344,0.0,14.515259863401297,-1.8311071143128386,9.511798990758896,62,12,0.0,15,43156371892853,9,35.1,24.2137508392334,0.038100000470876694,0,0.0,0.0,,,,,0,,1,,
Raw,255243749,33490900000000,,,-1221705665545849344,0.0,14.515259863401297,-1.8311071143128386,9.511798990758896,62,14,0.0,15,43156366753203,12,32.8,-265.87042236328125,0.03290000185370445,0,0.0,0.0,,,,,0,,1,,
Raw,255243749,33490900000000,,,-1221705665545849344,0.0,14.515259863401297,-1.8311071143128386,9.511798990758896,62,15,0.0,15,43156363943703,13,31.8,368.98199462890625,0.02970000170171261,0,0.0,0.0,,,,,0,,1,,
Raw,255243750,33490900000000,,,-1221705665545849344,0.0,14.515259863401297,-1.8311071143128386,9.511798990758896,62,20,0.0,15,43156379154251,5,40.3,97.52216339111328,0.0479000024497509,0,0.0,0.0,,,,,0,,1,,
Raw,255243751,33490900000000,,,-1221705665545849344,0.0,14.515259863401297,-1.8311071143128386,9.511798990758896,62,21,0.0,15,43156369649332,10,34.4,472.1858215332031,0.035600002855062485,0,0.0,0.0,,,,,0,,1,,
Raw,255243751,33490900000000,,,-1221705665545849344,0.0,14.515259863401297,-1.8311071143128386,9.511798990758896,62,24,0.0,15,43156367443959,11,33.1,614.2108764648438,0.34700000286102295,0,0.0,0.0,,,,,0,,1,,
Raw,255243752,33490900000000,,,-1221705665545849344,0.0,14.515259863401297,-1.8311071143128386,9.511798990758896,62,25,0.0,15,43156373267747,8,36.7,-396.47589111328125,0.04070000350475311,0,0.0,0.0,,,,,0,,1,,
Raw,255243753,33490900000000,,,-1221705665545849344,0.0,14.515259863401297,-1.8311071143128386,9.511798990758896,62,31,0.0,15,43156369757547,10,34.1,-524.2987060546875,0.035600002855062485,0,0.0,0.0,,,,,0,,1,,
Raw,255243753,33490900000000,,,-1221705665545849344,0.0,14.515259863401297,-1.8311071143128386,9.511798990758896,62,32,0.0,15,43156370971256,9,35.8,-232.28396606445312,0.03660000115633011,0,0.0,0.0,,,,,0,,1,,
Raw,255244752,33491900000000,,,-1221705665545849344,0.0,14.539718904416077,-1.907086855669423,9.536256994241056,62,10,0.0,15,43157377293625,6,38.7,-310.45404052734375,0.04560000076889992,0,0.0,0.0,,,,,0,,1,,
Raw,255244752,33491900000000,,,-1221705665545849344,0.0,14.539718904416077,-1.907086855669423,9.536256994241056,62,12,0.0,15,43157371892768,10,34.0,24.899559020996094,0.038600001484155655,0,0.0,0.0,,,,,0,,1,,
Raw,255244753,33491900000000,,,-1221705665545849344,0.0,14.539718904416077,-1.907086855669423,9.536256994241056,62,14,0.0,15,43157366754086,12,32.1,-265.1034240722656,0.03290000185370445,0,0.0,0.0,,,,,0,,1,,
Raw,255244754,33491900000000,,,-1221705665545849344,0.0,14.539718904416077,-1.907086855669423,9.536256994241056,62,15,0.0,15,43157363942460,14,30.9,369.2088928222656,0.030300000682473183,0,0.0,0.0,,,,,0,,1,,
Raw,255244755,33491900000000,,,-1221705665545849344,0.0,14.539718904416077,-1.907086855669423,9.536256994241056,62,20,0.0,15,43157379153927,6,39.8,98.23253631591797,0.048100002110004425,0,0.0,0.0,,,,,0,,1,,
Raw,255244755,33491900000000,,,-1221705665545849344,0.0,14.539718904416077,-1.907086855669423,9.536256994241056,62,21,0.0,15,43157369647768,11,33.4,472.1025085449219,0.036400001496076584,0,0.0,0.0,,,,,0,,1,,
Raw,255244756,33491900000000,,,-1221705665545849344,0.0,14.539718904416077,-1.907086855669423,9.536256994241056,62,24,0.0,15,43157367441884,12,32.6,614.8123168945312,0.03440000116825104,0,0.0,0.0,,,,,0,,1,,
Raw,255244756,33491900000000,,,-1221705665545849344,0.0,14.539718904416077,-1.907086855669423,9.536256994241056,62,25,0.0,15,43157373269074,9,35.9,-395.69854736328125,0.04110000282526016,0,0.0,0.0,,,,,0,,1,,
Raw,255244757,33491900000000,,,-1221705665545849344,0.0,14.539718904416077,-1.907086855669423,9.536256994241056,62,31,0.0,15,43157369759305,11,33.5,-523.5260620117188,0.036400001496076584,0,0.0,0.0,,,,,0,,1,,
Raw,255244757,33491900000000,,,-1221705665545849344,0.0,14.539718904416077,-1.907086855669423,9.536256994241056,62,32,0.0,15,43157370972033,9,35.0,-231.78485107421875,0.03660000115633011,0,0.0,0.0,,,,,0,,1,,
Raw,255245752,33492900000000,,,-1221705665545849344,0.0,16.462287021568045,0.024665933156713716,11.458825144206683,62,10,0.0,15,43158377294656,6,38.3,-310.31927490234375,0.04560000076889992,0,0.0,0.0,,,,,0,,1,,
Raw,255245753,33492900000000,,,-1221705665545849344,0.0,16.462287021568045,0.024665933156713716,11.458825144206683,62,12,0.0,15,43158371892686,10,34.1,24.871381759643555,0.3229999840259552,0,0.0,0.0,,,,,0,,1,,
Raw,255245753,33492900000000,,,-1221705665545849344,0.0,16.462287021568045,0.024665933156713716,11.458825144206683,62,14,0.0,15,43158366754975,12,32.1,-265.1943359375,0.03290000185370445,0,0.0,0.0,,,,,0,,1,,
Raw,255245754,33492900000000,,,-1221705665545849344,0.0,16.462287021568045,0.024665933156713716,11.458825144206683,62,15,0.0,15,43158363941236,14,30.6,369.3663635253906,0.030300000682473183,0,0.0,0.0,,,,,0,,1,,
Raw,255245754,33492900000000,,,-1221705665545849344,0.0,16.462287021568045,0.024665933156713716,11.458825144206683,62,20,0.0,15,43158379153589,6,39.4,98.2968978881836,0.048100002110004425,0,0.0,0.0,,,,,0,,1,,
Raw,255245755,33492900000000,,,-1221705665545849344,0.0,16.462287021568045,0.024665933156713716,11.458825144206683,62,21,0.0,15,43158369646184,12,32.6,472.423095703125,0.3499999940395355,0,0.0,0.0,,,,,0,,1,,
Raw,255245755,33492900000000,,,-1221705665545849344,0.0,16.462287021568045,0.024665933156713716,11.458825144206683,62,24,0.0,15,43158367439847,12,32.2,614.3671264648438,0.03440000116825104,0,0.0,0.0,,,,,0,,1,,
Raw,255245756,33492900000000,,,-1221705665545849344,0.0,16.462287021568045,0.024665933156713716,11.458825144206683,62,25,0.0,15,43158373270394,9,35.5,-395.8677062988281,0.04110000282526016,0,0.0,0.0,,,,,0,,1,,
Raw,255245756,33492900000000,,,-1221705665545849344,0.0,16.462287021568045,0.024665933156713716,11.458825144206683,62,31,0.0,15,43158369761041,11,33.0,-523.701416015625,0.036400001496076584,0,0.0,0.0,,,,,0,,1,,
Raw,255245757,33492900000000,,,-1221705665545849344,0.0,16.462287021568045,0.024665933156713716,11.458825144206683,62,32,0.0,15,43158370972801,10,34.7,-232.03457641601562,0.30150002241134644,0,0.0,0.0,,,,,0,,1,,
Raw,255246751,33493900000000,,,-1221705665545849344,0.0,14.546390957548283,-0.5826808773262646,9.542930178451853,62,10,0.0,15,43159377295680,4,45.0,-310.8394775390625,0.04360000044107437,0,0.0,0.0,,,,,0,,1,,
Raw,255246752,33493900000000,,,-1221705665545849344,0.0,14.546390957548283,-0.5826808773262646,9.542930178451853,62,12,0.0,15,43159371892599,5,40.5,24.61416244506836,0.03590000048279762,0,0.0,0.0,,,,,0,,1,,
Raw,255246753,33493900000000,,,-1221705665545849344,0.0,14.546390957548283,-0.5826808773262646,9.542930178451853,62,14,0.0,15,43159366755845,6,38.3,-265.8523254394531,0.029100000858306885,0,0.0,0.0,,,,,0,,1,,
Raw,255246753,33493900000000,,,-1221705665545849344,0.0,14.546390957548283,-0.5826808773262646,9.542930178451853,62,15,0.0,15,43159363939998,8,36.9,368.923828125,0.025700001046061516,0,0.0,0.0,,,,,0,,1,,
Raw,255246754,33493900000000,,,-1221705665545849344,0.0,14.546390957548283,-0.5826808773262646,9.542930178451853,62,20,0.0,15,43159379153255,4,45.8,97.88992309570312,0.04660000279545784,0,0.0,0.0,,,,,0,,1,,
Raw,255246754,33493900000000,,,-1221705665545849344,0.0,14.546390957548283,-0.5826808773262646,9.542930178451853,62,21,0.0,15,43159369644582,6,39.0,472.29498291015625,0.03310000151395798,0,0.0,0.0,,,,,0,,1,,
Raw,255246755,33493900000000,,,-1221705665545849344,0.0,14.546390957548283,-0.5826808773262646,9.542930178451853,62,24,0.0,15,43159367437792,6,38.5,613.8990478515625,0.03060000203549862,0,0.0,0.0,,,,,0,,1,,
Raw,255246755,33493900000000,,,-1221705665545849344,0.0,14.546390957548283,-0.5826808773262646,9.542930178451853,62,25,0.0,15,43159373271704,4,42.0,-396.1816101074219,0.03830000013113022,0,0.0,0.0,,,,,0,,1,,
Raw,255246756,33493900000000,,,-1221705665545849344,0.0,14.546390957548283,-0.5826808773262646,9.542930178451853,62,31,0.0,15,43159369762776,6,39.2,-524.0567016601562,0.03310000151395798,0,0.0,0.0,,,,,0,,1,,
Raw,255246757,33493900000000,,,-1221705665545849344,0.0,14.546390957548283,-0.5826808773262646,9.542930178451853,62,32,0.0,15,43159370973570,5,41.1,-232.33901977539062,0.0340999998152256,0,0.0,0.0,,,,,0,,1,,
Raw,255247749,33494900000000,,,-1221705665545849344,0.0,14.515180737362243,-2.0641454670756634,9.51171946288128,62,10,0.0,15,43160377296718,5,46.5,-310.4648742675781,0.04350000247359276,0,0.0,0.0,,,,,0,,1,,
Raw,255247751,33494900000000,,,-1221705665545849344,0.0,14.515180737362243,-2.0641454670756634,9.51171946288128,62,12,0.0,15,43160371892520,4,43.0,25.025949478149414,0.035100001841783524,0,0.0,0.0,,,,,0,,1,,
Raw,255247751,33494900000000,,,-1221705665545849344,0.0,14.515180737362243,-2.0641454670756634,9.51171946288128,62,14,0.0,15,43160366756726,5,40.8,-265.55267333984375,0.028400002047419548,0,0.0,0.0,,,,,0,,1,,
Raw,255247752,33494900000000,,,-1221705665545849344,0.0,14.515180737362243,-2.0641454670756634,9.51171946288128,62,15,0.0,15,43160363938767,6,39.4,369.2301940917969,0.02410000190138817,0,0.0,0.0,,,,,0,,1,,
Raw,255247753,33494900000000,,,-1221705665545849344,0.0,14.515180737362243,-2.0641454670756634,9.51171946288128,62,20,0.0,15,43160379152929,5,47.8,98.28376770019531,0.046300001442432404,0,0.0,0.0,,,,,0,,1,,
Raw,255247753,33494900000000,,,-1221705665545849344,0.0,14.515180737362243,-2.0641454670756634,9.51171946288128,62,21,0.0,15,43160369643007,5,41.7,472.6184997558594,0.032600000500679016,0,0.0,0.0,,,,,0,,1,,
Raw,255247754,33494900000000,,,-1221705665545849344,0.0,14.515180737362243,-2.0641454670756634,9.51171946288128,62,24,0.0,15,43160367435747,5,40.8,614.196533203125,0.029900001361966133,0,0.0,0.0,,,,,0,,1,,
Raw,255247755,33494900000000,,,-1221705665545849344,0.0,14.515180737362243,-2.0641454670756634,9.51171946288128,62,25,0.0,15,43160373273024,4,44.6,-395.8062744140625,0.037800002843141556,0,0.0,0.0,,,,,0,,1,,
Raw,255247755,33494900000000,,,-1221705665545849344,0.0,14.515180737362243,-2.0641454670756634,9.51171946288128,62,31,0.0,15,43160369764524,5,41.7,-523.693359375,0.032600000500679016,0,0.0,0.0,,,,,0,,1,,
Raw,255247756,33494900000000,,,-1221705665545849344,0.0,14.515180737362243,-2.0641454670756634,9.51171946288128,62,32,0.0,15,43160370974352,4,43.8,-232.04087829589844,0.03360000252723694,0,0.0,0.0,,,,,0,,1,,
Raw,255248749,33495900000000,,,-1221705665545849344,0.0,14.5151589094894,-1.0495969001903087,9.511697990354323,62,10,0.0,15,43161377297749,4,49.2,-310.23748779296875,0.04330000281333923,0,0.0,0.0,,,,,0,,1,,
Raw,255248750,33495900000000,,,-1221705665545849344,0.0,14.5151589094894,-1.0495969001903087,9.511697990354323,62,12,0.0,15,43161371892428,4,45.5,25.282995223999023,0.03460000082850456,0,0.0,0.0,,,,,0,,1,,
Raw,255248751,33495900000000,,,-1221705665545849344,0.0,14.5151589094894,-1.0495969001903087,9.511697990354323,62,14,0.0,15,43161366757608,4,43.0,-265.4277648925781,0.0276000015437603,0,0.0,0.0,,,,,0,,1,,
Raw,255248753,33495900000000,,,-1221705665545849344,0.0,14.5151589094894,-1.0495969001903087,9.511697990354323,62,15,0.0,15,43161363937528,4,42.0,369.3600769042969,0.02330000139772892,0,0.0,0.0,,,,,0,,1,,
Raw,255248753,33495900000000,,,-1221705665545849344,0.0,14.5151589094894,-1.0495969001903087,9.511697990354323,62,20,0.0,15,43161379152595,4,51.2,98.54325866699219,0.046300001442432404,0,0.0,0.0,,,,,0,,1,,
Raw,255248754,33495900000000,,,-1221705665545849344,0.0,14.5151589094894,-1.0495969001903087,9.511697990354323,62,21,0.0,15,43161369641433,4,44.0,472.77301025390625,0.03180000185966492,0,0.0,0.0,,,,,0,,1,,
Raw,255248754,33495900000000,,,-1221705665545849344,0.0,14.5151589094894,-1.0495969001903087,9.511697990354323,62,24,0.0,15,43161367433684,4,43.0,614.3303833007812,0.029100000858306885,0,0.0,0.0,,,,,0,,1,,
Raw,255248755,33495900000000,,,-1221705665545849344,0.0,14.5151589094894,-1.0495969001903087,9.511697990354323,62,25,0.0,15,43161373274339,5,47.2,-395.5765380859375,0.037300001829862595,0,0.0,0.0,,,,,0,,1,,
Raw,255248755,33495900000000,,,-1221705665545849344,0.0,14.5151589094894,-1.0495969001903087,9.511697990354323,62,31,0.0,15,43161369766267,4,43.8,-523.4892578125,0.032099999487400055,0,0.0,0.0,,,,,0,,1,,
Raw,255248756,33495900000000,,,-1221705665545849344,0.0,14.5151589094894,-1.0495969001903087,9.511697990354323,62,32,0.0,15,43161370975115,5,46.5,-231.90435791015625,0.032999999821186066,0,0.0,0.0,,,,,0,,1,,
Raw,255249745,33496900000000,,,-1221705665545849344,0.0,14.515138900605962,-0.6609273620146114,9.511678108384919,62,10,0.0,15,43162377298775,5,48.9,-310.2889404296875,0.04330000281333923,0,0.0,0.0,,,,,0,,1,,
Raw,255249746,33496900000000,,,-1221705665545849344,0.0,14.515138900605962,-0.6609273620146114,9.511678108384919,62,12,0.0,15,43162371892337,4,45.2,25.27797508239746,0.03460000082850456,0,0.0,0.0,,,,,0,,1,,
Raw,255249746,33496900000000,,,-1221705665545849344,0.0,14.515138900605962,-0.6609273620146114,9.511678108384919,62,14,0.0,15,43162366758492,4,43.2,-265.53985595703125,0.0276000015437603,0,0.0,0.0,,,,,0,,1,,
Raw,255249747,33496900000000,,,-1221705665545849344,0.0,14.515138900605962,-0.6609273620146114,9.511678108384919,62,15,0.0,15,43162363936296,5,41.2,369.2527770996094,0.023600000888109207,0,0.0,0.0,,,,,0,,1,,
Raw,255249747,33496900000000,,,-1221705665545849344,0.0,14.515138900605962,-0.6609273620146114,9.511678108384919,62,20,0.0,15,43162379152262,4,50.3,98.51893615722656,0.046300001442432404,0,0.0,0.0,,,,,0,,1,,
