# 
# Header Description:
# 
# Version: v2.0.0.1 Platform: 8.0.0 Manufacturer: Xiaomi Model: MIX 2
# 
# Raw,ElapsedRealtimeMillis,TimeNanos,LeapSecond,TimeUncertaintyNanos,FullBiasNanos,BiasNanos,BiasUncertaintyNanos,DriftNanosPerSecond,DriftUncertaintyNanosPerSecond,HardwareClockDiscontinuityCount,Svid,TimeOffsetNanos,State,ReceivedSvTimeNanos,ReceivedSvTimeUncertaintyNanos,Cn0DbHz,PseudorangeRateMetersPerSecond,PseudorangeRateUncertaintyMetersPerSecond,AccumulatedDeltaRangeState,AccumulatedDeltaRangeMeters,AccumulatedDeltaRangeUncertaintyMeters,CarrierFrequencyHz,CarrierCycles,CarrierPhase,CarrierPhaseUncertainty,MultipathIndicator,SnrInDb,ConstellationType,AgcDb,CarrierFrequencyHz
# 
# Fix,Provider,Latitude,Longitude,Altitude,Speed,Accuracy,(UTC)TimeInMs
# 
# Nav,Svid,Type,Status,MessageId,Sub-messageId,Data(Bytes)
# 
Raw,257955290,35203700000000,,,-1221703859738596096,0.0,16.562016753596254,5.139783344109729,10.490216949334783,91,10,0.0,15,43063369941907,5,47.2,-316.54449462890625,0.031300000846385956,0,0.0,0.0,,,,,0,,1,,
Raw,257955291,35203700000000,,,-1221703859738596096,0.0,16.562016753596254,5.139783344109729,10.490216949334783,91,12,0.0,15,43063364645679,4,44.8,15.295492172241211,0.024300001561641693,0,0.0,0.0,,,,,0,,1,,
Raw,257955291,35203700000000,,,-1221703859738596096,0.0,16.562016753596254,5.139783344109729,10.490216949334783,91,14,0.0,15,43063359417776,4,42.6,-263.4129333496094,0.047300003468990326,0,0.0,0.0,,,,,0,,1,,
Raw,257955292,35203700000000,,,-1221703859738596096,0.0,16.562016753596254,5.139783344109729,10.490216949334783,91,15,0.0,15,43063356805108,5,40.8,370.654052734375,0.04340000078082085,0,0.0,0.0,,,,,0,,1,,
Raw,257955292,35203700000000,,,-1221703859738596096,0.0,16.562016753596254,5.139783344109729,10.490216949334783,91,20,0.0,15,43063371929947,4,50.2,89.50859832763672,0.034300003200769424,0,0.0,0.0,,,,,0,,1,,
Raw,257955293,35203700000000,,,-1221703859738596096,0.0,16.562016753596254,5.139783344109729,10.490216949334783,91,21,0.0,15,43063362542486,4,43.6,471.9980773925781,0.02160000056028366,0,0.0,0.0,,,,,0,,1,,
Raw,257955293,35203700000000,,,-1221703859738596096,0.0,16.562016753596254,5.139783344109729,10.490216949334783,91,24,0.0,15,43063360381357,4,42.6,615.6218872070312,0.018800001591444016,0,0.0,0.0,,,,,0,,1,,
Raw,257955293,35203700000000,,,-1221703859738596096,0.0,16.562016753596254,5.139783344109729,10.490216949334783,91,25,0.0,15,43063365890550,5,46.5,-402.1575622558594,0.02550000138580799,0,0.0,0.0,,,,,0,,1,,
Raw,257955294,35203700000000,,,-1221703859738596096,0.0,16.562016753596254,5.139783344109729,10.490216949334783,91,31,0.0,15,43063362340934,4,43.8,-528.4391479492188,0.02160000056028366,0,0.0,0.0,,,,,0,,1,,
Raw,257955294,35203700000000,,,-1221703859738596096,0.0,16.562016753596254,5.139783344109729,10.490216949334783,91,32,0.0,15,43063363646189,4,45.6,-230.2409210205078,0.022600000724196434,0,0.0,0.0,,,,,0,,1,,
Raw,257956296,35204700000000,,,-1221703859738596096,0.0,15.330431779148057,5.703463023276485,9.51363528945306,91,10,0.0,15,43064369942959,5,47.6,-318.7080383300781,0.031300000846385956,0,0.0,0.0,,,,,0,,1,,
Raw,257956297,35204700000000,,,-1221703859738596096,0.0,15.330431779148057,5.703463023276485,9.51363528945306,91,12,0.0,15,43064364645637,4,45.4,13.165227890014648,0.02410000190138817,0,0.0,0.0,,,,,0,,1,,
Raw,257956297,35204700000000,,,-1221703859738596096,0.0,15.330431779148057,5.703463023276485,9.51363528945306,91,14,0.0,15,43064359418663,4,43.3,-265.65863037109375,0.0471000038087368,0,0.0,0.0,,,,,0,,1,,
Raw,257956298,35204700000000,,,-1221703859738596096,0.0,15.330431779148057,5.703463023276485,9.51363528945306,91,15,0.0,15,43064356803877,5,41.1,368.40582275390625,0.04310000315308571,0,0.0,0.0,,,,,0,,1,,
Raw,257956299,35204700000000,,,-1221703859738596096,0.0,15.330431779148057,5.703463023276485,9.51363528945306,91,20,0.0,15,43064371929652,4,50.5,87.37103271484375,0.034300003200769424,0,0.0,0.0,,,,,0,,1,,
Raw,257956300,35204700000000,,,-1221703859738596096,0.0,15.330431779148057,5.703463023276485,9.51363528945306,91,21,0.0,15,43064362540912,4,43.7,469.7726745605469,0.02160000056028366,0,0.0,0.0,,,,,0,,1,,
Raw,257956300,35204700000000,,,-1221703859738596096,0.0,15.330431779148057,5.703463023276485,9.51363528945306,91,24,0.0,15,43064360379303,4,42.3,613.3695678710938,0.018800001591444016,0,0.0,0.0,,,,,0,,1,,
Raw,257956301,35204700000000,,,-1221703859738596096,0.0,15.330431779148057,5.703463023276485,9.51363528945306,91,25,0.0,15,43064365891894,5,46.7,-404.3245849609375,0.02550000138580799,0,0.0,0.0,,,,,0,,1,,
Raw,257956301,35204700000000,,,-1221703859738596096,0.0,15.330431779148057,5.703463023276485,9.51363528945306,91,31,0.0,15,43064362342694,4,43.8,-530.6265258789062,0.02160000056028366,0,0.0,0.0,,,,,0,,1,,
Raw,257956301,35204700000000,,,-1221703859738596096,0.0,15.330431779148057,5.703463023276485,9.51363528945306,91,32,0.0,15,43064363646960,4,45.9,-232.4942169189453,0.022600000724196434,0,0.0,0.0,,,,,0,,1,,
Raw,257957291,35205700000000,,,-1221703859738596096,0.0,15.120258467504755,-1.821173287119769,9.513615407483655,91,10,0.0,15,43065369944020,5,48.9,-317.76043701171875,0.031300000846385956,0,0.0,0.0,,,,,0,,1,,
Raw,257957292,35205700000000,,,-1221703859738596096,0.0,15.120258467504755,-1.821173287119769,9.513615407483655,91,12,0.0,15,43065364645586,5,46.5,14.174267768859863,0.024000000208616257,0,0.0,0.0,,,,,0,,1,,
Raw,257957292,35205700000000,,,-1221703859738596096,0.0,15.120258467504755,-1.821173287119769,9.513615407483655,91,14,0.0,15,43065359419538,4,44.8,-264.82440185546875,0.046800002455711365,0,0.0,0.0,,,,,0,,1,,
Raw,257957293,35205700000000,,,-1221703859738596096,0.0,15.120258467504755,-1.821173287119769,9.513615407483655,91,15,0.0,15,43065356802642,4,42.2,369.2637023925781,0.04280000180006027,0,0.0,0.0,,,,,0,,1,,
Raw,257957294,35205700000000,,,-1221703859738596096,0.0,15.120258467504755,-1.821173287119769,9.513615407483655,91,20,0.0,15,43065371929355,4,51.6,88.3442611694336,0.034300003200769424,0,0.0,0.0,,,,,0,,1,,
Raw,257957295,35205700000000,,,-1221703859738596096,0.0,15.120258467504755,-1.821173287119769,9.513615407483655,91,21,0.0,15,43065362539340,4,44.8,470.6947021484375,0.021300001069903374,0,0.0,0.0,,,,,0,,1,,
Raw,257957295,35205700000000,,,-1221703859738596096,0.0,15.120258467504755,-1.821173287119769,9.513615407483655,91,24,0.0,15,43065360377251,4,42.9,614.276611328125,0.018800001591444016,0,0.0,0.0,,,,,0,,1,,
Raw,257957296,35205700000000,,,-1221703859738596096,0.0,15.120258467504755,-1.821173287119769,9.513615407483655,91,25,0.0,15,43065365893240,5,47.7,-403.35736083984375,0.025300001725554466,0,0.0,0.0,,,,,0,,1,,
Raw,257957297,35205700000000,,,-1221703859738596096,0.0,15.120258467504755,-1.821173287119769,9.513615407483655,91,31,0.0,15,43065362344463,4,44.9,-529.6591796875,0.021300001069903374,0,0.0,0.0,,,,,0,,1,,
Raw,257957297,35205700000000,,,-1221703859738596096,0.0,15.120258467504755,-1.821173287119769,9.513615407483655,91,32,0.0,15,43065363647727,5,47.0,-231.60641479492188,0.022300001233816147,0,0.0,0.0,,,,,0,,1,,
Raw,257958265,35206700000000,,,-1221703859738596096,0.0,15.920886653475463,1.1069339152957407,10.490158098705347,91,10,0.0,15,43066369945075,5,48.8,-317.11065673828125,0.031300000846385956,0,0.0,0.0,,,,,0,,1,,
Raw,257958265,35206700000000,,,-1221703859738596096,0.0,15.920886653475463,1.1069339152957407,10.490158098705347,91,12,0.0,15,43066364645534,5,47.0,14.85283374786377,0.023800000548362732,0,0.0,0.0,,,,,0,,1,,
Raw,257958266,35206700000000,,,-1221703859738596096,0.0,15.920886653475463,1.1069339152957407,10.490158098705347,91,14,0.0,15,43066359420420,4,45.1,-264.2403564453125,0.04660000279545784,0,0.0,0.0,,,,,0,,1,,
Raw,257958266,35206700000000,,,-1221703859738596096,0.0,15.920886653475463,1.1069339152957407,10.490158098705347,91,15,0.0,15,43066356801405,4,42.9,369.8434143066406,0.04280000180006027,0,0.0,0.0,,,,,0,,1,,
Raw,257958266,35206700000000,,,-1221703859738596096,0.0,15.920886653475463,1.1069339152957407,10.490158098705347,91,20,0.0,15,43066371929061,4,51.3,89.02769470214844,0.034300003200769424,0,0.0,0.0,,,,,0,,1,,
Raw,257958267,35206700000000,,,-1221703859738596096,0.0,15.920886653475463,1.1069339152957407,10.490158098705347,91,21,0.0,15,43066362537769,4,45.1,471.2777404785156,0.02110000140964985,0,0.0,0.0,,,,,0,,1,,
Raw,257958267,35206700000000,,,-1221703859738596096,0.0,15.920886653475463,1.1069339152957407,10.490158098705347,91,24,0.0,15,43066360375201,4,43.5,614.838134765625,0.01860000006854534,0,0.0,0.0,,,,,0,,1,,
Raw,257958268,35206700000000,,,-1221703859738596096,0.0,15.920886653475463,1.1069339152957407,10.490158098705347,91,25,0.0,15,43066365894579,5,48.1,-402.7120056152344,0.025300001725554466,0,0.0,0.0,,,,,0,,1,,
Raw,257958268,35206700000000,,,-1221703859738596096,0.0,15.920886653475463,1.1069339152957407,10.490158098705347,91,31,0.0,15,43066362346227,4,44.7,-529.0414428710938,0.021300001069903374,0,0.0,0.0,,,,,0,,1,,
Raw,257958269,35206700000000,,,-1221703859738596096,0.0,15.920886653475463,1.1069339152957407,10.490158098705347,91,32,0.0,15,43066363648497,5,47.6,-231.04757690429688,0.022300001233816147,0,0.0,0.0,,,,,0,,1,,
Raw,257959267,35207700000000,,,-1221703859738596096,0.0,14.795141396461986,2.978078444905954,9.513575643544847,91,10,0.0,15,43067369946137,5,48.2,-318.888671875,0.031300000846385956,0,0.0,0.0,,,,,0,,1,,
Raw,257959267,35207700000000,,,-1221703859738596096,0.0,14.795141396461986,2.978078444905954,9.513575643544847,91,12,0.0,15,43067364645480,5,46.6,13.092016220092773,0.024000000208616257,0,0.0,0.0,,,,,0,,1,,
Raw,257959267,35207700000000,,,-1221703859738596096,0.0,14.795141396461986,2.978078444905954,9.513575643544847,91,14,0.0,15,43067359421304,4,44.5,-266.07403564453125,0.046800002455711365,0,0.0,0.0,,,,,0,,1,,
Raw,257959268,35207700000000,,,-1221703859738596096,0.0,14.795141396461986,2.978078444905954,9.513575643544847,91,15,0.0,15,43067356800169,4,42.5,368.0111999511719,0.04280000180006027,0,0.0,0.0,,,,,0,,1,,
Raw,257959268,35207700000000,,,-1221703859738596096,0.0,14.795141396461986,2.978078444905954,9.513575643544847,91,20,0.0,15,43067371928757,4,51.3,87.28218841552734,0.034300003200769424,0,0.0,0.0,,,,,0,,1,,
Raw,257959269,35207700000000,,,-1221703859738596096,0.0,14.795141396461986,2.978078444905954,9.513575643544847,91,21,0.0,15,43067362536194,4,44.8,469.4165344238281,0.021300001069903374,0,0.0,0.0,,,,,0,,1,,
Raw,257959269,35207700000000,,,-1221703859738596096,0.0,14.795141396461986,2.978078444905954,9.513575643544847,91,24,0.0,15,43067360373152,4,42.9,612.9476928710938,0.018800001591444016,0,0.0,0.0,,,,,0,,1,,
Raw,257959269,35207700000000,,,-1221703859738596096,0.0,14.795141396461986,2.978078444905954,9.513575643544847,91,25,0.0,15,43067365895918,5,47.8,-404.5011901855469,0.025300001725554466,0,0.0,0.0,,,,,0,,1,,
Raw,257959270,35207700000000,,,-1221703859738596096,0.0,14.795141396461986,2.978078444905954,9.513575643544847,91,31,0.0,15,43067362347983,4,44.6,-530.8554077148438,0.021300001069903374,0,0.0,0.0,,,,,0,,1,,
Raw,257959270,35207700000000,,,-1221703859738596096,0.0,14.795141396461986,2.978078444905954,9.513575643544847,91,32,0.0,15,43067363649273,5,46.8,-232.9317626953125,0.02250000089406967,0,0.0,0.0,,,,,0,,1,,
Raw,257960286,35208700000000,,,-1221703859738596096,0.0,14.667262803413905,-3.2551762359667573,9.513555761575443,91,10,0.0,15,43068369947198,5,48.1,-319.796142578125,0.031300000846385956,0,0.0,0.0,,,,,0,,1,,
Raw,257960287,35208700000000,,,-1221703859738596096,0.0,14.667262803413905,-3.2551762359667573,9.513555761575443,91,12,0.0,15,43068364645434,5,46.4,12.251023292541504,0.024000000208616257,0,0.0,0.0,,,,,0,,1,,
Raw,257960288,35208700000000,,,-1221703859738596096,0.0,14.667262803413905,-3.2551762359667573,9.513555761575443,91,14,0.0,15,43068359422192,4,44.3,-267.1063537597656,0.046800002455711365,0,0.0,0.0,,,,,0,,1,,
Raw,257960288,35208700000000,,,-1221703859738596096,0.0,14.667262803413905,-3.2551762359667573,9.513555761575443,91,15,0.0,15,43068356798944,4,42.0,366.9959716796875,0.04280000180006027,0,0.0,0.0,,,,,0,,1,,
Raw,257960289,35208700000000,,,-1221703859738596096,0.0,14.667262803413905,-3.2551762359667573,9.513555761575443,91,20,0.0,15,43068371928470,4,51.1,86.395263671875,0.034300003200769424,0,0.0,0.0,,,,,0,,1,,
Raw,257960290,35208700000000,,,-1221703859738596096,0.0,14.667262803413905,-3.2551762359667573,9.513555761575443,91,21,0.0,15,43068362534634,4,44.3,468.49041748046875,0.021300001069903374,0,0.0,0.0,,,,,0,,1,,
Raw,257960290,35208700000000,,,-1221703859738596096,0.0,14.667262803413905,-3.2551762359667573,9.513555761575443,91,24,0.0,15,43068360371108,4,43.4,612.0133056640625,0.01860000006854534,0,0.0,0.0,,,,,0,,1,,
Raw,257960291,35208700000000,,,-1221703859738596096,0.0,14.667262803413905,-3.2551762359667573,9.513555761575443,91,25,0.0,15,43068365897273,5,47.2,-405.38525390625,0.025300001725554466,0,0.0,0.0,,,,,0,,1,,
Raw,257960292,35208700000000,,,-1221703859738596096,0.0,14.667262803413905,-3.2551762359667573,9.513555761575443,91,31,0.0,15,43068362349760,4,44.7,-531.734619140625,0.021300001069903374,0,0.0,0.0,,,,,0,,1,,
Raw,257960292,35208700000000,,,-1221703859738596096,0.0,14.667262803413905,-3.2551762359667573,9.513555761575443,91,32,0.0,15,43068363650046,5,47.1,-233.8734588623047,0.022300001233816147,0,0.0,0.0,,,,,0,,1,,
Raw,257961285,35209700000000,,,-1221703859738596096,0.0,14.556644600816071,-6.509006860244245,9.513536674884815,91,10,0.0,15,43069369948257,5,48.4,-317.9614562988281,0.031300000846385956,0,0.0,0.0,,,,,0,,1,,
Raw,257961285,35209700000000,,,-1221703859738596096,0.0,14.556644600816071,-6.509006860244245,9.513536674884815,91,12,0.0,15,43069364645386,5,46.1,14.125553131103516,0.024000000208616257,0,0.0,0.0,,,,,0,,1,,
Raw,257961285,35209700000000,,,-1221703859738596096,0.0,14.556644600816071,-6.509006860244245,9.513536674884815,91,14,0.0,15,43069359423076,4,43.9,-265.36114501953125,0.0471000038087368,0,0.0,0.0,,,,,0,,1,,
Raw,257961286,35209700000000,,,-1221703859738596096,0.0,14.556644600816071,-6.509006860244245,9.513536674884815,91,15,0.0,15,43069356797720,5,41.2,368.7376708984375,0.04310000315308571,0,0.0,0.0,,,,,0,,1,,
Raw,257961286,35209700000000,,,-1221703859738596096,0.0,14.556644600816071,-6.509006860244245,9.513536674884815,91,20,0.0,15,43069371928173,4,50.5,88.25205993652344,0.034300003200769424,0,0.0,0.0,,,,,0,,1,,
Raw,257961287,35209700000000,,,-1221703859738596096,0.0,14.556644600816071,-6.509006860244245,9.513536674884815,91,21,0.0,15,43069362533058,4,43.3,470.2767028808594,0.02160000056028366,0,0.0,0.0,,,,,0,,1,,
Raw,257961287,35209700000000,,,-1221703859738596096,0.0,14.556644600816071,-6.509006860244245,9.513536674884815,91,24,0.0,15,43069360369063,4,42.3,613.775390625,0.018800001591444016,0,0.0,0.0,,,,,0,,1,,
Raw,257961287,35209700000000,,,-1221703859738596096,0.0,14.556644600816071,-6.509006860244245,9.513536674884815,91,25,0.0,15,43069365898623,5,47.0,-403.5482177734375,0.025300001725554466,0,0.0,0.0,,,,,0,,1,,
Raw,257961288,35209700000000,,,-1221703859738596096,0.0,14.556644600816071,-6.509006860244245,9.513536674884815,91,31,0.0,15,43069362351525,4,44.4,-529.9126586914062,0.021300001069903374,0,0.0,0.0,,,,,0,,1,,
Raw,257961288,35209700000000,,,-1221703859738596096,0.0,14.556644600816071,-6.509006860244245,9.513536674884815,91,32,0.0,15,43069363650821,5,46.7,-232.11962890625,0.02250000089406967,0,0.0,0.0,,,,,0,,1,,
Raw,257962289,35210700000000,,,-1221703859738596096,0.0,14.516977898892947,-0.6818226656943258,9.51351679291541,91,10,0.0,15,43070369949308,5,47.4,-316.2756652832031,0.031300000846385956,0,0.0,0.0,,,,,0,,1,,
Raw,257962290,35210700000000,,,-1221703859738596096,0.0,14.516977898892947,-0.6818226656943258,9.51351679291541,91,12,0.0,15,43070364645331,4,45.5,15.842761039733887,0.02410000190138817,0,0.0,0.0,,,,,0,,1,,
Raw,257962290,35210700000000,,,-1221703859738596096,0.0,14.516977898892947,-0.6818226656943258,9.51351679291541,91,14,0.0,15,43070359423949,4,43.5,-263.74383544921875,0.0471000038087368,0,0.0,0.0,,,,,0,,1,,
Raw,257962291,35210700000000,,,-1221703859738596096,0.0,14.516977898892947,-0.6818226656943258,9.51351679291541,91,15,0.0,15,43070356796473,5,40.9,370.3707580566406,0.04340000078082085,0,0.0,0.0,,,,,0,,1,,
Raw,257962291,35210700000000,,,-1221703859738596096,0.0,14.516977898892947,-0.6818226656943258,9.51351679291541,91,20,0.0,15,43070371927869,4,50.0,89.9730224609375,0.034300003200769424,0,0.0,0.0,,,,,0,,1,,
Raw,257962292,35210700000000,,,-1221703859738596096,0.0,14.516977898892947,-0.6818226656943258,9.51351679291541,91,21,0.0,15,43070362531477,4,43.2,471.8968811035156,0.02160000056028366,0,0.0,0.0,,,,,0,,1,,
Raw,257962293,35210700000000,,,-1221703859738596096,0.0,14.516977898892947,-0.6818226656943258,9.51351679291541,91,24,0.0,15,43070360367003,5,41.5,615.3729858398438,0.019100001081824303,0,0.0,0.0,,,,,0,,1,,
Raw,257962293,35210700000000,,,-1221703859738596096,0.0,14.516977898892947,-0.6818226656943258,9.51351679291541,91,25,0.0,15,43070365899950,5,46.6,-401.8630065917969,0.02550000138580799,0,0.0,0.0,,,,,0,,1,,
Raw,257962294,35210700000000,,,-1221703859738596096,0.0,14.516977898892947,-0.6818226656943258,9.51351679291541,91,31,0.0,15,43070362353281,4,44.0,-528.2498779296875,0.021300001069903374,0,0.0,0.0,,,,,0,,1,,
Raw,257962294,35210700000000,,,-1221703859738596096,0.0,14.516977898892947,-0.6818226656943258,9.51351679291541,91,32,0.0,15,43070363651583,5,46.2,-230.5289764404297,0.02250000089406967,0,0.0,0.0,,,,,0,,1,,
Raw,257963294,35211700000000,,,-1221703859738596096,0.0,14.516957890009508,4.673038206772713,9.513496910946007,91,10,0.0,15,43071369950363,5,47.0,-316.09161376953125,0.031300000846385956,0,0.0,0.0,,,,,0,,1,,
Raw,257963294,35211700000000,,,-1221703859738596096,0.0,14.516957890009508,4.673038206772713,9.513496910946007,91,12,0.0,15,43071364645278,4,45.0,16.06168556213379,0.02410000190138817,0,0.0,0.0,,,,,0,,1,,
Raw,257963295,35211700000000,,,-1221703859738596096,0.0,14.516957890009508,4.673038206772713,9.513496910946007,91,14,0.0,15,43071359424827,4,43.0,-263.6475524902344,0.0471000038087368,0,0.0,0.0,,,,,0,,1,,
Raw,257963295,35211700000000,,,-1221703859738596096,0.0,14.516957890009508,4.673038206772713,9.513496910946007,91,15,0.0,15,43071356795235,5,41.1,370.47650146484375,0.04310000315308571,0,0.0,0.0,,,,,0,,1,,
Raw,257963296,35211700000000,,,-1221703859738596096,0.0,14.516957890009508,4.673038206772713,9.513496910946007,91,20,0.0,15,43071371927572,4,49.8,90.18499755859375,0.034300003200769424,0,0.0,0.0,,,,,0,,1,,
Raw,257963296,35211700000000,,,-1221703859738596096,0.0,14.516957890009508,4.673038206772713,9.513496910946007,91,21,0.0,15,43071362529906,4,43.2,472.02606201171875,0.02160000056028366,0,0.0,0.0,,,,,0,,1,,
Raw,257963297,35211700000000,,,-1221703859738596096,0.0,14.516957890009508,4.673038206772713,9.513496910946007,91,24,0.0,15,43071360364956,4,42.8,615.4749145507812,0.018800001591444016,0,0.0,0.0,,,,,0,,1,,
Raw,257963297,35211700000000,,,-1221703859738596096,0.0,14.516957890009508,4.673038206772713,9.513496910946007,91,25,0.0,15,43071365901290,5,46.4,-401.6805419921875,0.02550000138580799,0,0.0,0.0,,,,,0,,1,,
Raw,257963297,35211700000000,,,-1221703859738596096,0.0,14.516957890009508,4.673038206772713,9.513496910946007,91,31,0.0,15,43071362355048,4,43.9,-528.0856323242188,0.02160000056028366,0,0.0,0.0,,,,,0,,1,,
Raw,257963298,35211700000000,,,-1221703859738596096,0.0,14.516957890009508,4.673038206772713,9.513496910946007,91,32,0.0,15,43071363652355,4,45.3,-230.4292755126953,0.022600000724196434,0,0.0,0.0,,,,,0,,1,,
Raw,257964290,35212700000000,,,-1221703859738596096,0.0,14.516937881126069,4.995425931217916,9.513477028976602,91,10,0.0,15,43072369951414,5,47.2,-316.1830749511719,0.031300000846385956,0,0.0,0.0,,,,,0,,1,,
Raw,257964291,35212700000000,,,-1221703859738596096,0.0,14.516937881126069,4.995425931217916,9.513477028976602,91,12,0.0,15,43072364645227,4,44.6,16.01109504699707,0.024300001561641693,0,0.0,0.0,,,,,0,,1,,
Raw,257964291,35212700000000,,,-1221703859738596096,0.0,14.516937881126069,4.995425931217916,9.513477028976602,91,14,0.0,15,43072359425701,4,42.9,-263.82684326171875,0.047300003468990326,0,0.0,0.0,,,,,0,,1,,
Raw,257964292,35212700000000,,,-1221703859738596096,0.0,14.516937881126069,4.995425931217916,9.513477028976602,91,15,0.0,15,43072356793995,5,40.5,370.3136291503906,0.04340000078082085,0,0.0,0.0,,,,,0,,1,,
Raw,257964293,35212700000000,,,-1221703859738596096,0.0,14.516937881126069,4.995425931217916,9.513477028976602,91,20,0.0,15,43072371927262,4,50.0,90.12759399414062,0.034300003200769424,0,0.0,0.0,,,,,0,,1,,
Raw,257964294,35212700000000,,,-1221703859738596096,0.0,14.516937881126069,4.995425931217916,9.513477028976602,91,21,0.0,15,43072362528328,4,42.6,471.8784484863281,0.021800000220537186,0,0.0,0.0,,,,,0,,1,,
Raw,257964295,35212700000000,,,-1221703859738596096,0.0,14.516937881126069,4.995425931217916,9.513477028976602,91,24,0.0,15,43072360362885,4,42.4,615.3177490234375,0.018800001591444016,0,0.0,0.0,,,,,0,,1,,
Raw,257964295,35212700000000,,,-1221703859738596096,0.0,14.516937881126069,4.995425931217916,9.513477028976602,91,25,0.0,15,43072365902629,5,46.3,-401.76739501953125,0.02550000138580799,0,0.0,0.0,,,,,0,,1,,
Raw,257964296,35212700000000,,,-1221703859738596096,0.0,14.516937881126069,4.995425931217916,9.513477028976602,91,31,0.0,15,43072362356799,4,43.8,-528.1873779296875,0.02160000056028366,0,0.0,0.0,,,,,0,,1,,
Raw,257964297,35212700000000,,,-1221703859738596096,0.0,14.516937881126069,4.995425931217916,9.513477028976602,91,32,0.0,15,43072363653116,4,45.5,-230.5995330810547,0.022600000724196434,0,0.0,0.0,,,,,0,,1,,
Raw,257965282,35213700000000,,,-1221703859738596096,0.0,14.51691787224263,4.422474096799859,9.513457147007198,91,10,0.0,15,43073369952466,4,44.9,-316.2474365234375,0.03180000185966492,0,0.0,0.0,,,,,0,,1,,
Raw,257965282,35213700000000,,,-1221703859738596096,0.0,14.51691787224263,4.422474096799859,9.513457147007198,91,12,0.0,15,43073364645166,5,40.9,15.996265411376953,0.02540000155568123,0,0.0,0.0,,,,,0,,1,,
Raw,257965283,35213700000000,,,-1221703859738596096,0.0,14.51691787224263,4.422474096799859,9.513457147007198,91,14,0.0,15,43073359426575,6,39.0,-263.960693359375,0.048100002110004425,0,0.0,0.0,,,,,0,,1,,
Raw,257965283,35213700000000,,,-1221703859738596096,0.0,14.51691787224263,4.422474096799859,9.513457147007198,91,15,0.0,15,43073356792760,7,37.3,370.1625671386719,0.044600002467632294,0,0.0,0.0,,,,,0,,1,,
Raw,257965283,35213700000000,,,-1221703859738596096,0.0,14.51691787224263,4.422474096799859,9.513457147007198,91,20,0.0,15,43073371926962,5,46.5,90.09903717041016,0.03450000286102295,0,0.0,0.0,,,,,0,,1,,
Raw,257965284,35213700000000,,,-1221703859738596096,0.0,14.51691787224263,4.422474096799859,9.513457147007198,91,21,0.0,15,43073362526754,6,39.7,471.7644348144531,0.022600000724196434,0,0.0,0.0,,,,,0,,1,,
Raw,257965284,35213700000000,,,-1221703859738596096,0.0,14.51691787224263,4.422474096799859,9.513457147007198,91,24,0.0,15,43073360360842,6,39.1,615.172607421875,0.019600000232458115,0,0.0,0.0,,,,,0,,1,,
Raw,257965284,35213700000000,,,-1221703859738596096,0.0,14.51691787224263,4.422474096799859,9.513457147007198,91,25,0.0,15,43073365903971,4,42.9,-401.8251647949219,0.02630000188946724,0,0.0,0.0,,,,,0,,1,,
Raw,257965284,35213700000000,,,-1221703859738596096,0.0,14.51691787224263,4.422474096799859,9.513457147007198,91,31,0.0,15,43073362358566,6,39.9,-528.2694702148438,0.022600000724196434,0,0.0,0.0,,,,,0,,1,,
Raw,257965285,35213700000000,,,-1221703859738596096,0.0,14.51691787224263,4.422474096799859,9.513457147007198,91,32,0.0,15,43073363653885,5,41.9,-230.73948669433594,0.023600000888109207,0,0.0,0.0,,,,,0,,1,,
Raw,257966264,35214700000000,,,-1221703859738596096,0.0,15.493460523430258,3.923101852391922,10.489999838228892,91,10,0.0,15,43074369953510,5,40.9,-316.14434814453125,0.03290000185370445,0,0.0,0.0,,,,,0,,1,,
Raw,257966265,35214700000000,,,-1221703859738596096,0.0,15.493460523430258,3.923101852391922,10.489999838228892,91,12,0.0,15,43074364645097,8,36.9,16.11217498779297,0.0272000003606081,0,0.0,0.0,,,,,0,,1,,
Raw,257966265,35214700000000,,,-1221703859738596096,0.0,15.493460523430258,3.923101852391922,10.489999838228892,91,14,0.0,15,43074359427453,9,35.1,-263.9648742675781,0.05010000243782997,0,0.0,0.0,,,,,0,,1,,
Raw,257966266,35214700000000,,,-1221703859738596096,0.0,15.493460523430258,3.923101852391922,10.489999838228892,91,15,0.0,15,43074356791521,11,33.1,370.18280029296875,0.04690000042319298,0,0.0,0.0,,,,,0,,1,,
Raw,257966266,35214700000000,,,-1221703859738596096,0.0,15.493460523430258,3.923101852391922,10.489999838228892,91,20,0.0,15,43074371926649,4,42.6,90.20296478271484,0.03530000150203705,0,0.0,0.0,,,,,0,,1,,
Raw,257966267,35214700000000,,,-1221703859738596096,0.0,15.493460523430258,3.923101852391922,10.489999838228892,91,21,0.0,15,43074362525166,8,36.2,471.787353515625,0.02420000173151493,0,0.0,0.0,,,,,0,,1,,
Raw,257966267,35214700000000,,,-1221703859738596096,0.0,15.493460523430258,3.923101852391922,10.489999838228892,91,24,0.0,15,43074360358781,9,35.1,615.1702880859375,0.02160000056028366,0,0.0,0.0,,,,,0,,1,,
Raw,257966267,35214700000000,,,-1221703859738596096,0.0,15.493460523430258,3.923101852391922,10.489999838228892,91,25,0.0,15,43074365905295,6,38.7,-401.7431945800781,0.0276000015437603,0,0.0,0.0,,,,,0,,1,,
Raw,257966268,35214700000000,,,-1221703859738596096,0.0,15.493460523430258,3.923101852391922,10.489999838228892,91,31,0.0,15,43074362360313,8,36.2,-528.1987915039062,0.02420000173151493,0,0.0,0.0,,,,,0,,1,,
Raw,257966268,35214700000000,,,-1221703859738596096,0.0,15.493460523430258,3.923101852391922,10.489999838228892,91,32,0.0,15,43074363654644,7,37.8,-230.7334442138672,0.025100000202655792,0,0.0,0.0,,,,,0,,1,,
Raw,257967283,35215700000000,,,-1221703859738596096,0.0,14.516968803945929,3.918260195202633,9.513507249570097,91,10,0.0,15,43075369954565,5,40.1,-317.0810241699219,0.03290000185370445,0,0.0,0.0,,,,,0,,1,,
Raw,257967284,35215700000000,,,-1221703859738596096,0.0,14.516968803945929,3.918260195202633,9.513507249570097,91,12,0.0,15,43075364645050,8,36.3,15.23877239227295,0.0272000003606081,0,0.0,0.0,,,,,0,,1,,
Raw,257967284,35215700000000,,,-1221703859738596096,0.0,14.516968803945929,3.918260195202633,9.513507249570097,91,14,0.0,15,43075359428323,10,34.7,-264.9596252441406,0.05060000345110893,0,0.0,0.0,,,,,0,,1,,
Raw,257967285,35215700000000,,,-1221703859738596096,0.0,14.516968803945929,3.918260195202633,9.513507249570097,91,15,0.0,15,43075356790285,12,32.9,369.1763000488281,0.0479000024497509,0,0.0,0.0,,,,,0,,1,,
Raw,257967285,35215700000000,,,-1221703859738596096,0.0,14.516968803945929,3.918260195202633,9.513507249570097,91,20,0.0,15,43075371926351,5,41.8,89.31853485107422,0.035600002855062485,0,0.0,0.0,,,,,0,,1,,
Raw,257967285,35215700000000,,,-1221703859738596096,0.0,14.516968803945929,3.918260195202633,9.513507249570097,91,21,0.0,15,43075362523586,9,35.4,470.8095397949219,0.02460000105202198,0,0.0,0.0,,,,,0,,1,,
Raw,257967286,35215700000000,,,-1221703859738596096,0.0,14.516968803945929,3.918260195202633,9.513507249570097,91,24,0.0,15,43075360356716,10,34.5,614.18505859375,0.022099999710917473,0,0.0,0.0,,,,,0,,1,,
Raw,257967286,35215700000000,,,-1221703859738596096,0.0,14.516968803945929,3.918260195202633,9.513507249570097,91,25,0.0,15,43075365906642,6,38.2,-402.651123046875,0.0276000015437603,0,0.0,0.0,,,,,0,,1,,
Raw,257967286,35215700000000,,,-1221703859738596096,0.0,14.516968803945929,3.918260195202633,9.513507249570097,91,31,0.0,15,43075362362086,9,35.5,-529.1205444335938,0.02460000105202198,0,0.0,0.0,,,,,0,,1,,
Raw,257967287,35215700000000,,,-1221703859738596096,0.0,14.516968803945929,3.918260195202633,9.513507249570097,91,32,0.0,15,43075363655406,7,37.0,-231.73385620117188,0.025100000202655792,0,0.0,0.0,,,,,0,,1,,
Raw,257968282,35216700000000,,,-1221703859738596096,0.0,14.517392628476955,0.5967154601187791,9.513931133157792,91,10,0.0,15,43076369955609,6,39.6,-315.9963684082031,0.03310000151395798,0,0.0,0.0,,,,,0,,1,,
Raw,257968282,35216700000000,,,-1221703859738596096,0.0,14.517392628476955,0.5967154601187791,9.513931133157792,91,12,0.0,15,43076364644979,9,35.6,16.346776962280273,0.0276000015437603,0,0.0,0.0,,,,,0,,1,,
Raw,257968283,35216700000000,,,-1221703859738596096,0.0,14.517392628476955,0.5967154601187791,9.513931133157792,91,14,0.0,15,43076359429196,11,33.7,-263.980224609375,0.05140000209212303,0,0.0,0.0,,,,,0,,1,,
Raw,257968283,35216700000000,,,-1221703859738596096,0.0,14.517392628476955,0.5967154601187791,9.513931133157792,91,15,0.0,15,43076356789039,13,31.6,370.17205810546875,0.04920000210404396,0,0.0,0.0,,,,,0,,1,,
Raw,257968283,35216700000000,,,-1221703859738596096,0.0,14.517392628476955,0.5967154601187791,9.513931133157792,91,20,0.0,15,43076371926040,5,41.2,90.42054748535156,0.035600002855062485,0,0.0,0.0,,,,,0,,1,,
Raw,257968284,35216700000000,,,-1221703859738596096,0.0,14.517392628476955,0.5967154601187791,9.513931133157792,91,21,0.0,15,43076362522009,10,34.6,471.7502136230469,0.025100000202655792,0,0.0,0.0,,,,,0,,1,,
Raw,257968284,35216700000000,,,-1221703859738596096,0.0,14.517392628476955,0.5967154601187791,9.513931133157792,91,24,0.0,15,43076360354648,11,33.5,615.0100708007812,0.02290000021457672,0,0.0,0.0,,,,,0,,1,,
Raw,257968284,35216700000000,,,-1221703859738596096,0.0,14.517392628476955,0.5967154601187791,9.513931133157792,91,25,0.0,15,43076365907965,7,37.0,-401.57562255859375,0.02810000069439411,0,0.0,0.0,,,,,0,,1,,
Raw,257968285,35216700000000,,,-1221703859738596096,0.0,14.517392628476955,0.5967154601187791,9.513931133157792,91,31,0.0,15,43076362363813,10,34.4,-528.0557250976562,0.025100000202655792,0,0.0,0.0,,,,,0,,1,,
Raw,257968285,35216700000000,,,-1221703859738596096,0.0,14.517392628476955,0.5967154601187791,9.513931133157792,91,32,0.0,15,43076363656176,8,36.2,-230.7263641357422,0.025700001046061516,0,0.0,0.0,,,,,0,,1,,
Raw,257969283,35217700000000,,,-1221703859738596096,0.0,14.518070202029776,3.6599608062134155,9.514608710675084,91,10,0.0,15,43077369956662,4,42.4,-315.4448547363281,0.03230000287294388,0,0.0,0.0,,,,,0,,1,,
Raw,257969283,35217700000000,,,-1221703859738596096,0.0,14.518070202029776,3.6599608062134155,9.514608710675084,91,12,0.0,15,43077364644927,6,38.2,16.937175750732422,0.026100000366568565,0,0.0,0.0,,,,,0,,1,,
Raw,257969284,35217700000000,,,-1221703859738596096,0.0,14.518070202029776,3.6599608062134155,9.514608710675084,91,14,0.0,15,43077359430075,8,36.4,-263.5097961425781,0.04970000311732292,0,0.0,0.0,,,,,0,,1,,
Raw,257969284,35217700000000,,,-1221703859738596096,0.0,14.518070202029776,3.6599608062134155,9.514608710675084,91,15,0.0,15,43077356787798,10,34.6,370.6715393066406,0.04610000178217888,0,0.0,0.0,,,,,0,,1,,
Raw,257969284,35217700000000,,,-1221703859738596096,0.0,14.518070202029776,3.6599608062134155,9.514608710675084,91,20,0.0,15,43077371925732,4,43.8,91.0027084350586,0.035100001841783524,0,0.0,0.0,,,,,0,,1,,
Raw,257969285,35217700000000,,,-1221703859738596096,0.0,14.518070202029776,3.6599608062134155,9.514608710675084,91,21,0.0,15,43077362520434,7,37.3,472.33526611328125,0.023600000888109207,0,0.0,0.0,,,,,0,,1,,
Raw,257969285,35217700000000,,,-1221703859738596096,0.0,14.518070202029776,3.6599608062134155,9.514608710675084,91,24,0.0,15,43077360352605,8,36.4,615.6678466796875,0.02120000123977661,0,0.0,0.0,,,,,0,,1,,
Raw,257969286,35217700000000,,,-1221703859738596096,0.0,14.518070202029776,3.6599608062134155,9.514608710675084,91,25,0.0,15,43077365909305,6,39.8,-401.0116271972656,0.02710000053048134,0,0.0,0.0,,,,,0,,1,,
Raw,257969286,35217700000000,,,-1221703859738596096,0.0,14.518070202029776,3.6599608062134155,9.514608710675084,91,31,0.0,15,43077362365586,7,37.1,-527.5248413085938,0.023600000888109207,0,0.0,0.0,,,,,0,,1,,
Raw,257969286,35217700000000,,,-1221703859738596096,0.0,14.518070202029776,3.6599608062134155,9.514608710675084,91,32,0.0,15,43077363656941,6,38.9,-230.265380859375,0.02460000105202198,0,0.0,0.0,,,,,0,,1,,
Raw,257970259,35218700000000,,,-1221703859738596096,0.0,14.516819646814838,5.487079199824401,9.513358532438954,91,10,0.0,15,43078369957718,4,45.7,-315.6015625,0.03160000219941139,0,0.0,0.0,,,,,0,,1,,
Raw,257970260,35218700000000,,,-1221703859738596096,0.0,14.516819646814838,5.487079199824401,9.513358532438954,91,12,0.0,15,43078364644870,5,41.7,16.81841468811035,0.025100000202655792,0,0.0,0.0,,,,,0,,1,,
Raw,257970260,35218700000000,,,-1221703859738596096,0.0,14.516819646814838,5.487079199824401,9.513358532438954,91,14,0.0,15,43078359430962,6,39.6,-263.74041748046875,0.048100002110004425,0,0.0,0.0,,,,,0,,1,,
Raw,257970260,35218700000000,,,-1221703859738596096,0.0,14.516819646814838,5.487079199824401,9.513358532438954,91,15,0.0,15,43078356786561,7,37.9,370.4191589355469,0.044600002467632294,0,0.0,0.0,,,,,0,,1,,
Raw,257970261,35218700000000,,,-1221703859738596096,0.0,14.516819646814838,5.487079199824401,9.513358532438954,91,20,0.0,15,43078371925429,5,47.0,90.87944030761719,0.034300003200769424,0,0.0,0.0,,,,,0,,1,,
Raw,257970261,35218700000000,,,-1221703859738596096,0.0,14.516819646814838,5.487079199824401,9.513358532438954,91,21,0.0,15,43078362518864,5,40.6,472.1336975097656,0.02240000106394291,0,0.0,0.0,,,,,0,,1,,
Raw,257970262,35218700000000,,,-1221703859738596096,0.0,14.516819646814838,5.487079199824401,9.513358532438954,91,24,0.0,15,43078360350558,6,39.6,615.442138671875,0.019600000232458115,0,0.0,0.0,,,,,0,,1,,
Raw,257970262,35218700000000,,,-1221703859738596096,0.0,14.516819646814838,5.487079199824401,9.513358532438954,91,25,0.0,15,43078365910643,4,43.0,-401.16790771484375,0.026100000366568565,0,0.0,0.0,,,,,0,,1,,
Raw,257970262,35218700000000,,,-1221703859738596096,0.0,14.516819646814838,5.487079199824401,9.513358532438954,91,31,0.0,15,43078362367352,5,40.7,-527.6966552734375,0.02240000106394291,0,0.0,0.0,,,,,0,,1,,
Raw,257970263,35218700000000,,,-1221703859738596096,0.0,14.516819646814838,5.487079199824401,9.513358532438954,91,32,0.0,15,43078363657711,4,42.2,-230.49966430664062,0.02330000139772892,0,0.0,0.0,,,,,0,,1,,
Raw,257971274,35219700000000,,,-1221703859738596096,0.0,14.516799637931399,4.68333547636649,9.51333865046955,91,10,0.0,15,43079369958769,5,47.1,-316.2296142578125,0.031300000846385956,0,0.0,0.0,,,,,0,,1,,
Raw,257971274,35219700000000,,,-1221703859738596096,0.0,14.516799637931399,4.68333547636649,9.51333865046955,91,12,0.0,15,43079364644821,4,44.2,16.220401763916016,0.024300001561641693,0,0.0,0.0,,,,,0,,1,,
Raw,257971275,35219700000000,,,-1221703859738596096,0.0,14.516799637931399,4.68333547636649,9.51333865046955,91,14,0.0,15,43079359431847,4,42.7,-264.4500732421875,0.047300003468990326,0,0.0,0.0,,,,,0,,1,,
Raw,257971276,35219700000000,,,-1221703859738596096,0.0,14.516799637931399,4.68333547636649,9.51333865046955,91,15,0.0,15,43079356785332,5,41.3,369.731689453125,0.04310000315308571,0,0.0,0.0,,,,,0,,1,,
Raw,257971276,35219700000000,,,-1221703859738596096,0.0,14.516799637931399,4.68333547636649,9.51333865046955,91,20,0.0,15,43079371925132,4,49.9,90.2738037109375,0.034300003200769424,0,0.0,0.0,,,,,0,,1,,
Raw,257971278,35219700000000,,,-1221703859738596096,0.0,14.516799637931399,4.68333547636649,9.51333865046955,91,21,0.0,15,43079362517289,4,43.7,471.4376220703125,0.02160000056028366,0,0.0,0.0,,,,,0,,1,,
Raw,257971279,35219700000000,,,-1221703859738596096,0.0,14.516799637931399,4.68333547636649,9.51333865046955,91,24,0.0,15,43079360348506,4,42.2,614.7164306640625,0.018800001591444016,0,0.0,0.0,,,,,0,,1,,
Raw,257971279,35219700000000,,,-1221703859738596096,0.0,14.516799637931399,4.68333547636649,9.51333865046955,91,25,0.0,15,43079365911981,4,45.4,-401.8055419921875,0.025600001215934753,0,0.0,0.0,,,,,0,,1,,
Raw,257971280,35219700000000,,,-1221703859738596096,0.0,14.516799637931399,4.68333547636649,9.51333865046955,91,31,0.0,15,43079362369111,4,43.5,-528.3386840820312,0.02160000056028366,0,0.0,0.0,,,,,0,,1,,
Raw,257971280,35219700000000,,,-1221703859738596096,0.0,14.516799637931399,4.68333547636649,9.51333865046955,91,32,0.0,15,43079363658481,4,45.3,-231.22293090820312,0.022600000724196434,0,0.0,0.0,,,,,0,,1,,
Raw,257972280,35220700000000,,,-1221703859738596096,0.0,14.51677962904796,2.312146990012022,9.513318768500145,91,10,0.0,15,43080369959821,5,47.4,-316.0806884765625,0.031300000846385956,0,0.0,0.0,,,,,0,,1,,
Raw,257972280,35220700000000,,,-1221703859738596096,0.0,14.51677962904796,2.312146990012022,9.513318768500145,91,12,0.0,15,43080364644762,4,44.5,16.415935516357422,0.024300001561641693,0,0.0,0.0,,,,,0,,1,,
Raw,257972281,35220700000000,,,-1221703859738596096,0.0,14.51677962904796,2.312146990012022,9.513318768500145,91,14,0.0,15,43080359432724,4,42.4,-264.3918151855469,0.047300003468990326,0,0.0,0.0,,,,,0,,1,,
Raw,257972281,35220700000000,,,-1221703859738596096,0.0,14.51677962904796,2.312146990012022,9.513318768500145,91,15,0.0,15,43080356784085,5,40.4,369.8006286621094,0.04340000078082085,0,0.0,0.0,,,,,0,,1,,
Raw,257972282,35220700000000,,,-1221703859738596096,0.0,14.51677962904796,2.312146990012022,9.513318768500145,91,20,0.0,15,43080371924828,4,49.7,90.45307922363281,0.034300003200769424,0,0.0,0.0,,,,,0,,1,,
Raw,257972282,35220700000000,,,-1221703859738596096,0.0,14.51677962904796,2.312146990012022,9.513318768500145,91,21,0.0,15,43080362515711,4,42.7,471.5417785644531,0.021800000220537186,0,0.0,0.0,,,,,0,,1,,
Raw,257972282,35220700000000,,,-1221703859738596096,0.0,14.51677962904796,2.312146990012022,9.513318768500145,91,24,0.0,15,43080360346450,4,42.5,614.7998046875,0.018800001591444016,0,0.0,0.0,,,,,0,,1,,
Raw,257972283,35220700000000,,,-1221703859738596096,0.0,14.51677962904796,2.312146990012022,9.513318768500145,91,25,0.0,15,43080365913318,4,45.9,-401.64141845703125,0.025600001215934753,0,0.0,0.0,,,,,0,,1,,
Raw,257972283,35220700000000,,,-1221703859738596096,0.0,14.51677962904796,2.312146990012022,9.513318768500145,91,31,0.0,15,43080362370869,4,43.4,-528.194091796875,0.02160000056028366,0,0.0,0.0,,,,,0,,1,,
Raw,257972283,35220700000000,,,-1221703859738596096,0.0,14.51677962904796,2.312146990012022,9.513318768500145,91,32,0.0,15,43080363659251,4,45.1,-231.14169311523438,0.022600000724196434,0,0.0,0.0,,,,,0,,1,,
Raw,257973285,35221700000000,,,-1221703859738596096,0.0,14.516759620164521,2.5477686070595227,9.513298886530741,91,10,0.0,15,43081369960873,5,46.2,-315.6683654785156,0.03150000050663948,0,0.0,0.0,,,,,0,,1,,
Raw,257973286,35221700000000,,,-1221703859738596096,0.0,14.516759620164521,2.5477686070595227,9.513298886530741,91,12,0.0,15,43081364644707,4,43.0,16.86171531677246,0.02460000105202198,0,0.0,0.0,,,,,0,,1,,
Raw,257973286,35221700000000,,,-1221703859738596096,0.0,14.516759620164521,2.5477686070595227,9.513298886530741,91,14,0.0,15,43081359433608,5,41.2,-264.059814453125,0.047600001096725464,0,0.0,0.0,,,,,0,,1,,
Raw,257973287,35221700000000,,,-1221703859738596096,0.0,14.516759620164521,2.5477686070595227,9.513298886530741,91,15,0.0,15,43081356782865,6,39.0,370.13232421875,0.04360000044107437,0,0.0,0.0,,,,,0,,1,,
Raw,257973287,35221700000000,,,-1221703859738596096,0.0,14.516759620164521,2.5477686070595227,9.513298886530741,91,20,0.0,15,43081371924525,5,48.4,90.89022064208984,0.034300003200769424,0,0.0,0.0,,,,,0,,1,,
Raw,257973288,35221700000000,,,-1221703859738596096,0.0,14.516759620164521,2.5477686070595227,9.513298886530741,91,21,0.0,15,43081362514145,5,41.7,471.8910827636719,0.022100001573562622,0,0.0,0.0,,,,,0,,1,,
Raw,257973289,35221700000000,,,-1221703859738596096,0.0,14.516759620164521,2.5477686070595227,9.513298886530741,91,24,0.0,15,43081360344402,5,41.2,615.1361694335938,0.019100001081824303,0,0.0,0.0,,,,,0,,1,,
Raw,257973289,35221700000000,,,-1221703859738596096,0.0,14.516759620164521,2.5477686070595227,9.513298886530741,91,25,0.0,15,43081365914657,4,44.2,-401.2325744628906,0.025800000876188278,0,0.0,0.0,,,,,0,,1,,
Raw,257973290,35221700000000,,,-1221703859738596096,0.0,14.516759620164521,2.5477686070595227,9.513298886530741,91,31,0.0,15,43081362372636,4,42.2,-527.8002319335938,0.021800000220537186,0,0.0,0.0,,,,,0,,1,,
Raw,257973290,35221700000000,,,-1221703859738596096,0.0,14.516759620164521,2.5477686070595227,9.513298886530741,91,32,0.0,15,43081363660025,4,43.8,-230.80770874023438,0.023100001737475395,0,0.0,0.0,,,,,0,,1,,
Raw,257974262,35222700000000,,,-1221703859738596096,0.0,14.516739611281082,3.6369661156793973,9.513279004561337,91,10,0.0,15,43082369961937,5,46.6,-316.5028991699219,0.03150000050663948,0,0.0,0.0,,,,,0,,1,,
Raw,257974262,35222700000000,,,-1221703859738596096,0.0,14.516739611281082,3.6369661156793973,9.513279004561337,91,12,0.0,15,43082364644658,4,43.7,16.055818557739258,0.02460000105202198,0,0.0,0.0,,,,,0,,1,,
Raw,257974263,35222700000000,,,-1221703859738596096,0.0,14.516739611281082,3.6369661156793973,9.513279004561337,91,14,0.0,15,43082359434492,5,41.9,-264.9583740234375,0.047600001096725464,0,0.0,0.0,,,,,0,,1,,
Raw,257974264,35222700000000,,,-1221703859738596096,0.0,14.516739611281082,3.6369661156793973,9.513279004561337,91,15,0.0,15,43082356781629,5,40.4,369.2398986816406,0.04340000078082085,0,0.0,0.0,,,,,0,,1,,
Raw,257974264,35222700000000,,,-1221703859738596096,0.0,14.516739611281082,3.6369661156793973,9.513279004561337,91,20,0.0,15,43082371924231,4,49.4,90.0919189453125,0.034300003200769424,0,0.0,0.0,,,,,0,,1,,
Raw,257974265,35222700000000,,,-1221703859738596096,0.0,14.516739611281082,3.6369661156793973,9.513279004561337,91,21,0.0,15,43082362512569,4,42.8,470.9867248535156,0.021800000220537186,0,0.0,0.0,,,,,0,,1,,
Raw,257974265,35222700000000,,,-1221703859738596096,0.0,14.516739611281082,3.6369661156793973,9.513279004561337,91,24,0.0,15,43082360342354,5,41.6,614.1996459960938,0.019100001081824303,0,0.0,0.0,,,,,0,,1,,
Raw,257974265,35222700000000,,,-1221703859738596096,0.0,14.516739611281082,3.6369661156793973,9.513279004561337,91,25,0.0,15,43082365916003,4,45.0,-402.06988525390625,0.025600001215934753,0,0.0,0.0,,,,,0,,1,,
Raw,257974266,35222700000000,,,-1221703859738596096,0.0,14.516739611281082,3.6369661156793973,9.513279004561337,91,31,0.0,15,43082362374396,4,42.7,-528.656982421875,0.021800000220537186,0,0.0,0.0,,,,,0,,1,,
Raw,257974266,35222700000000,,,-1221703859738596096,0.0,14.516739611281082,3.6369661156793973,9.513279004561337,91,32,0.0,15,43082363660796,4,44.7,-231.73443603515625,0.02280000038444996,0,0.0,0.0,,,,,0,,1,,
Raw,257975261,35223700000000,,,-1221703859738596096,0.0,14.516719602397643,0.5694142356019838,9.513259122591935,91,10,0.0,15,43083369962994,5,46.3,-317.8849792480469,0.03150000050663948,0,0.0,0.0,,,,,0,,1,,
Raw,257975262,35223700000000,,,-1221703859738596096,0.0,14.516719602397643,0.5694142356019838,9.513259122591935,91,12,0.0,15,43083364644604,4,43.7,14.717578887939453,0.02460000105202198,0,0.0,0.0,,,,,0,,1,,
Raw,257975262,35223700000000,,,-1221703859738596096,0.0,14.516719602397643,0.5694142356019838,9.513259122591935,91,14,0.0,15,43083359435374,5,41.9,-266.4383544921875,0.047600001096725464,0,0.0,0.0,,,,,0,,1,,
Raw,257975262,35223700000000,,,-1221703859738596096,0.0,14.516719602397643,0.5694142356019838,9.513259122591935,91,15,0.0,15,43083356780401,6,39.8,367.76519775390625,0.04360000044107437,0,0.0,0.0,,,,,0,,1,,
Raw,257975263,35223700000000,,,-1221703859738596096,0.0,14.516719602397643,0.5694142356019838,9.513259122591935,91,20,0.0,15,43083371923927,4,49.1,88.73009490966797,0.034300003200769424,0,0.0,0.0,,,,,0,,1,,
Raw,257975263,35223700000000,,,-1221703859738596096,0.0,14.516719602397643,0.5694142356019838,9.513259122591935,91,21,0.0,15,43083362511007,4,42.7,469.56536865234375,0.021800000220537186,0,0.0,0.0,,,,,0,,1,,
Raw,257975263,35223700000000,,,-1221703859738596096,0.0,14.516719602397643,0.5694142356019838,9.513259122591935,91,24,0.0,15,43083360340316,5,41.3,612.7591552734375,0.019100001081824303,0,0.0,0.0,,,,,0,,1,,
Raw,257975264,35223700000000,,,-1221703859738596096,0.0,14.516719602397643,0.5694142356019838,9.513259122591935,91,25,0.0,15,43083365917346,4,44.6,-403.4472351074219,0.025800000876188278,0,0.0,0.0,,,,,0,,1,,
Raw,257975264,35223700000000,,,-1221703859738596096,0.0,14.516719602397643,0.5694142356019838,9.513259122591935,91,31,0.0,15,43083362376163,4,42.6,-530.0487670898438,0.021800000220537186,0,0.0,0.0,,,,,0,,1,,
Raw,257975264,35223700000000,,,-1221703859738596096,0.0,14.516719602397643,0.5694142356019838,9.513259122591935,91,32,0.0,15,43083363661573,4,44.2,-233.1964874267578,0.02280000038444996,0,0.0,0.0,,,,,0,,1,,
Raw,257976263,35224700000000,,,-1221703859738596096,0.0,14.516700503008906,-4.308882043363966,9.51323924062253,91,10,0.0,15,43084369964044,5,47.8,-317.7173767089844,0.031300000846385956,0,0.0,0.0,,,,,0,,1,,
Raw,257976263,35224700000000,,,-1221703859738596096,0.0,14.516700503008906,-4.308882043363966,9.51323924062253,91,12,0.0,15,43084364644543,4,44.1,14.930513381958008,0.024300001561641693,0,0.0,0.0,,,,,0,,1,,
Raw,257976264,35224700000000,,,-1221703859738596096,0.0,14.516700503008906,-4.308882043363966,9.51323924062253,91,14,0.0,15,43084359436258,5,41.9,-266.35919189453125,0.047600001096725464,0,0.0,0.0,,,,,0,,1,,
Raw,257976264,35224700000000,,,-1221703859738596096,0.0,14.516700503008906,-4.308882043363966,9.51323924062253,91,15,0.0,15,43084356779158,6,39.9,367.8531188964844,0.04360000044107437,0,0.0,0.0,,,,,0,,1,,
Raw,257976264,35224700000000,,,-1221703859738596096,0.0,14.516700503008906,-4.308882043363966,9.51323924062253,91,20,0.0,15,43084371923624,4,49.3,88.92942810058594,0.034300003200769424,0,0.0,0.0,,,,,0,,1,,
Raw,257976265,35224700000000,,,-1221703859738596096,0.0,14.516700503008906,-4.308882043363966,9.51323924062253,91,21,0.0,15,43084362509426,4,42.2,469.6838073730469,0.021800000220537186,0,0.0,0.0,,,,,0,,1,,
Raw,257976265,35224700000000,,,-1221703859738596096,0.0,14.516700503008906,-4.308882043363966,9.51323924062253,91,24,0.0,15,43084360338258,4,42.0,612.8587646484375,0.018800001591444016,0,0.0,0.0,,,,,0,,1,,
Raw,257976265,35224700000000,,,-1221703859738596096,0.0,14.516700503008906,-4.308882043363966,9.51323924062253,91,25,0.0,15,43084365918683,4,45.5,-403.26934814453125,0.025600001215934753,0,0.0,0.0,,,,,0,,1,,
Raw,257976266,35224700000000,,,-1221703859738596096,0.0,14.516700503008906,-4.308882043363966,9.51323924062253,91,31,0.0,15,43084362377921,4,43.0,-529.8867797851562,0.02160000056028366,0,0.0,0.0,,,,,0,,1,,
Raw,257976266,35224700000000,,,-1221703859738596096,0.0,14.516700503008906,-4.308882043363966,9.51323924062253,91,32,0.0,15,43084363662341,4,44.7,-233.10252380371094,0.02280000038444996,0,0.0,0.0,,,,,0,,1,,
Raw,257977276,35225700000000,,,-1221703859738596096,0.0,15.493242244701833,-4.019709534644659,10.489781931844222,91,10,0.0,15,43085369965096,4,45.2,-317.5375061035156,0.03160000219941139,0,0.0,0.0,,,,,0,,1,,
Raw,257977277,35225700000000,,,-1221703859738596096,0.0,15.493242244701833,-4.019709534644659,10.489781931844222,91,12,0.0,15,43085364644489,5,41.3,15.147249221801758,0.025100000202655792,0,0.0,0.0,,,,,0,,1,,
Raw,257977277,35225700000000,,,-1221703859738596096,0.0,15.493242244701833,-4.019709534644659,10.489781931844222,91,14,0.0,15,43085359437139,6,39.5,-266.2632751464844,0.048100002110004425,0,0.0,0.0,,,,,0,,1,,
Raw,257977277,35225700000000,,,-1221703859738596096,0.0,15.493242244701833,-4.019709534644659,10.489781931844222,91,15,0.0,15,43085356777935,7,37.9,367.9517517089844,0.044600002467632294,0,0.0,0.0,,,,,0,,1,,
Raw,257977278,35225700000000,,,-1221703859738596096,0.0,15.493242244701833,-4.019709534644659,10.489781931844222,91,20,0.0,15,43085371923316,5,47.1,89.13653564453125,0.034300003200769424,0,0.0,0.0,,,,,0,,1,,
Raw,257977279,35225700000000,,,-1221703859738596096,0.0,15.493242244701833,-4.019709534644659,10.489781931844222,91,21,0.0,15,43085362507837,5,40.6,469.8088073730469,0.02240000106394291,0,0.0,0.0,,,,,0,,1,,
Raw,257977279,35225700000000,,,-1221703859738596096,0.0,15.493242244701833,-4.019709534644659,10.489781931844222,91,24,0.0,15,43085360336199,6,39.7,612.9638671875,0.019600000232458115,0,0.0,0.0,,,,,0,,1,,
Raw,257977279,35225700000000,,,-1221703859738596096,0.0,15.493242244701833,-4.019709534644659,10.489781931844222,91,25,0.0,15,43085365920019,4,43.2,-403.0891418457031,0.026100000366568565,0,0.0,0.0,,,,,0,,1,,
Raw,257977280,35225700000000,,,-1221703859738596096,0.0,15.493242244701833,-4.019709534644659,10.489781931844222,91,31,0.0,15,43085362379680,5,40.7,-529.7193603515625,0.02240000106394291,0,0.0,0.0,,,,,0,,1,,
Raw,257977280,35225700000000,,,-1221703859738596096,0.0,15.493242244701833,-4.019709534644659,10.489781931844222,91,32,0.0,15,43085363663109,4,42.3,-233.00828552246094,0.02330000139772892,0,0.0,0.0,,,,,0,,1,,
Raw,257978276,35226700000000,,,-1221703859738596096,0.0,14.51666139473673,-3.6997509892212497,9.513200271962498,91,10,0.0,15,43086369966156,4,44.9,-316.4869079589844,0.03180000185966492,0,0.0,0.0,,,,,0,,1,,
Raw,257978277,35226700000000,,,-1221703859738596096,0.0,14.51666139473673,-3.6997509892212497,9.513200271962498,91,12,0.0,15,43086364644440,5,41.5,16.245132446289062,0.025100000202655792,0,0.0,0.0,,,,,0,,1,,
Raw,257978277,35226700000000,,,-1221703859738596096,0.0,14.51666139473673,-3.6997509892212497,9.513200271962498,91,14,0.0,15,43086359438030,6,39.3,-265.3070373535156,0.048100002110004425,0,0.0,0.0,,,,,0,,1,,
Raw,257978278,35226700000000,,,-1221703859738596096,0.0,14.51666139473673,-3.6997509892212497,9.513200271962498,91,15,0.0,15,43086356776710,7,37.9,368.9158020019531,0.044600002467632294,0,0.0,0.0,,,,,0,,1,,
Raw,257978285,35226700000000,,,-1221703859738596096,0.0,14.51666139473673,-3.6997509892212497,9.513200271962498,91,20,0.0,15,43086371923020,5,46.8,90.21053314208984,0.03450000286102295,0,0.0,0.0,,,,,0,,1,,
Raw,257978286,35226700000000,,,-1221703859738596096,0.0,14.51666139473673,-3.6997509892212497,9.513200271962498,91,21,0.0,15,43086362506288,5,40.4,470.8127746582031,0.02240000106394291,0,0.0,0.0,,,,,0,,1,,
Raw,257978287,35226700000000,,,-1221703859738596096,0.0,14.51666139473673,-3.6997509892212497,9.513200271962498,91,24,0.0,15,43086360334153,6,39.3,613.9459838867188,0.019600000232458115,0,0.0,0.0,,,,,0,,1,,
Raw,257978287,35226700000000,,,-1221703859738596096,0.0,14.51666139473673,-3.6997509892212497,9.513200271962498,91,25,0.0,15,43086365921370,4,42.8,-402.0283203125,0.02630000188946724,0,0.0,0.0,,,,,0,,1,,
Raw,257978288,35226700000000,,,-1221703859738596096,0.0,14.51666139473673,-3.6997509892212497,9.513200271962498,91,31,0.0,15,43086362381453,5,40.1,-528.6732177734375,0.02240000106394291,0,0.0,0.0,,,,,0,,1,,
Raw,257978289,35226700000000,,,-1221703859738596096,0.0,14.51666139473673,-3.6997509892212497,9.513200271962498,91,32,0.0,15,43086363663887,4,42.0,-232.029541015625,0.02330000139772892,0,0.0,0.0,,,,,0,,1,,
Raw,257979283,35227700000000,,,-1221703859738596096,0.0,14.51664138585329,-0.4662748790556851,9.513180389993094,91,10,0.0,15,43087369967206,5,47.9,-315.4603576660156,0.031300000846385956,0,0.0,0.0,,,,,0,,1,,
Raw,257979283,35227700000000,,,-1221703859738596096,0.0,14.51664138585329,-0.4662748790556851,9.513180389993094,91,12,0.0,15,43087364644380,4,44.8,17.30329704284668,0.024300001561641693,0,0.0,0.0,,,,,0,,1,,
Raw,257979284,35227700000000,,,-1221703859738596096,0.0,14.51664138585329,-0.4662748790556851,9.513180389993094,91,14,0.0,15,43087359438908,4,43.2,-264.3577575683594,0.0471000038087368,0,0.0,0.0,,,,,0,,1,,
Raw,257979284,35227700000000,,,-1221703859738596096,0.0,14.51664138585329,-0.4662748790556851,9.513180389993094,91,15,0.0,15,43087356775470,5,40.8,369.8755798339844,0.04340000078082085,0,0.0,0.0,,,,,0,,1,,
Raw,257979285,35227700000000,,,-1221703859738596096,0.0,14.51664138585329,-0.4662748790556851,9.513180389993094,91,20,0.0,15,43087371922715,4,50.1,91.26502990722656,0.034300003200769424,0,0.0,0.0,,,,,0,,1,,
Raw,257979285,35227700000000,,,-1221703859738596096,0.0,14.51664138585329,-0.4662748790556851,9.513180389993094,91,21,0.0,15,43087362504713,4,43.8,471.7725830078125,0.02160000056028366,0,0.0,0.0,,,,,0,,1,,
Raw,257979286,35227700000000,,,-1221703859738596096,0.0,14.51664138585329,-0.4662748790556851,9.513180389993094,91,24,0.0,15,43087360332110,4,42.8,614.88916015625,0.018800001591444016,0,0.0,0.0,,,,,0,,1,,
Raw,257979286,35227700000000,,,-1221703859738596096,0.0,14.51664138585329,-0.4662748790556851,9.513180389993094,91,25,0.0,15,43087365922702,5,46.2,-401.0054931640625,0.02550000138580799,0,0.0,0.0,,,,,0,,1,,
Raw,257979287,35227700000000,,,-1221703859738596096,0.0,14.51664138585329,-0.4662748790556851,9.513180389993094,91,31,0.0,15,43087362383210,4,43.2,-527.6649780273438,0.02160000056028366,0,0.0,0.0,,,,,0,,1,,
Raw,257979288,35227700000000,,,-1221703859738596096,0.0,14.51664138585329,-0.4662748790556851,9.513180389993094,91,32,0.0,15,43087363664656,4,45.4,-231.08055114746094,0.022600000724196434,0,0.0,0.0,,,,,0,,1,,
Raw,257980279,35228700000000,,,-1221703859738596096,0.0,14.516621376969852,2.6820387039544658,9.51316050802369,91,10,0.0,15,43088369968251,5,48.6,-314.97637939453125,0.031300000846385956,0,0.0,0.0,,,,,0,,1,,
Raw,257980280,35228700000000,,,-1221703859738596096,0.0,14.516621376969852,2.6820387039544658,9.51316050802369,91,12,0.0,15,43088364644316,5,46.0,17.818784713745117,0.024000000208616257,0,0.0,0.0,,,,,0,,1,,
Raw,257980280,35228700000000,,,-1221703859738596096,0.0,14.516621376969852,2.6820387039544658,9.51316050802369,91,14,0.0,15,43088359439786,4,44.3,-263.9481201171875,0.046800002455711365,0,0.0,0.0,,,,,0,,1,,
Raw,257980281,35228700000000,,,-1221703859738596096,0.0,14.516621376969852,2.6820387039544658,9.51316050802369,91,15,0.0,15,43088356774229,4,42.0,370.28533935546875,0.04280000180006027,0,0.0,0.0,,,,,0,,1,,
Raw,257980281,35228700000000,,,-1221703859738596096,0.0,14.516621376969852,2.6820387039544658,9.51316050802369,91,20,0.0,15,43088371922404,4,51.5,91.78501892089844,0.034300003200769424,0,0.0,0.0,,,,,0,,1,,
Raw,257980282,35228700000000,,,-1221703859738596096,0.0,14.516621376969852,2.6820387039544658,9.51316050802369,91,21,0.0,15,43088362503133,4,44.8,472.196044921875,0.021300001069903374,0,0.0,0.0,,,,,0,,1,,
Raw,257980282,35228700000000,,,-1221703859738596096,0.0,14.516621376969852,2.6820387039544658,9.51316050802369,91,24,0.0,15,43088360330051,4,44.1,615.2864379882812,0.018300000578165054,0,0.0,0.0,,,,,0,,1,,
Raw,257980283,35228700000000,,,-1221703859738596096,0.0,14.516621376969852,2.6820387039544658,9.51316050802369,91,25,0.0,15,43088365924031,5,47.7,-400.5217590332031,0.025300001725554466,0,0.0,0.0,,,,,0,,1,,
Raw,257980283,35228700000000,,,-1221703859738596096,0.0,14.516621376969852,2.6820387039544658,9.51316050802369,91,31,0.0,15,43088362384960,4,45.3,-527.200927734375,0.02110000140964985,0,0.0,0.0,,,,,0,,1,,
Raw,257980284,35228700000000,,,-1221703859738596096,0.0,14.516621376969852,2.6820387039544658,9.51316050802369,91,32,0.0,15,43088363665424,5,46.1,-230.68453979492188,0.02250000089406967,0,0.0,0.0,,,,,0,,1,,
Raw,257981280,35229700000000,,,-1221703859738596096,0.0,14.516601368086413,4.003172110133708,9.513140626054286,91,10,0.0,15,43089369969299,5,48.9,-314.7508239746094,0.031300000846385956,0,0.0,0.0,,,,,0,,1,,
Raw,257981281,35229700000000,,,-1221703859738596096,0.0,14.516601368086413,4.003172110133708,9.513140626054286,91,12,0.0,15,43089364644248,5,46.6,18.08627700805664,0.024000000208616257,0,0.0,0.0,,,,,0,,1,,
Raw,257981281,35229700000000,,,-1221703859738596096,0.0,14.516601368086413,4.003172110133708,9.513140626054286,91,14,0.0,15,43089359440667,4,44.8,-263.8233947753906,0.046800002455711365,0,0.0,0.0,,,,,0,,1,,
Raw,257981282,35229700000000,,,-1221703859738596096,0.0,14.516601368086413,4.003172110133708,9.513140626054286,91,15,0.0,15,43089356772991,4,42.3,370.4339599609375,0.04280000180006027,0,0.0,0.0,,,,,0,,1,,
Raw,257981282,35229700000000,,,-1221703859738596096,0.0,14.516601368086413,4.003172110133708,9.513140626054286,91,20,0.0,15,43089371922100,4,51.7,92.0372543334961,0.034300003200769424,0,0.0,0.0,,,,,0,,1,,
Raw,257981283,35229700000000,,,-1221703859738596096,0.0,14.516601368086413,4.003172110133708,9.513140626054286,91,21,0.0,15,43089362501555,4,45.1,472.372314453125,0.02110000140964985,0,0.0,0.0,,,,,0,,1,,
Raw,257981283,35229700000000,,,-1221703859738596096,0.0,14.516601368086413,4.003172110133708,9.513140626054286,91,24,0.0,15,43089360327993,4,44.4,615.4390258789062,0.018300000578165054,0,0.0,0.0,,,,,0,,1,,
Raw,257981284,35229700000000,,,-1221703859738596096,0.0,14.516601368086413,4.003172110133708,9.513140626054286,91,25,0.0,15,43089365925373,5,48.2,-400.2897033691406,0.025300001725554466,0,0.0,0.0,,,,,0,,1,,
Raw,257981284,35229700000000,,,-1221703859738596096,0.0,14.516601368086413,4.003172110133708,9.513140626054286,91,31,0.0,15,43089362386719,4,45.5,-526.9832153320312,0.02110000140964985,0,0.0,0.0,,,,,0,,1,,
Raw,257981285,35229700000000,,,-1221703859738596096,0.0,14.516601368086413,4.003172110133708,9.513140626054286,91,32,0.0,15,43089363666191,5,47.6,-230.53514099121094,0.022300001233816147,0,0.0,0.0,,,,,0,,1,,
Raw,257982278,35230700000000,,,-1221703859738596096,0.0,14.516581359202974,4.478677243190174,9.513120744084882,91,10,0.0,15,43090369970348,4,50.9,-314.8289794921875,0.031300000846385956,0,0.0,0.0,,,,,0,,1,,
Raw,257982279,35230700000000,,,-1221703859738596096,0.0,14.516581359202974,4.478677243190174,9.513120744084882,91,12,0.0,15,43090364644188,5,47.0,18.037534713745117,0.023800000548362732,0,0.0,0.0,,,,,0,,1,,
Raw,257982279,35230700000000,,,-1221703859738596096,0.0,14.516581359202974,4.478677243190174,9.513120744084882,91,14,0.0,15,43090359441543,4,45.0,-263.976806640625,0.04660000279545784,0,0.0,0.0,,,,,0,,1,,
Raw,257982279,35230700000000,,,-1221703859738596096,0.0,14.516581359202974,4.478677243190174,9.513120744084882,91,15,0.0,15,43090356771756,4,42.3,370.28497314453125,0.04280000180006027,0,0.0,0.0,,,,,0,,1,,
Raw,257982280,35230700000000,,,-1221703859738596096,0.0,14.516581359202974,4.478677243190174,9.513120744084882,91,20,0.0,15,43090371921788,4,52.2,91.98697662353516,0.034300003200769424,0,0.0,0.0,,,,,0,,1,,
Raw,257982281,35230700000000,,,-1221703859738596096,0.0,14.516581359202974,4.478677243190174,9.513120744084882,91,21,0.0,15,43090362499979,4,45.4,472.22515869140625,0.02110000140964985,0,0.0,0.0,,,,,0,,1,,
Raw,257982281,35230700000000,,,-1221703859738596096,0.0,14.516581359202974,4.478677243190174,9.513120744084882,91,24,0.0,15,43090360325936,4,44.8,615.2748413085938,0.018300000578165054,0,0.0,0.0,,,,,0,,1,,
Raw,257982281,35230700000000,,,-1221703859738596096,0.0,14.516581359202974,4.478677243190174,9.513120744084882,91,25,0.0,15,43090365926703,5,48.3,-400.3731994628906,0.025300001725554466,0,0.0,0.0,,,,,0,,1,,
Raw,257982282,35230700000000,,,-1221703859738596096,0.0,14.516581359202974,4.478677243190174,9.513120744084882,91,31,0.0,15,43090362388476,4,45.8,-527.090087890625,0.02110000140964985,0,0.0,0.0,,,,,0,,1,,
Raw,257982282,35230700000000,,,-1221703859738596096,0.0,14.516581359202974,4.478677243190174,9.513120744084882,91,32,0.0,15,43090363666960,5,47.4,-230.7091064453125,0.022300001233816147,0,0.0,0.0,,,,,0,,1,,
Raw,257983262,35231700000000,,,-1221703859738596096,0.0,14.516561350319535,3.9203788178623347,9.513100862115477,91,10,0.0,15,43091369971397,5,48.0,-315.74713134765625,0.031300000846385956,0,0.0,0.0,,,,,0,,1,,
Raw,257983263,35231700000000,,,-1221703859738596096,0.0,14.516561350319535,3.9203788178623347,9.513100862115477,91,12,0.0,15,43091364644125,5,46.8,17.164396286010742,0.024000000208616257,0,0.0,0.0,,,,,0,,1,,
Raw,257983263,35231700000000,,,-1221703859738596096,0.0,14.516561350319535,3.9203788178623347,9.513100862115477,91,14,0.0,15,43091359442420,4,45.0,-264.9732971191406,0.04660000279545784,0,0.0,0.0,,,,,0,,1,,
Raw,257983263,35231700000000,,,-1221703859738596096,0.0,14.516561350319535,3.9203788178623347,9.513100862115477,91,15,0.0,15,43091356770525,4,42.7,369.2950439453125,0.04280000180006027,0,0.0,0.0,,,,,0,,1,,
Raw,257983264,35231700000000,,,-1221703859738596096,0.0,14.516561350319535,3.9203788178623347,9.513100862115477,91,20,0.0,15,43091371921478,4,51.7,91.09844207763672,0.034300003200769424,0,0.0,0.0,,,,,0,,1,,
Raw,257983264,35231700000000,,,-1221703859738596096,0.0,14.516561350319535,3.9203788178623347,9.513100862115477,91,21,0.0,15,43091362498403,4,45.2,471.2568054199219,0.02110000140964985,0,0.0,0.0,,,,,0,,1,,
