# 
# Header Description:
# 
# Version: v2.0.0.1 Platform: 8.0.0 Manufacturer: Xiaomi Model: MIX 2
# 
# Raw,ElapsedRealtimeMillis,TimeNanos,LeapSecond,TimeUncertaintyNanos,FullBiasNanos,BiasNanos,BiasUncertaintyNanos,DriftNanosPerSecond,DriftUncertaintyNanosPerSecond,HardwareClockDiscontinuityCount,Svid,TimeOffsetNanos,State,ReceivedSvTimeNanos,ReceivedSvTimeUncertaintyNanos,Cn0DbHz,PseudorangeRateMetersPerSecond,PseudorangeRateUncertaintyMetersPerSecond,AccumulatedDeltaRangeState,AccumulatedDeltaRangeMeters,AccumulatedDeltaRangeUncertaintyMeters,CarrierFrequencyHz,CarrierCycles,CarrierPhase,CarrierPhaseUncertainty,MultipathIndicator,SnrInDb,ConstellationType,AgcDb,CarrierFrequencyHz
# 
# Fix,Provider,Latitude,Longitude,Altitude,Speed,Accuracy,(UTC)TimeInMs
# 
# Nav,Svid,Type,Status,MessageId,Sub-messageId,Data(Bytes)
# 
Raw,257208316,34556920000000,,,-1221704410515322880,0.0,14.519528122036718,8.947256036480614,9.51606725195057,81,10,0.0,15,42967366565393,4,43.4,-323.64434814453125,0.0276000015437603,0,0.0,0.0,,,,,0,,1,,
Raw,257208317,34556920000000,,,-1221704410515322880,0.0,14.519528122036718,8.947256036480614,9.51606725195057,81,12,0.0,15,42967361374844,6,39.9,4.4910969734191895,0.02110000140964985,0,0.0,0.0,,,,,0,,1,,
Raw,257208317,34556920000000,,,-1221704410515322880,0.0,14.519528122036718,8.947256036480614,9.51606725195057,81,14,0.0,15,42967356059548,6,38.1,-262.6148376464844,0.04410000145435333,0,0.0,0.0,,,,,0,,1,,
Raw,257208318,34556920000000,,,-1221704410515322880,0.0,14.519528122036718,8.947256036480614,9.51606725195057,81,15,0.0,15,42967353649820,9,35.9,370.82855224609375,0.04110000282526016,0,0.0,0.0,,,,,0,,1,,
Raw,257208319,34556920000000,,,-1221704410515322880,0.0,14.519528122036718,8.947256036480614,9.51606725195057,81,20,0.0,15,42967368683023,4,45.5,79.59455871582031,0.030100001022219658,0,0.0,0.0,,,,,0,,1,,
Raw,257208321,34556920000000,,,-1221704410515322880,0.0,14.519528122036718,8.947256036480614,9.51606725195057,81,21,0.0,15,42967359419308,6,39.1,469.98382568359375,0.048100002110004425,0,0.0,0.0,,,,,0,,1,,
Raw,257208321,34556920000000,,,-1221704410515322880,0.0,14.519528122036718,8.947256036480614,9.51606725195057,81,24,0.0,15,42967357304504,7,37.8,615.6650390625,0.04610000178217888,0,0.0,0.0,,,,,0,,1,,
Raw,257208322,34556920000000,,,-1221704410515322880,0.0,14.519528122036718,8.947256036480614,9.51606725195057,81,25,0.0,15,42967362486577,5,41.4,-409.48016357421875,0.022100001573562622,0,0.0,0.0,,,,,0,,1,,
Raw,257208322,34556920000000,,,-1221704410515322880,0.0,14.519528122036718,8.947256036480614,9.51606725195057,81,31,0.0,15,42967358896761,6,38.8,-534.2710571289062,0.0471000038087368,0,0.0,0.0,,,,,0,,1,,
Raw,257208322,34556920000000,,,-1221704410515322880,0.0,14.519528122036718,8.947256036480614,9.51606725195057,81,32,0.0,15,42967360298532,5,40.6,-229.7063446044922,0.01940000057220459,0,0.0,0.0,,,,,0,,1,,
Raw,257209325,34557920000000,,,-1221704410515322880,0.0,14.519509932142682,8.241599611438492,9.516048165259942,81,10,0.0,15,42968366566464,4,44.3,-324.5581970214844,0.027300002053380013,0,0.0,0.0,,,,,0,,1,,
Raw,257209326,34557920000000,,,-1221704410515322880,0.0,14.519509932142682,8.241599611438492,9.516048165259942,81,12,0.0,15,42968361374833,5,41.2,3.5980587005615234,0.020600000396370888,0,0.0,0.0,,,,,0,,1,,
Raw,257209327,34557920000000,,,-1221704410515322880,0.0,14.519509932142682,8.241599611438492,9.516048165259942,81,14,0.0,15,42968356060422,6,39.5,-263.5813903808594,0.04360000044107437,0,0.0,0.0,,,,,0,,1,,
Raw,257209327,34557920000000,,,-1221704410515322880,0.0,14.519509932142682,8.241599611438492,9.516048165259942,81,15,0.0,15,42968353648580,7,37.2,369.865234375,0.04010000079870224,0,0.0,0.0,,,,,0,,1,,
Raw,257209328,34557920000000,,,-1221704410515322880,0.0,14.519509932142682,8.241599611438492,9.516048165259942,81,20,0.0,15,42968368682749,5,46.4,78.71469116210938,0.030000001192092896,0,0.0,0.0,,,,,0,,1,,
Raw,257209328,34557920000000,,,-1221704410515322880,0.0,14.519509932142682,8.241599611438492,9.516048165259942,81,21,0.0,15,42968359417740,5,40.0,469.0550842285156,0.0479000024497509,0,0.0,0.0,,,,,0,,1,,
Raw,257209329,34557920000000,,,-1221704410515322880,0.0,14.519509932142682,8.241599611438492,9.516048165259942,81,24,0.0,15,42968357302449,6,38.7,614.7151489257812,0.04560000076889992,0,0.0,0.0,,,,,0,,1,,
Raw,257209330,34557920000000,,,-1221704410515322880,0.0,14.519509932142682,8.241599611438492,9.516048165259942,81,25,0.0,15,42968362487940,4,42.5,-410.40765380859375,0.021800000220537186,0,0.0,0.0,,,,,0,,1,,
Raw,257209330,34557920000000,,,-1221704410515322880,0.0,14.519509932142682,8.241599611438492,9.516048165259942,81,31,0.0,15,42968358898549,5,40.0,-535.1637573242188,0.046400003135204315,0,0.0,0.0,,,,,0,,1,,
Raw,257209331,34557920000000,,,-1221704410515322880,0.0,14.519509932142682,8.241599611438492,9.516048165259942,81,32,0.0,15,42968360299293,5,41.7,-230.71815490722656,0.019100001081824303,0,0.0,0.0,,,,,0,,1,,
Raw,257210324,34558920000000,,,-1221704410515322880,0.0,14.519489923259243,5.074155746582477,9.516029078569314,81,10,0.0,15,42969366567551,4,45.0,-324.5295104980469,0.02710000053048134,0,0.0,0.0,,,,,0,,1,,
Raw,257210325,34558920000000,,,-1221704410515322880,0.0,14.519489923259243,5.074155746582477,9.516029078569314,81,12,0.0,15,42969361374826,4,42.0,3.6935245990753174,0.0203000009059906,0,0.0,0.0,,,,,0,,1,,
Raw,257210325,34558920000000,,,-1221704410515322880,0.0,14.519489923259243,5.074155746582477,9.516029078569314,81,14,0.0,15,42969356061304,5,40.3,-263.6860656738281,0.04340000078082085,0,0.0,0.0,,,,,0,,1,,
Raw,257210326,34558920000000,,,-1221704410515322880,0.0,14.519489923259243,5.074155746582477,9.516029078569314,81,15,0.0,15,42969353647362,6,38.2,369.7816467285156,0.03959999978542328,0,0.0,0.0,,,,,0,,1,,
Raw,257210326,34558920000000,,,-1221704410515322880,0.0,14.519489923259243,5.074155746582477,9.516029078569314,81,20,0.0,15,42969368682492,5,47.7,78.76301574707031,0.02980000153183937,0,0.0,0.0,,,,,0,,1,,
Raw,257210327,34558920000000,,,-1221704410515322880,0.0,14.519489923259243,5.074155746582477,9.516029078569314,81,21,0.0,15,42969359416182,5,41.2,468.96136474609375,0.047600001096725464,0,0.0,0.0,,,,,0,,1,,
Raw,257210327,34558920000000,,,-1221704410515322880,0.0,14.519489923259243,5.074155746582477,9.516029078569314,81,24,0.0,15,42969357300407,6,39.6,614.6099243164062,0.045100003480911255,0,0.0,0.0,,,,,0,,1,,
Raw,257210328,34558920000000,,,-1221704410515322880,0.0,14.519489923259243,5.074155746582477,9.516029078569314,81,25,0.0,15,42969362489310,4,43.7,-410.362060546875,0.02160000056028366,0,0.0,0.0,,,,,0,,1,,
Raw,257210329,34558920000000,,,-1221704410515322880,0.0,14.519489923259243,5.074155746582477,9.516029078569314,81,31,0.0,15,42969358900335,5,41.0,-535.2175903320312,0.04610000178217888,0,0.0,0.0,,,,,0,,1,,
Raw,257210329,34558920000000,,,-1221704410515322880,0.0,14.519489923259243,5.074155746582477,9.516029078569314,81,32,0.0,15,42969360300073,4,42.8,-230.74037170410156,0.018800001591444016,0,0.0,0.0,,,,,0,,1,,
Raw,257211323,34559920000000,,,-1221704410515322880,0.0,14.519470823870506,4.633604706295989,9.516009991878686,81,10,0.0,15,42970366568623,4,45.6,-322.6749572753906,0.02710000053048134,0,0.0,0.0,,,,,0,,1,,
Raw,257211324,34559920000000,,,-1221704410515322880,0.0,14.519470823870506,4.633604706295989,9.516009991878686,81,12,0.0,15,42970361374805,4,42.8,5.580822467803955,0.0203000009059906,0,0.0,0.0,,,,,0,,1,,
Raw,257211325,34559920000000,,,-1221704410515322880,0.0,14.519470823870506,4.633604706295989,9.516009991878686,81,14,0.0,15,42970356062175,5,40.7,-261.901123046875,0.04340000078082085,0,0.0,0.0,,,,,0,,1,,
Raw,257211326,34559920000000,,,-1221704410515322880,0.0,14.519470823870506,4.633604706295989,9.516009991878686,81,15,0.0,15,42970353646119,6,38.5,371.5655212402344,0.03959999978542328,0,0.0,0.0,,,,,0,,1,,
Raw,257211326,34559920000000,,,-1221704410515322880,0.0,14.519470823870506,4.633604706295989,9.516009991878686,81,20,0.0,15,42970368682230,5,47.8,80.6483154296875,0.02980000153183937,0,0.0,0.0,,,,,0,,1,,
Raw,257211327,34559920000000,,,-1221704410515322880,0.0,14.519470823870506,4.633604706295989,9.516009991878686,81,21,0.0,15,42970359414611,5,41.3,470.77923583984375,0.047600001096725464,0,0.0,0.0,,,,,0,,1,,
Raw,257211328,34559920000000,,,-1221704410515322880,0.0,14.519470823870506,4.633604706295989,9.516009991878686,81,24,0.0,15,42970357298342,6,39.9,616.4077758789062,0.045100003480911255,0,0.0,0.0,,,,,0,,1,,
Raw,257211329,34559920000000,,,-1221704410515322880,0.0,14.519470823870506,4.633604706295989,9.516009991878686,81,25,0.0,15,42970362490682,4,44.0,-408.5029602050781,0.021300001069903374,0,0.0,0.0,,,,,0,,1,,
Raw,257211329,34559920000000,,,-1221704410515322880,0.0,14.519470823870506,4.633604706295989,9.516009991878686,81,31,0.0,15,42970358902112,5,41.5,-533.3575439453125,0.04610000178217888,0,0.0,0.0,,,,,0,,1,,
Raw,257211330,34559920000000,,,-1221704410515322880,0.0,14.519470823870506,4.633604706295989,9.516009991878686,81,32,0.0,15,42970360300836,4,43.3,-228.9694366455078,0.01860000006854534,0,0.0,0.0,,,,,0,,1,,
Raw,257212324,34560920000000,,,-1221704410515322880,0.0,14.519451724481769,10.60436172152011,9.515990109909282,81,10,0.0,15,42971366569694,5,46.6,-322.6547546386719,0.027000000700354576,0,0.0,0.0,,,,,0,,1,,
Raw,257212325,34560920000000,,,-1221704410515322880,0.0,14.519451724481769,10.60436172152011,9.515990109909282,81,12,0.0,15,42971361374769,4,43.5,5.631020545959473,0.020100001245737076,0,0.0,0.0,,,,,0,,1,,
Raw,257212326,34560920000000,,,-1221704410515322880,0.0,14.519451724481769,10.60436172152011,9.515990109909282,81,14,0.0,15,42971356063038,5,41.8,-261.9449157714844,0.04310000315308571,0,0.0,0.0,,,,,0,,1,,
Raw,257212326,34560920000000,,,-1221704410515322880,0.0,14.519451724481769,10.60436172152011,9.515990109909282,81,15,0.0,15,42971353644856,6,39.4,371.5291748046875,0.039100002497434616,0,0.0,0.0,,,,,0,,1,,
Raw,257212327,34560920000000,,,-1221704410515322880,0.0,14.519451724481769,10.60436172152011,9.515990109909282,81,20,0.0,15,42971368681944,4,49.1,80.70162963867188,0.02980000153183937,0,0.0,0.0,,,,,0,,1,,
Raw,257212327,34560920000000,,,-1221704410515322880,0.0,14.519451724481769,10.60436172152011,9.515990109909282,81,21,0.0,15,42971359413017,4,42.2,470.7701721191406,0.047300003468990326,0,0.0,0.0,,,,,0,,1,,
Raw,257212328,34560920000000,,,-1221704410515322880,0.0,14.519451724481769,10.60436172152011,9.515990109909282,81,24,0.0,15,42971357296287,5,40.6,616.3757934570312,0.04490000009536743,0,0.0,0.0,,,,,0,,1,,
Raw,257212329,34560920000000,,,-1221704410515322880,0.0,14.519451724481769,10.60436172152011,9.515990109909282,81,25,0.0,15,42971362492028,4,45.2,-408.48822021484375,0.02110000140964985,0,0.0,0.0,,,,,0,,1,,
Raw,257212330,34560920000000,,,-1221704410515322880,0.0,14.519451724481769,10.60436172152011,9.515990109909282,81,31,0.0,15,42971358903884,4,42.7,-533.3259887695312,0.04580000042915344,0,0.0,0.0,,,,,0,,1,,
Raw,257212330,34560920000000,,,-1221704410515322880,0.0,14.519451724481769,10.60436172152011,9.515990109909282,81,32,0.0,15,42971360301589,4,44.4,-229.03408813476562,0.018300000578165054,0,0.0,0.0,,,,,0,,1,,
Raw,257213316,34561920000000,,,-1221704410515322880,0.0,14.51943171559833,10.503214985652415,9.515971023218654,81,10,0.0,15,42972366570771,4,44.7,-323.39697265625,0.027300002053380013,0,0.0,0.0,,,,,0,,1,,
Raw,257213317,34561920000000,,,-1221704410515322880,0.0,14.51943171559833,10.503214985652415,9.515971023218654,81,12,0.0,15,42972361374748,5,41.5,4.9328203201293945,0.020600000396370888,0,0.0,0.0,,,,,0,,1,,
Raw,257213318,34561920000000,,,-1221704410515322880,0.0,14.51943171559833,10.503214985652415,9.515971023218654,81,14,0.0,15,42972356063911,6,39.8,-262.7740783691406,0.04360000044107437,0,0.0,0.0,,,,,0,,1,,
Raw,257213319,34561920000000,,,-1221704410515322880,0.0,14.51943171559833,10.503214985652415,9.515971023218654,81,15,0.0,15,42972353643628,7,37.7,370.70794677734375,0.04010000079870224,0,0.0,0.0,,,,,0,,1,,
Raw,257213320,34561920000000,,,-1221704410515322880,0.0,14.51943171559833,10.503214985652415,9.515971023218654,81,20,0.0,15,42972368681675,5,47.1,79.99122619628906,0.02980000153183937,0,0.0,0.0,,,,,0,,1,,
Raw,257213320,34561920000000,,,-1221704410515322880,0.0,14.51943171559833,10.503214985652415,9.515971023218654,81,21,0.0,15,42972359411465,5,40.7,469.98095703125,0.0479000024497509,0,0.0,0.0,,,,,0,,1,,
Raw,257213321,34561920000000,,,-1221704410515322880,0.0,14.51943171559833,10.503214985652415,9.515971023218654,81,24,0.0,15,42972357294221,6,38.9,615.5527954101562,0.04560000076889992,0,0.0,0.0,,,,,0,,1,,
Raw,257213322,34561920000000,,,-1221704410515322880,0.0,14.51943171559833,10.503214985652415,9.515971023218654,81,25,0.0,15,42972362493392,4,43.2,-409.2281494140625,0.02160000056028366,0,0.0,0.0,,,,,0,,1,,
Raw,257213322,34561920000000,,,-1221704410515322880,0.0,14.51943171559833,10.503214985652415,9.515971023218654,81,31,0.0,15,42972358905663,5,40.7,-534.0862426757812,0.046400003135204315,0,0.0,0.0,,,,,0,,1,,
Raw,257213323,34561920000000,,,-1221704410515322880,0.0,14.51943171559833,10.503214985652415,9.515971023218654,81,32,0.0,15,42972360302360,4,42.2,-229.85360717773438,0.018800001591444016,0,0.0,0.0,,,,,0,,1,,
Raw,257214324,34562920000000,,,-1221704410515322880,0.0,14.519413525704294,7.737604411504711,9.515951936528026,81,10,0.0,15,42973366571847,4,45.0,-323.30224609375,0.02710000053048134,0,0.0,0.0,,,,,0,,1,,
Raw,257214325,34562920000000,,,-1221704410515322880,0.0,14.519413525704294,7.737604411504711,9.515951936528026,81,12,0.0,15,42973361374731,4,42.0,5.070170879364014,0.0203000009059906,0,0.0,0.0,,,,,0,,1,,
Raw,257214326,34562920000000,,,-1221704410515322880,0.0,14.519413525704294,7.737604411504711,9.515951936528026,81,14,0.0,15,42973356064791,6,39.7,-262.7664489746094,0.04360000044107437,0,0.0,0.0,,,,,0,,1,,
Raw,257214326,34562920000000,,,-1221704410515322880,0.0,14.519413525704294,7.737604411504711,9.515951936528026,81,15,0.0,15,42973353642386,7,37.7,370.714111328125,0.04010000079870224,0,0.0,0.0,,,,,0,,1,,
Raw,257214327,34562920000000,,,-1221704410515322880,0.0,14.519413525704294,7.737604411504711,9.515951936528026,81,20,0.0,15,42973368681410,5,47.1,80.11106872558594,0.02980000153183937,0,0.0,0.0,,,,,0,,1,,
Raw,257214328,34562920000000,,,-1221704410515322880,0.0,14.519413525704294,7.737604411504711,9.515951936528026,81,21,0.0,15,42973359409896,5,40.5,470.0052490234375,0.0479000024497509,0,0.0,0.0,,,,,0,,1,,
Raw,257214328,34562920000000,,,-1221704410515322880,0.0,14.519413525704294,7.737604411504711,9.515951936528026,81,24,0.0,15,42973357292170,6,39.6,615.5663452148438,0.045100003480911255,0,0.0,0.0,,,,,0,,1,,
Raw,257214329,34562920000000,,,-1221704410515322880,0.0,14.519413525704294,7.737604411504711,9.515951936528026,81,25,0.0,15,42973362494763,4,42.9,-409.12664794921875,0.021800000220537186,0,0.0,0.0,,,,,0,,1,,
Raw,257214330,34562920000000,,,-1221704410515322880,0.0,14.519413525704294,7.737604411504711,9.515951936528026,81,31,0.0,15,42973358907448,5,40.4,-534.017578125,0.046400003135204315,0,0.0,0.0,,,,,0,,1,,
Raw,257214331,34562920000000,,,-1221704410515322880,0.0,14.519413525704294,7.737604411504711,9.515951936528026,81,32,0.0,15,42973360303123,4,42.2,-229.82952880859375,0.018800001591444016,0,0.0,0.0,,,,,0,,1,,
Raw,257215325,34563920000000,,,-1221704410515322880,0.0,14.519393516820855,7.728608217988739,9.515932849837398,81,10,0.0,15,42974366572928,5,47.5,-322.44915771484375,0.02680000104010105,0,0.0,0.0,,,,,0,,1,,
Raw,257215325,34563920000000,,,-1221704410515322880,0.0,14.519393516820855,7.728608217988739,9.515932849837398,81,12,0.0,15,42974361374716,4,45.3,5.960414886474609,0.019600000232458115,0,0.0,0.0,,,,,0,,1,,
Raw,257215326,34563920000000,,,-1221704410515322880,0.0,14.519393516820855,7.728608217988739,9.515932849837398,81,14,0.0,15,42974356065666,4,43.5,-261.98773193359375,0.04260000213980675,0,0.0,0.0,,,,,0,,1,,
Raw,257215327,34563920000000,,,-1221704410515322880,0.0,14.519393516820855,7.728608217988739,9.515932849837398,81,15,0.0,15,42974353641158,5,41.4,371.50732421875,0.038600001484155655,0,0.0,0.0,,,,,0,,1,,
Raw,257215327,34563920000000,,,-1221704410515322880,0.0,14.519393516820855,7.728608217988739,9.515932849837398,81,20,0.0,15,42974368681146,4,50.2,80.99689483642578,0.02980000153183937,0,0.0,0.0,,,,,0,,1,,
Raw,257215328,34563920000000,,,-1221704410515322880,0.0,14.519393516820855,7.728608217988739,9.515932849837398,81,21,0.0,15,42974359408332,4,43.2,470.8196105957031,0.0471000038087368,0,0.0,0.0,,,,,0,,1,,
Raw,257215329,34563920000000,,,-1221704410515322880,0.0,14.519393516820855,7.728608217988739,9.515932849837398,81,24,0.0,15,42974357290116,4,42.4,616.351806640625,0.04430000111460686,0,0.0,0.0,,,,,0,,1,,
Raw,257215330,34563920000000,,,-1221704410515322880,0.0,14.519393516820855,7.728608217988739,9.515932849837398,81,25,0.0,15,42974362496123,5,46.7,-408.2714538574219,0.021000001579523087,0,0.0,0.0,,,,,0,,1,,
Raw,257215331,34563920000000,,,-1221704410515322880,0.0,14.519393516820855,7.728608217988739,9.515932849837398,81,31,0.0,15,42974358909232,4,43.7,-533.1669921875,0.04560000076889992,0,0.0,0.0,,,,,0,,1,,
Raw,257215331,34563920000000,,,-1221704410515322880,0.0,14.519393516820855,7.728608217988739,9.515932849837398,81,32,0.0,15,42974360303887,4,45.5,-229.06529235839844,0.01810000091791153,0,0.0,0.0,,,,,0,,1,,
Raw,257216328,34564920000000,,,-1221704410515322624,0.0,14.51937532692682,10.349775489136805,9.51591376314677,81,10,0.0,15,42975366573986,5,46.1,-322.45904541015625,0.027000000700354576,0,0.0,0.0,,,,,0,,1,,
Raw,257216329,34564920000000,,,-1221704410515322624,0.0,14.51937532692682,10.349775489136805,9.51591376314677,81,12,0.0,15,42975361374679,4,43.3,5.994022846221924,0.020100001245737076,0,0.0,0.0,,,,,0,,1,,
Raw,257216330,34564920000000,,,-1221704410515322624,0.0,14.51937532692682,10.349775489136805,9.51591376314677,81,14,0.0,15,42975356066521,5,41.4,-262.0799865722656,0.04310000315308571,0,0.0,0.0,,,,,0,,1,,
Raw,257216331,34564920000000,,,-1221704410515322624,0.0,14.51937532692682,10.349775489136805,9.51591376314677,81,15,0.0,15,42975353639883,6,39.4,371.41168212890625,0.039100002497434616,0,0.0,0.0,,,,,0,,1,,
Raw,257216332,34564920000000,,,-1221704410515322624,0.0,14.51937532692682,10.349775489136805,9.51591376314677,81,20,0.0,15,42975368680850,5,48.8,81.01813507080078,0.02980000153183937,0,0.0,0.0,,,,,0,,1,,
Raw,257216332,34564920000000,,,-1221704410515322624,0.0,14.51937532692682,10.349775489136805,9.51591376314677,81,21,0.0,15,42975359406737,4,42.5,470.7540283203125,0.047300003468990326,0,0.0,0.0,,,,,0,,1,,
Raw,257216333,34564920000000,,,-1221704410515322624,0.0,14.51937532692682,10.349775489136805,9.51591376314677,81,24,0.0,15,42975357288044,5,40.1,616.2725830078125,0.04490000009536743,0,0.0,0.0,,,,,0,,1,,
Raw,257216333,34564920000000,,,-1221704410515322624,0.0,14.51937532692682,10.349775489136805,9.51591376314677,81,25,0.0,15,42975362497466,4,44.9,-408.28021240234375,0.021300001069903374,0,0.0,0.0,,,,,0,,1,,
Raw,257216333,34564920000000,,,-1221704410515322624,0.0,14.51937532692682,10.349775489136805,9.51591376314677,81,31,0.0,15,42975358910984,5,41.7,-533.1915893554688,0.04610000178217888,0,0.0,0.0,,,,,0,,1,,
Raw,257216334,34564920000000,,,-1221704410515322624,0.0,14.51937532692682,10.349775489136805,9.51591376314677,81,32,0.0,15,42975360304635,4,44.0,-229.15411376953125,0.018300000578165054,0,0.0,0.0,,,,,0,,1,,
Raw,257217327,34565920000000,,,-1221704410515322624,0.0,14.519355318043381,10.030106027548532,9.515893881177366,81,10,0.0,15,42976366575060,5,46.1,-322.81085205078125,0.027000000700354576,0,0.0,0.0,,,,,0,,1,,
Raw,257217327,34565920000000,,,-1221704410515322624,0.0,14.519355318043381,10.030106027548532,9.515893881177366,81,12,0.0,15,42976361374658,4,43.3,5.676766395568848,0.020100001245737076,0,0.0,0.0,,,,,0,,1,,
Raw,257217328,34565920000000,,,-1221704410515322624,0.0,14.519355318043381,10.030106027548532,9.515893881177366,81,14,0.0,15,42976356067393,5,41.3,-262.5094299316406,0.04310000315308571,0,0.0,0.0,,,,,0,,1,,
Raw,257217328,34565920000000,,,-1221704410515322624,0.0,14.519355318043381,10.030106027548532,9.515893881177366,81,15,0.0,15,42976353638654,6,39.3,370.9920654296875,0.039100002497434616,0,0.0,0.0,,,,,0,,1,,
Raw,257217329,34565920000000,,,-1221704410515322624,0.0,14.519355318043381,10.030106027548532,9.515893881177366,81,20,0.0,15,42976368680588,5,48.7,80.69841003417969,0.02980000153183937,0,0.0,0.0,,,,,0,,1,,
Raw,257217330,34565920000000,,,-1221704410515322624,0.0,14.519355318043381,10.030106027548532,9.515893881177366,81,21,0.0,15,42976359405171,5,41.8,470.35791015625,0.047600001096725464,0,0.0,0.0,,,,,0,,1,,
Raw,257217331,34565920000000,,,-1221704410515322624,0.0,14.519355318043381,10.030106027548532,9.515893881177366,81,24,0.0,15,42976357285993,5,40.1,615.8522338867188,0.04490000009536743,0,0.0,0.0,,,,,0,,1,,
Raw,257217331,34565920000000,,,-1221704410515322624,0.0,14.519355318043381,10.030106027548532,9.515893881177366,81,25,0.0,15,42976362498831,4,44.9,-408.6329345703125,0.021300001069903374,0,0.0,0.0,,,,,0,,1,,
Raw,257217332,34565920000000,,,-1221704410515322624,0.0,14.519355318043381,10.030106027548532,9.515893881177366,81,31,0.0,15,42976358912769,4,42.1,-533.5506591796875,0.04580000042915344,0,0.0,0.0,,,,,0,,1,,
Raw,257217332,34565920000000,,,-1221704410515322624,0.0,14.519355318043381,10.030106027548532,9.515893881177366,81,32,0.0,15,42976360305401,4,43.9,-229.58387756347656,0.01860000006854534,0,0.0,0.0,,,,,0,,1,,
Raw,257218327,34566920000000,,,-1221704410515322624,0.0,14.519335309159942,8.612545467398743,9.515874794486738,81,10,0.0,15,42977366576136,5,48.5,-322.8962707519531,0.02680000104010105,0,0.0,0.0,,,,,0,,1,,
Raw,257218327,34566920000000,,,-1221704410515322624,0.0,14.519335309159942,8.612545467398743,9.515874794486738,81,12,0.0,15,42977361374638,4,45.2,5.634626388549805,0.019600000232458115,0,0.0,0.0,,,,,0,,1,,
Raw,257218328,34566920000000,,,-1221704410515322624,0.0,14.519335309159942,8.612545467398743,9.515874794486738,81,14,0.0,15,42977356068269,4,43.2,-262.6769104003906,0.04260000213980675,0,0.0,0.0,,,,,0,,1,,
Raw,257218329,34566920000000,,,-1221704410515322624,0.0,14.519335309159942,8.612545467398743,9.515874794486738,81,15,0.0,15,42977353637417,5,41.0,370.83245849609375,0.038600001484155655,0,0.0,0.0,,,,,0,,1,,
Raw,257218329,34566920000000,,,-1221704410515322624,0.0,14.519335309159942,8.612545467398743,9.515874794486738,81,20,0.0,15,42977368680316,4,50.7,80.64013671875,0.02980000153183937,0,0.0,0.0,,,,,0,,1,,
Raw,257218330,34566920000000,,,-1221704410515322624,0.0,14.519335309159942,8.612545467398743,9.515874794486738,81,21,0.0,15,42977359403595,4,43.9,470.218994140625,0.0471000038087368,0,0.0,0.0,,,,,0,,1,,
Raw,257218331,34566920000000,,,-1221704410515322624,0.0,14.519335309159942,8.612545467398743,9.515874794486738,81,24,0.0,15,42977357283938,5,41.8,615.6878051757812,0.044600002467632294,0,0.0,0.0,,,,,0,,1,,
Raw,257218332,34566920000000,,,-1221704410515322624,0.0,14.519335309159942,8.612545467398743,9.515874794486738,81,25,0.0,15,42977362500194,5,46.6,-408.71392822265625,0.021000001579523087,0,0.0,0.0,,,,,0,,1,,
Raw,257218332,34566920000000,,,-1221704410515322624,0.0,14.519335309159942,8.612545467398743,9.515874794486738,81,31,0.0,15,42977358914541,4,43.5,-533.6527099609375,0.04560000076889992,0,0.0,0.0,,,,,0,,1,,
Raw,257218333,34566920000000,,,-1221704410515322624,0.0,14.519335309159942,8.612545467398743,9.515874794486738,81,32,0.0,15,42977360306164,4,45.5,-229.73867797851562,0.01810000091791153,0,0.0,0.0,,,,,0,,1,,
Raw,257219314,34567920000000,,,-1221704410515322624,0.0,14.519317119265907,8.052982548816802,9.51585570779611,81,10,0.0,15,42978366577217,5,47.4,-322.4541015625,0.02680000104010105,0,0.0,0.0,,,,,0,,1,,
Raw,257219315,34567920000000,,,-1221704410515322624,0.0,14.519317119265907,8.052982548816802,9.51585570779611,81,12,0.0,15,42978361374620,4,45.5,6.117130279541016,0.019600000232458115,0,0.0,0.0,,,,,0,,1,,
Raw,257219316,34567920000000,,,-1221704410515322624,0.0,14.519317119265907,8.052982548816802,9.51585570779611,81,14,0.0,15,42978356069148,4,43.7,-262.326904296875,0.04260000213980675,0,0.0,0.0,,,,,0,,1,,
Raw,257219316,34567920000000,,,-1221704410515322624,0.0,14.519317119265907,8.052982548816802,9.51585570779611,81,15,0.0,15,42978353636184,5,41.3,371.18316650390625,0.038600001484155655,0,0.0,0.0,,,,,0,,1,,
Raw,257219317,34567920000000,,,-1221704410515322624,0.0,14.519317119265907,8.052982548816802,9.51585570779611,81,20,0.0,15,42978368680046,4,50.4,81.11250305175781,0.02980000153183937,0,0.0,0.0,,,,,0,,1,,
Raw,257219317,34567920000000,,,-1221704410515322624,0.0,14.519317119265907,8.052982548816802,9.51585570779611,81,21,0.0,15,42978359402034,4,43.8,470.5988464355469,0.0471000038087368,0,0.0,0.0,,,,,0,,1,,
Raw,257219319,34567920000000,,,-1221704410515322624,0.0,14.519317119265907,8.052982548816802,9.51585570779611,81,24,0.0,15,42978357281886,4,42.1,616.0465087890625,0.04430000111460686,0,0.0,0.0,,,,,0,,1,,
Raw,257219319,34567920000000,,,-1221704410515322624,0.0,14.519317119265907,8.052982548816802,9.51585570779611,81,25,0.0,15,42978362501562,5,46.5,-408.2642822265625,0.021000001579523087,0,0.0,0.0,,,,,0,,1,,
Raw,257219320,34567920000000,,,-1221704410515322624,0.0,14.519317119265907,8.052982548816802,9.51585570779611,81,31,0.0,15,42978358916325,4,44.7,-533.233642578125,0.04530000314116478,0,0.0,0.0,,,,,0,,1,,
Raw,257219320,34567920000000,,,-1221704410515322624,0.0,14.519317119265907,8.052982548816802,9.51585570779611,81,32,0.0,15,42978360306931,4,45.9,-229.37283325195312,0.01810000091791153,0,0.0,0.0,,,,,0,,1,,
Raw,257220321,34568920000000,,,-1221704410515322624,0.0,14.519297110382468,9.193401975212486,9.515835825826706,81,10,0.0,15,42979366578292,5,47.2,-322.5066833496094,0.02680000104010105,0,0.0,0.0,,,,,0,,1,,
Raw,257220322,34568920000000,,,-1221704410515322624,0.0,14.519297110382468,9.193401975212486,9.515835825826706,81,12,0.0,15,42979361374600,4,45.0,6.098291873931885,0.019600000232458115,0,0.0,0.0,,,,,0,,1,,
Raw,257220322,34568920000000,,,-1221704410515322624,0.0,14.519297110382468,9.193401975212486,9.515835825826706,81,14,0.0,15,42979356070027,4,43.0,-262.4531555175781,0.04260000213980675,0,0.0,0.0,,,,,0,,1,,
Raw,257220323,34568920000000,,,-1221704410515322624,0.0,14.519297110382468,9.193401975212486,9.515835825826706,81,15,0.0,15,42979353634952,5,40.9,371.0679931640625,0.03890000283718109,0,0.0,0.0,,,,,0,,1,,
Raw,257220323,34568920000000,,,-1221704410515322624,0.0,14.519297110382468,9.193401975212486,9.515835825826706,81,20,0.0,15,42979368679777,4,50.1,81.08625793457031,0.02980000153183937,0,0.0,0.0,,,,,0,,1,,
Raw,257220323,34568920000000,,,-1221704410515322624,0.0,14.519297110382468,9.193401975212486,9.515835825826706,81,21,0.0,15,42979359400462,4,44.0,470.5052795410156,0.046800002455711365,0,0.0,0.0,,,,,0,,1,,
Raw,257220324,34568920000000,,,-1221704410515322624,0.0,14.519297110382468,9.193401975212486,9.515835825826706,81,24,0.0,15,42979357279834,5,41.2,615.9317626953125,0.044600002467632294,0,0.0,0.0,,,,,0,,1,,
Raw,257220324,34568920000000,,,-1221704410515322624,0.0,14.519297110382468,9.193401975212486,9.515835825826706,81,25,0.0,15,42979362502918,5,46.3,-408.32183837890625,0.021000001579523087,0,0.0,0.0,,,,,0,,1,,
Raw,257220325,34568920000000,,,-1221704410515322624,0.0,14.519297110382468,9.193401975212486,9.515835825826706,81,31,0.0,15,42979358918107,4,43.5,-533.2902221679688,0.04560000076889992,0,0.0,0.0,,,,,0,,1,,
Raw,257220325,34568920000000,,,-1221704410515322624,0.0,14.519297110382468,9.193401975212486,9.515835825826706,81,32,0.0,15,42979360307700,4,45.4,-229.5139617919922,0.01810000091791153,0,0.0,0.0,,,,,0,,1,,
Raw,257221324,34569920000000,,,-1221704410515322624,0.0,14.51927801099373,8.802746725342553,9.515816739136078,81,10,0.0,15,42980366579362,5,47.8,-322.5038146972656,0.02680000104010105,0,0.0,0.0,,,,,0,,1,,
Raw,257221324,34569920000000,,,-1221704410515322624,0.0,14.51927801099373,8.802746725342553,9.515816739136078,81,12,0.0,15,42980361374576,4,44.3,6.138543128967285,0.01979999989271164,0,0.0,0.0,,,,,0,,1,,
Raw,257221325,34569920000000,,,-1221704410515322624,0.0,14.51927801099373,8.802746725342553,9.515816739136078,81,14,0.0,15,42980356070890,4,42.4,-262.5332946777344,0.04280000180006027,0,0.0,0.0,,,,,0,,1,,
Raw,257221326,34569920000000,,,-1221704410515322624,0.0,14.51927801099373,8.802746725342553,9.515816739136078,81,15,0.0,15,42980353633709,5,40.0,370.991455078125,0.03890000283718109,0,0.0,0.0,,,,,0,,1,,
Raw,257221326,34569920000000,,,-1221704410515322624,0.0,14.51927801099373,8.802746725342553,9.515816739136078,81,20,0.0,15,42980368679502,4,49.5,81.12286376953125,0.02980000153183937,0,0.0,0.0,,,,,0,,1,,
Raw,257221327,34569920000000,,,-1221704410515322624,0.0,14.51927801099373,8.802746725342553,9.515816739136078,81,21,0.0,15,42980359398886,4,43.2,470.4527282714844,0.0471000038087368,0,0.0,0.0,,,,,0,,1,,
Raw,257221327,34569920000000,,,-1221704410515322624,0.0,14.51927801099373,8.802746725342553,9.515816739136078,81,24,0.0,15,42980357277768,5,41.4,615.8641357421875,0.044600002467632294,0,0.0,0.0,,,,,0,,1,,
Raw,257221328,34569920000000,,,-1221704410515322624,0.0,14.51927801099373,8.802746725342553,9.515816739136078,81,25,0.0,15,42980362504280,4,45.6,-408.3143310546875,0.02110000140964985,0,0.0,0.0,,,,,0,,1,,
Raw,257221329,34569920000000,,,-1221704410515322624,0.0,14.51927801099373,8.802746725342553,9.515816739136078,81,31,0.0,15,42980358919878,4,43.0,-533.2980346679688,0.04560000076889992,0,0.0,0.0,,,,,0,,1,,
Raw,257221329,34569920000000,,,-1221704410515322624,0.0,14.51927801099373,8.802746725342553,9.515816739136078,81,32,0.0,15,42980360308461,4,44.7,-229.59011840820312,0.018300000578165054,0,0.0,0.0,,,,,0,,1,,
Raw,257222324,34570920000000,,,-1221704410515322624,0.0,14.519258911604993,8.530285807186177,9.51579765244545,81,10,0.0,15,42981366580428,5,46.8,-322.0977478027344,0.027000000700354576,0,0.0,0.0,,,,,0,,1,,
Raw,257222325,34570920000000,,,-1221704410515322624,0.0,14.519258911604993,8.530285807186177,9.51579765244545,81,12,0.0,15,42981361374551,4,44.1,6.579002857208252,0.01979999989271164,0,0.0,0.0,,,,,0,,1,,
Raw,257222326,34570920000000,,,-1221704410515322624,0.0,14.519258911604993,8.530285807186177,9.51579765244545,81,14,0.0,15,42981356071755,4,42.9,-262.2127990722656,0.04280000180006027,0,0.0,0.0,,,,,0,,1,,
Raw,257222327,34570920000000,,,-1221704410515322624,0.0,14.519258911604993,8.530285807186177,9.51579765244545,81,15,0.0,15,42981353632458,5,40.5,371.3180847167969,0.03890000283718109,0,0.0,0.0,,,,,0,,1,,
Raw,257222327,34570920000000,,,-1221704410515322624,0.0,14.519258911604993,8.530285807186177,9.51579765244545,81,20,0.0,15,42981368679220,4,49.0,81.55333709716797,0.02980000153183937,0,0.0,0.0,,,,,0,,1,,
Raw,257222328,34570920000000,,,-1221704410515322624,0.0,14.519258911604993,8.530285807186177,9.51579765244545,81,21,0.0,15,42981359397305,4,43.5,470.79925537109375,0.0471000038087368,0,0.0,0.0,,,,,0,,1,,
Raw,257222328,34570920000000,,,-1221704410515322624,0.0,14.519258911604993,8.530285807186177,9.51579765244545,81,24,0.0,15,42981357275709,5,41.7,616.1803588867188,0.044600002467632294,0,0.0,0.0,,,,,0,,1,,
Raw,257222329,34570920000000,,,-1221704410515322624,0.0,14.519258911604993,8.530285807186177,9.51579765244545,81,25,0.0,15,42981362505630,4,45.7,-407.9050598144531,0.02110000140964985,0,0.0,0.0,,,,,0,,1,,
Raw,257222331,34570920000000,,,-1221704410515322624,0.0,14.519258911604993,8.530285807186177,9.51579765244545,81,31,0.0,15,42981358921649,4,43.2,-532.9098510742188,0.04560000076889992,0,0.0,0.0,,,,,0,,1,,
Raw,257222331,34570920000000,,,-1221704410515322624,0.0,14.519258911604993,8.530285807186177,9.51579765244545,81,32,0.0,15,42981360309217,4,45.0,-229.2654266357422,0.01810000091791153,0,0.0,0.0,,,,,0,,1,,
Raw,257223311,34571920000000,,,-1221704410515322624,0.0,14.519238902721554,9.58164355399676,9.515777770476046,81,10,0.0,15,42982366581492,5,46.8,-322.0832214355469,0.027000000700354576,0,0.0,0.0,,,,,0,,1,,
Raw,257223312,34571920000000,,,-1221704410515322624,0.0,14.519238902721554,9.58164355399676,9.515777770476046,81,12,0.0,15,42982361374522,4,44.0,6.642370700836182,0.01979999989271164,0,0.0,0.0,,,,,0,,1,,
Raw,257223313,34571920000000,,,-1221704410515322624,0.0,14.519238902721554,9.58164355399676,9.515777770476046,81,14,0.0,15,42982356072624,5,41.9,-262.273193359375,0.04310000315308571,0,0.0,0.0,,,,,0,,1,,
Raw,257223313,34571920000000,,,-1221704410515322624,0.0,14.519238902721554,9.58164355399676,9.515777770476046,81,15,0.0,15,42982353631205,6,39.9,371.2666931152344,0.039100002497434616,0,0.0,0.0,,,,,0,,1,,
Raw,257223314,34571920000000,,,-1221704410515322624,0.0,14.519238902721554,9.58164355399676,9.515777770476046,81,20,0.0,15,42982368678944,5,48.7,81.6021728515625,0.02980000153183937,0,0.0,0.0,,,,,0,,1,,
Raw,257223314,34571920000000,,,-1221704410515322624,0.0,14.519238902721554,9.58164355399676,9.515777770476046,81,21,0.0,15,42982359395727,4,42.7,470.7789611816406,0.047300003468990326,0,0.0,0.0,,,,,0,,1,,
Raw,257223316,34571920000000,,,-1221704410515322624,0.0,14.519238902721554,9.58164355399676,9.515777770476046,81,24,0.0,15,42982357273643,5,41.3,616.1393432617188,0.044600002467632294,0,0.0,0.0,,,,,0,,1,,
Raw,257223316,34571920000000,,,-1221704410515322624,0.0,14.519238902721554,9.58164355399676,9.515777770476046,81,25,0.0,15,42982362506983,4,45.5,-407.8891906738281,0.02110000140964985,0,0.0,0.0,,,,,0,,1,,
Raw,257223317,34571920000000,,,-1221704410515322624,0.0,14.519238902721554,9.58164355399676,9.515777770476046,81,31,0.0,15,42982358923416,4,42.5,-532.8983154296875,0.04580000042915344,0,0.0,0.0,,,,,0,,1,,
Raw,257223317,34571920000000,,,-1221704410515322624,0.0,14.519238902721554,9.58164355399676,9.515777770476046,81,32,0.0,15,42982360309971,4,44.7,-229.32452392578125,0.018300000578165054,0,0.0,0.0,,,,,0,,1,,
Raw,257224325,34572920000000,,,-1221704410515322624,0.0,14.519219803332817,9.417585495261802,9.515758683785418,81,10,0.0,15,42983366582576,5,46.2,-323.2118225097656,0.027000000700354576,0,0.0,0.0,,,,,0,,1,,
Raw,257224326,34572920000000,,,-1221704410515322624,0.0,14.519219803332817,9.417585495261802,9.515758683785418,81,12,0.0,15,42983361374502,4,43.4,5.547632217407227,0.020100001245737076,0,0.0,0.0,,,,,0,,1,,
Raw,257224327,34572920000000,,,-1221704410515322624,0.0,14.519219803332817,9.417585495261802,9.515758683785418,81,14,0.0,15,42983356073511,5,41.5,-263.475341796875,0.04310000315308571,0,0.0,0.0,,,,,0,,1,,
Raw,257224327,34572920000000,,,-1221704410515322624,0.0,14.519219803332817,9.417585495261802,9.515758683785418,81,15,0.0,15,42983353629981,6,39.3,370.0610046386719,0.039100002497434616,0,0.0,0.0,,,,,0,,1,,
Raw,257224328,34572920000000,,,-1221704410515322624,0.0,14.519219803332817,9.417585495261802,9.515758683785418,81,20,0.0,15,42983368678676,5,48.7,80.50651550292969,0.02980000153183937,0,0.0,0.0,,,,,0,,1,,
Raw,257224328,34572920000000,,,-1221704410515322624,0.0,14.519219803332817,9.417585495261802,9.515758683785418,81,21,0.0,15,42983359394171,4,42.3,469.60357666015625,0.047300003468990326,0,0.0,0.0,,,,,0,,1,,
Raw,257224329,34572920000000,,,-1221704410515322624,0.0,14.519219803332817,9.417585495261802,9.515758683785418,81,24,0.0,15,42983357271596,5,40.4,614.9373779296875,0.04490000009536743,0,0.0,0.0,,,,,0,,1,,
Raw,257224330,34572920000000,,,-1221704410515322624,0.0,14.519219803332817,9.417585495261802,9.515758683785418,81,25,0.0,15,42983362508347,4,44.7,-409.0216064453125,0.021300001069903374,0,0.0,0.0,,,,,0,,1,,
Raw,257224331,34572920000000,,,-1221704410515322624,0.0,14.519219803332817,9.417585495261802,9.515758683785418,81,31,0.0,15,42983358925200,4,42.0,-534.0361328125,0.04580000042915344,0,0.0,0.0,,,,,0,,1,,
Raw,257224331,34572920000000,,,-1221704410515322624,0.0,14.519219803332817,9.417585495261802,9.515758683785418,81,32,0.0,15,42983360310748,4,44.1,-230.53431701660156,0.018300000578165054,0,0.0,0.0,,,,,0,,1,,
Raw,257225324,34573920000000,,,-1221704410515322624,0.0,14.51920070394408,5.392542423504796,9.515739597094791,81,10,0.0,15,42984366583657,5,47.4,-322.7177734375,0.02680000104010105,0,0.0,0.0,,,,,0,,1,,
Raw,257225324,34573920000000,,,-1221704410515322624,0.0,14.51920070394408,5.392542423504796,9.515739597094791,81,12,0.0,15,42984361374484,4,44.8,6.086736679077148,0.01979999989271164,0,0.0,0.0,,,,,0,,1,,
Raw,257225325,34573920000000,,,-1221704410515322624,0.0,14.51920070394408,5.392542423504796,9.515739597094791,81,14,0.0,15,42984356074385,4,42.8,-263.08343505859375,0.04280000180006027,0,0.0,0.0,,,,,0,,1,,
Raw,257225326,34573920000000,,,-1221704410515322624,0.0,14.51920070394408,5.392542423504796,9.515739597094791,81,15,0.0,15,42984353628743,5,40.7,370.4759521484375,0.03890000283718109,0,0.0,0.0,,,,,0,,1,,
Raw,257225326,34573920000000,,,-1221704410515322624,0.0,14.51920070394408,5.392542423504796,9.515739597094791,81,20,0.0,15,42984368678406,4,49.5,81.0250244140625,0.02980000153183937,0,0.0,0.0,,,,,0,,1,,
Raw,257225327,34573920000000,,,-1221704410515322624,0.0,14.51920070394408,5.392542423504796,9.515739597094791,81,21,0.0,15,42984359392603,4,43.2,470.0194091796875,0.0471000038087368,0,0.0,0.0,,,,,0,,1,,
Raw,257225327,34573920000000,,,-1221704410515322624,0.0,14.51920070394408,5.392542423504796,9.515739597094791,81,24,0.0,15,42984357269545,5,41.9,615.34521484375,0.044600002467632294,0,0.0,0.0,,,,,0,,1,,
Raw,257225328,34573920000000,,,-1221704410515322624,0.0,14.51920070394408,5.392542423504796,9.515739597094791,81,25,0.0,15,42984362509716,5,46.0,-408.5173034667969,0.021000001579523087,0,0.0,0.0,,,,,0,,1,,
Raw,257225328,34573920000000,,,-1221704410515322624,0.0,14.51920070394408,5.392542423504796,9.515739597094791,81,31,0.0,15,42984358926980,4,43.2,-533.5758056640625,0.04560000076889992,0,0.0,0.0,,,,,0,,1,,
Raw,257225329,34573920000000,,,-1221704410515322624,0.0,14.51920070394408,5.392542423504796,9.515739597094791,81,32,0.0,15,42984360311516,4,45.1,-230.11398315429688,0.01810000091791153,0,0.0,0.0,,,,,0,,1,,
Raw,257226326,34574920000000,,,-1221704410515322624,0.0,14.51918069506064,6.693380315316323,9.515719715125387,81,10,0.0,15,42985366584724,5,47.0,-321.6097412109375,0.02680000104010105,0,0.0,0.0,,,,,0,,1,,
Raw,257226327,34574920000000,,,-1221704410515322624,0.0,14.51918069506064,6.693380315316323,9.515719715125387,81,12,0.0,15,42985361374459,4,44.7,7.232813835144043,0.01979999989271164,0,0.0,0.0,,,,,0,,1,,
Raw,257226327,34574920000000,,,-1221704410515322624,0.0,14.51918069506064,6.693380315316323,9.515719715125387,81,14,0.0,15,42985356075261,4,42.4,-262.05072021484375,0.04280000180006027,0,0.0,0.0,,,,,0,,1,,
Raw,257226328,34574920000000,,,-1221704410515322624,0.0,14.51918069506064,6.693380315316323,9.515719715125387,81,15,0.0,15,42985353627503,5,40.5,371.5018310546875,0.03890000283718109,0,0.0,0.0,,,,,0,,1,,
Raw,257226329,34574920000000,,,-1221704410515322624,0.0,14.51918069506064,6.693380315316323,9.515719715125387,81,20,0.0,15,42985368678132,4,49.3,82.16352081298828,0.02980000153183937,0,0.0,0.0,,,,,0,,1,,
Raw,257226330,34574920000000,,,-1221704410515322624,0.0,14.51918069506064,6.693380315316323,9.515719715125387,81,21,0.0,15,42985359391036,4,42.9,471.07830810546875,0.047300003468990326,0,0.0,0.0,,,,,0,,1,,
Raw,257226330,34574920000000,,,-1221704410515322624,0.0,14.51918069506064,6.693380315316323,9.515719715125387,81,24,0.0,15,42985357267489,5,41.6,616.3746337890625,0.044600002467632294,0,0.0,0.0,,,,,0,,1,,
Raw,257226331,34574920000000,,,-1221704410515322624,0.0,14.51918069506064,6.693380315316323,9.515719715125387,81,25,0.0,15,42985362511072,4,45.6,-407.4098815917969,0.02110000140964985,0,0.0,0.0,,,,,0,,1,,
Raw,257226332,34574920000000,,,-1221704410515322624,0.0,14.51918069506064,6.693380315316323,9.515719715125387,81,31,0.0,15,42985358928755,4,42.8,-532.4810791015625,0.04580000042915344,0,0.0,0.0,,,,,0,,1,,
Raw,257226332,34574920000000,,,-1221704410515322624,0.0,14.51918069506064,6.693380315316323,9.515719715125387,81,32,0.0,15,42985360312280,4,45.0,-229.09060668945312,0.01810000091791153,0,0.0,0.0,,,,,0,,1,,
Raw,257227338,34575920000000,,,-1221704410515322624,0.0,14.519161595671903,10.108934059841948,9.51570062843476,81,10,0.0,15,42986366585796,4,44.6,-321.717041015625,0.027300002053380013,0,0.0,0.0,,,,,0,,1,,
Raw,257227338,34575920000000,,,-1221704410515322624,0.0,14.519161595671903,10.108934059841948,9.51570062843476,81,12,0.0,15,42986361374430,5,40.6,7.1563005447387695,0.020899999886751175,0,0.0,0.0,,,,,0,,1,,
Raw,257227339,34575920000000,,,-1221704410515322624,0.0,14.519161595671903,10.108934059841948,9.51570062843476,81,14,0.0,15,42986356076137,6,39.1,-262.2260437011719,0.04360000044107437,0,0.0,0.0,,,,,0,,1,,
Raw,257227340,34575920000000,,,-1221704410515322624,0.0,14.519161595671903,10.108934059841948,9.51570062843476,81,15,0.0,15,42986353626253,8,36.9,371.3414001464844,0.04070000350475311,0,0.0,0.0,,,,,0,,1,,
Raw,257227341,34575920000000,,,-1221704410515322624,0.0,14.519161595671903,10.108934059841948,9.51570062843476,81,20,0.0,15,42986368677858,5,46.3,82.08704376220703,0.030000001192092896,0,0.0,0.0,,,,,0,,1,,
Raw,257227341,34575920000000,,,-1221704410515322624,0.0,14.519161595671903,10.108934059841948,9.51570062843476,81,21,0.0,15,42986359389458,6,39.8,470.9320983886719,0.048100002110004425,0,0.0,0.0,,,,,0,,1,,
Raw,257227342,34575920000000,,,-1221704410515322624,0.0,14.519161595671903,10.108934059841948,9.51570062843476,81,24,0.0,15,42986357265429,6,38.6,616.2113037109375,0.04560000076889992,0,0.0,0.0,,,,,0,,1,,
Raw,257227343,34575920000000,,,-1221704410515322624,0.0,14.519161595671903,10.108934059841948,9.51570062843476,81,25,0.0,15,42986362512431,4,42.1,-407.51226806640625,0.021800000220537186,0,0.0,0.0,,,,,0,,1,,
Raw,257227343,34575920000000,,,-1221704410515322624,0.0,14.519161595671903,10.108934059841948,9.51570062843476,81,31,0.0,15,42986358930530,6,39.7,-532.584228515625,0.04660000279545784,0,0.0,0.0,,,,,0,,1,,
Raw,257227344,34575920000000,,,-1221704410515322624,0.0,14.519161595671903,10.108934059841948,9.51570062843476,81,32,0.0,15,42986360313039,5,41.0,-229.28045654296875,0.019100001081824303,0,0.0,0.0,,,,,0,,1,,
Raw,257228329,34576920000000,,,-1221704410515322624,0.0,14.519142496283166,9.566526895019427,9.515681541744131,81,10,0.0,15,42987366586866,5,40.9,-322.7226867675781,0.028400002047419548,0,0.0,0.0,,,,,0,,1,,
Raw,257228330,34576920000000,,,-1221704410515322624,0.0,14.519142496283166,9.566526895019427,9.515681541744131,81,12,0.0,15,42987361374408,7,37.3,6.1923136711120605,0.022100001573562622,0,0.0,0.0,,,,,0,,1,,
Raw,257228331,34576920000000,,,-1221704410515322624,0.0,14.519142496283166,9.566526895019427,9.515681541744131,81,14,0.0,15,42987356077010,9,35.3,-263.3210144042969,0.04560000076889992,0,0.0,0.0,,,,,0,,1,,
Raw,257228331,34576920000000,,,-1221704410515322624,0.0,14.519142496283166,9.566526895019427,9.515681541744131,81,15,0.0,15,42987353625024,11,33.2,370.25531005859375,0.04240000247955322,0,0.0,0.0,,,,,0,,1,,
Raw,257228332,34576920000000,,,-1221704410515322624,0.0,14.519142496283166,9.566526895019427,9.515681541744131,81,20,0.0,15,42987368677577,4,42.1,81.10663604736328,0.030800001695752144,0,0.0,0.0,,,,,0,,1,,
Raw,257228332,34576920000000,,,-1221704410515322624,0.0,14.519142496283166,9.566526895019427,9.515681541744131,81,21,0.0,15,42987359387884,8,36.4,469.8799133300781,0.04970000311732292,0,0.0,0.0,,,,,0,,1,,
Raw,257228333,34576920000000,,,-1221704410515322624,0.0,14.519142496283166,9.566526895019427,9.515681541744131,81,24,0.0,15,42987357263378,9,35.0,615.1268920898438,0.0471000038087368,0,0.0,0.0,,,,,0,,1,,
Raw,257228333,34576920000000,,,-1221704410515322624,0.0,14.519142496283166,9.566526895019427,9.515681541744131,81,25,0.0,15,42987362513786,6,38.3,-408.518798828125,0.023100001737475395,0,0.0,0.0,,,,,0,,1,,
Raw,257228334,34576920000000,,,-1221704410515322624,0.0,14.519142496283166,9.566526895019427,9.515681541744131,81,31,0.0,15,42987358932307,9,35.9,-533.597900390625,0.048600003123283386,0,0.0,0.0,,,,,0,,1,,
Raw,257228334,34576920000000,,,-1221704410515322624,0.0,14.519142496283166,9.566526895019427,9.515681541744131,81,32,0.0,15,42987360313804,7,37.8,-230.375,0.020600000396370888,0,0.0,0.0,,,,,0,,1,,
Raw,257229322,34577920000000,,,-1221704410515322624,0.0,14.519123396894429,5.935587401905803,9.515662455053503,81,10,0.0,15,42988366587951,5,46.0,-322.89373779296875,0.027000000700354576,0,0.0,0.0,,,,,0,,1,,
Raw,257229323,34577920000000,,,-1221704410515322624,0.0,14.519123396894429,5.935587401905803,9.515662455053503,81,12,0.0,15,42988361374401,4,43.6,6.07163143157959,0.020100001245737076,0,0.0,0.0,,,,,0,,1,,
Raw,257229324,34577920000000,,,-1221704410515322624,0.0,14.519123396894429,5.935587401905803,9.515662455053503,81,14,0.0,15,42988356077896,5,41.4,-263.5722961425781,0.04310000315308571,0,0.0,0.0,,,,,0,,1,,
Raw,257229324,34577920000000,,,-1221704410515322624,0.0,14.519123396894429,5.935587401905803,9.515662455053503,81,15,0.0,15,42988353623796,6,39.6,369.9918518066406,0.039100002497434616,0,0.0,0.0,,,,,0,,1,,
Raw,257229325,34577920000000,,,-1221704410515322624,0.0,14.519123396894429,5.935587401905803,9.515662455053503,81,20,0.0,15,42988368677316,5,48.2,80.97135925292969,0.02980000153183937,0,0.0,0.0,,,,,0,,1,,
Raw,257229326,34577920000000,,,-1221704410515322624,0.0,14.519123396894429,5.935587401905803,9.515662455053503,81,21,0.0,15,42988359386319,4,42.5,469.637939453125,0.047300003468990326,0,0.0,0.0,,,,,0,,1,,
Raw,257229326,34577920000000,,,-1221704410515322624,0.0,14.519123396894429,5.935587401905803,9.515662455053503,81,24,0.0,15,42988357261329,5,40.8,614.8756103515625,0.04490000009536743,0,0.0,0.0,,,,,0,,1,,
Raw,257229327,34577920000000,,,-1221704410515322624,0.0,14.519123396894429,5.935587401905803,9.515662455053503,81,25,0.0,15,42988362515160,4,44.3,-408.6744384765625,0.021300001069903374,0,0.0,0.0,,,,,0,,1,,
Raw,257229327,34577920000000,,,-1221704410515322624,0.0,14.519123396894429,5.935587401905803,9.515662455053503,81,31,0.0,15,42988358934095,4,42.2,-533.802490234375,0.04580000042915344,0,0.0,0.0,,,,,0,,1,,
Raw,257229328,34577920000000,,,-1221704410515322624,0.0,14.519123396894429,5.935587401905803,9.515662455053503,81,32,0.0,15,42988360314578,4,44.1,-230.59950256347656,0.018300000578165054,0,0.0,0.0,,,,,0,,1,,
Raw,257230326,34578920000000,,,-1221704410515322624,0.0,14.519104297505692,5.027689198248742,9.515642573084099,81,10,0.0,15,42989366589019,5,48.4,-321.706298828125,0.02680000104010105,0,0.0,0.0,,,,,0,,1,,
Raw,257230327,34578920000000,,,-1221704410515322624,0.0,14.519104297505692,5.027689198248742,9.515642573084099,81,12,0.0,15,42989361374368,5,46.6,7.293357849121094,0.019500000402331352,0,0.0,0.0,,,,,0,,1,,
Raw,257230327,34578920000000,,,-1221704410515322624,0.0,14.519104297505692,5.027689198248742,9.515642573084099,81,14,0.0,15,42989356078764,4,44.7,-262.4717102050781,0.04230000078678131,0,0.0,0.0,,,,,0,,1,,
Raw,257230328,34578920000000,,,-1221704410515322624,0.0,14.519104297505692,5.027689198248742,9.515642573084099,81,15,0.0,15,42989353622552,5,41.2,371.1078796386719,0.038600001484155655,0,0.0,0.0,,,,,0,,1,,
Raw,257230328,34578920000000,,,-1221704410515322624,0.0,14.519104297505692,5.027689198248742,9.515642573084099,81,20,0.0,15,42989368677039,4,50.3,82.18777465820312,0.02980000153183937,0,0.0,0.0,,,,,0,,1,,
Raw,257230330,34578920000000,,,-1221704410515322624,0.0,14.519104297505692,5.027689198248742,9.515642573084099,81,21,0.0,15,42989359384747,4,45.5,470.7783508300781,0.04660000279545784,0,0.0,0.0,,,,,0,,1,,
Raw,257230331,34578920000000,,,-1221704410515322624,0.0,14.519104297505692,5.027689198248742,9.515642573084099,81,24,0.0,15,42989357259268,4,42.8,615.989501953125,0.04430000111460686,0,0.0,0.0,,,,,0,,1,,
Raw,257230331,34578920000000,,,-1221704410515322624,0.0,14.519104297505692,5.027689198248742,9.515642573084099,81,25,0.0,15,42989362516510,5,47.0,-407.4918212890625,0.020800000056624413,0,0.0,0.0,,,,,0,,1,,
Raw,257230332,34578920000000,,,-1221704410515322624,0.0,14.519104297505692,5.027689198248742,9.515642573084099,81,31,0.0,15,42989358935861,4,44.9,-532.6266479492188,0.04530000314116478,0,0.0,0.0,,,,,0,,1,,
Raw,257230332,34578920000000,,,-1221704410515322624,0.0,14.519104297505692,5.027689198248742,9.515642573084099,81,32,0.0,15,42989360315340,5,46.8,-229.4912567138672,0.018000001087784767,0,0.0,0.0,,,,,0,,1,,
Raw,257231322,34579920000000,,,-1221704410515322624,0.0,14.519084288622253,8.720351072459263,9.515623486393471,81,10,0.0,15,42990366590086,5,47.1,-321.32086181640625,0.02680000104010105,0,0.0,0.0,,,,,0,,1,,
Raw,257231323,34579920000000,,,-1221704410515322624,0.0,14.519084288622253,8.720351072459263,9.515623486393471,81,12,0.0,15,42990361374341,4,45.3,7.713812828063965,0.019600000232458115,0,0.0,0.0,,,,,0,,1,,
Raw,257231324,34579920000000,,,-1221704410515322624,0.0,14.519084288622253,8.720351072459263,9.515623486393471,81,14,0.0,15,42990356079632,4,43.7,-262.1610107421875,0.04260000213980675,0,0.0,0.0,,,,,0,,1,,
Raw,257231324,34579920000000,,,-1221704410515322624,0.0,14.519084288622253,8.720351072459263,9.515623486393471,81,15,0.0,15,42990353621307,5,40.9,371.42010498046875,0.03890000283718109,0,0.0,0.0,,,,,0,,1,,
Raw,257231325,34579920000000,,,-1221704410515322624,0.0,14.519084288622253,8.720351072459263,9.515623486393471,81,20,0.0,15,42990368676756,4,50.0,82.60379791259766,0.02980000153183937,0,0.0,0.0,,,,,0,,1,,
Raw,257231325,34579920000000,,,-1221704410515322624,0.0,14.519084288622253,8.720351072459263,9.515623486393471,81,21,0.0,15,42990359383170,4,44.3,471.12286376953125,0.046800002455711365,0,0.0,0.0,,,,,0,,1,,
Raw,257231326,34579920000000,,,-1221704410515322624,0.0,14.519084288622253,8.720351072459263,9.515623486393471,81,24,0.0,15,42990357257209,4,42.1,616.309814453125,0.04430000111460686,0,0.0,0.0,,,,,0,,1,,
Raw,257231327,34579920000000,,,-1221704410515322624,0.0,14.519084288622253,8.720351072459263,9.515623486393471,81,25,0.0,15,42990362517862,5,46.6,-407.1071472167969,0.021000001579523087,0,0.0,0.0,,,,,0,,1,,
Raw,257231327,34579920000000,,,-1221704410515322624,0.0,14.519084288622253,8.720351072459263,9.515623486393471,81,31,0.0,15,42990358937635,4,44.3,-532.2423095703125,0.04530000314116478,0,0.0,0.0,,,,,0,,1,,
Raw,257231328,34579920000000,,,-1221704410515322624,0.0,14.519084288622253,8.720351072459263,9.515623486393471,81,32,0.0,15,42990360316095,4,45.8,-229.1942596435547,0.01810000091791153,0,0.0,0.0,,,,,0,,1,,
Raw,257232322,34580920000000,,,-1221704410515322624,0.0,14.51851858291775,9.77060497232853,9.515057247904842,81,10,0.0,15,42991366591149,4,49.0,-321.39569091796875,0.02680000104010105,0,0.0,0.0,,,,,0,,1,,
Raw,257232322,34580920000000,,,-1221704410515322624,0.0,14.51851858291775,9.77060497232853,9.515057247904842,81,12,0.0,15,42991361374297,4,45.8,7.674964904785156,0.019600000232458115,0,0.0,0.0,,,,,0,,1,,
Raw,257232323,34580920000000,,,-1221704410515322624,0.0,14.51851858291775,9.77060497232853,9.515057247904842,81,14,0.0,15,42991356080498,4,43.9,-262.318603515625,0.04260000213980675,0,0.0,0.0,,,,,0,,1,,
Raw,257232323,34580920000000,,,-1221704410515322624,0.0,14.51851858291775,9.77060497232853,9.515057247904842,81,15,0.0,15,42991353620062,5,41.4,371.2637023925781,0.038600001484155655,0,0.0,0.0,,,,,0,,1,,
Raw,257232323,34580920000000,,,-1221704410515322624,0.0,14.51851858291775,9.77060497232853,9.515057247904842,81,20,0.0,15,42991368676469,4,51.1,82.5556869506836,0.02980000153183937,0,0.0,0.0,,,,,0,,1,,
Raw,257232324,34580920000000,,,-1221704410515322624,0.0,14.51851858291775,9.77060497232853,9.515057247904842,81,21,0.0,15,42991359381592,4,44.7,470.9933776855469,0.046800002455711365,0,0.0,0.0,,,,,0,,1,,
Raw,257232325,34580920000000,,,-1221704410515322624,0.0,14.51851858291775,9.77060497232853,9.515057247904842,81,24,0.0,15,42991357255138,4,42.4,616.1600952148438,0.04430000111460686,0,0.0,0.0,,,,,0,,1,,
Raw,257232330,34580920000000,,,-1221704410515322624,0.0,14.51851858291775,9.77060497232853,9.515057247904842,81,25,0.0,15,42991362519210,5,46.8,-407.18450927734375,0.021000001579523087,0,0.0,0.0,,,,,0,,1,,
Raw,257232331,34580920000000,,,-1221704410515322624,0.0,14.51851858291775,9.77060497232853,9.515057247904842,81,31,0.0,15,42991358939400,4,44.1,-532.3341674804688,0.04530000314116478,0,0.0,0.0,,,,,0,,1,,
Raw,257232332,34580920000000,,,-1221704410515322624,0.0,14.51851858291775,9.77060497232853,9.515057247904842,81,32,0.0,15,42991360316858,5,46.1,-229.35240173339844,0.018000001087784767,0,0.0,0.0,,,,,0,,1,,
Raw,257233321,34581920000000,,,-1221704410515322624,0.0,14.51849857403431,9.236185587533804,9.515038161214214,81,10,0.0,15,42992366592226,5,47.1,-322.2177429199219,0.02680000104010105,0,0.0,0.0,,,,,0,,1,,
Raw,257233322,34581920000000,,,-1221704410515322624,0.0,14.51849857403431,9.236185587533804,9.515038161214214,81,12,0.0,15,42992361374280,5,46.1,6.883256912231445,0.019500000402331352,0,0.0,0.0,,,,,0,,1,,
Raw,257233323,34581920000000,,,-1221704410515322624,0.0,14.51849857403431,9.236185587533804,9.515038161214214,81,14,0.0,15,42992356081380,4,44.5,-263.2079772949219,0.04230000078678131,0,0.0,0.0,,,,,0,,1,,
Raw,257233324,34581920000000,,,-1221704410515322624,0.0,14.51849857403431,9.236185587533804,9.515038161214214,81,15,0.0,15,42992353618825,5,41.3,370.3841857910156,0.038600001484155655,0,0.0,0.0,,,,,0,,1,,
Raw,257233324,34581920000000,,,-1221704410515322624,0.0,14.51849857403431,9.236185587533804,9.515038161214214,81,20,0.0,15,42992368676202,4,50.4,81.76535034179688,0.02980000153183937,0,0.0,0.0,,,,,0,,1,,
Raw,257233325,34581920000000,,,-1221704410515322624,0.0,14.51849857403431,9.236185587533804,9.515038161214214,81,21,0.0,15,42992359380021,4,44.7,470.1385803222656,0.046800002455711365,0,0.0,0.0,,,,,0,,1,,
Raw,257233325,34581920000000,,,-1221704410515322624,0.0,14.51849857403431,9.236185587533804,9.515038161214214,81,24,0.0,15,42992357253087,4,42.9,615.2774658203125,0.04430000111460686,0,0.0,0.0,,,,,0,,1,,
Raw,257233326,34581920000000,,,-1221704410515322624,0.0,14.51849857403431,9.236185587533804,9.515038161214214,81,25,0.0,15,42992362520575,5,46.9,-408.0072326660156,0.021000001579523087,0,0.0,0.0,,,,,0,,1,,
Raw,257233326,34581920000000,,,-1221704410515322624,0.0,14.51849857403431,9.236185587533804,9.515038161214214,81,31,0.0,15,42992358941185,4,44.5,-533.1535034179688,0.04530000314116478,0,0.0,0.0,,,,,0,,1,,
Raw,257233327,34581920000000,,,-1221704410515322624,0.0,14.51849857403431,9.236185587533804,9.515038161214214,81,32,0.0,15,42992360317622,5,46.4,-230.26426696777344,0.018000001087784767,0,0.0,0.0,,,,,0,,1,,
Raw,257234323,34582920000000,,,-1221704410515322624,0.0,14.518480384140275,6.300629903510584,9.515019074523586,81,10,0.0,15,42993366593302,4,45.7,-323.1927490234375,0.02710000053048134,0,0.0,0.0,,,,,0,,1,,
Raw,257234324,34582920000000,,,-1221704410515322624,0.0,14.518480384140275,6.300629903510584,9.515019074523586,81,12,0.0,15,42993361374260,4,43.6,5.961071014404297,0.020100001245737076,0,0.0,0.0,,,,,0,,1,,
Raw,257234325,34582920000000,,,-1221704410515322624,0.0,14.518480384140275,6.300629903510584,9.515019074523586,81,14,0.0,15,42993356082260,5,41.7,-264.2801208496094,0.04310000315308571,0,0.0,0.0,,,,,0,,1,,
Raw,257234326,34582920000000,,,-1221704410515322624,0.0,14.518480384140275,6.300629903510584,9.515019074523586,81,15,0.0,15,42993353617587,6,39.5,369.3190002441406,0.039100002497434616,0,0.0,0.0,,,,,0,,1,,
Raw,257234327,34582920000000,,,-1221704410515322624,0.0,14.518480384140275,6.300629903510584,9.515019074523586,81,20,0.0,15,42993368675926,5,48.7,80.81654357910156,0.02980000153183937,0,0.0,0.0,,,,,0,,1,,
Raw,257234328,34582920000000,,,-1221704410515322624,0.0,14.518480384140275,6.300629903510584,9.515019074523586,81,21,0.0,15,42993359378465,4,42.6,469.08184814453125,0.047300003468990326,0,0.0,0.0,,,,,0,,1,,
Raw,257234328,34582920000000,,,-1221704410515322624,0.0,14.518480384140275,6.300629903510584,9.515019074523586,81,24,0.0,15,42993357251040,5,41.8,614.21044921875,0.044600002467632294,0,0.0,0.0,,,,,0,,1,,
Raw,257234329,34582920000000,,,-1221704410515322624,0.0,14.518480384140275,6.300629903510584,9.515019074523586,81,25,0.0,15,42993362521937,4,44.6,-408.97222900390625,0.021300001069903374,0,0.0,0.0,,,,,0,,1,,
Raw,257234330,34582920000000,,,-1221704410515322624,0.0,14.518480384140275,6.300629903510584,9.515019074523586,81,31,0.0,15,42993358942960,4,42.5,-534.1649169921875,0.04580000042915344,0,0.0,0.0,,,,,0,,1,,
Raw,257234331,34582920000000,,,-1221704410515322624,0.0,14.518480384140275,6.300629903510584,9.515019074523586,81,32,0.0,15,42993360318390,4,44.2,-231.3043670654297,0.018300000578165054,0,0.0,0.0,,,,,0,,1,,
Raw,257235325,34583920000000,,,-1221704410515322624,0.0,14.518460375256836,2.686576962290648,9.514999987832958,81,10,0.0,15,42994366594364,5,46.6,-321.77374267578125,0.027000000700354576,0,0.0,0.0,,,,,0,,1,,
Raw,257235326,34583920000000,,,-1221704410515322624,0.0,14.518460375256836,2.686576962290648,9.514999987832958,81,12,0.0,15,42994361374215,4,44.2,7.426285743713379,0.01979999989271164,0,0.0,0.0,,,,,0,,1,,
Raw,257235326,34583920000000,,,-1221704410515322624,0.0,14.518460375256836,2.686576962290648,9.514999987832958,81,14,0.0,15,42994356083123,4,42.1,-262.9555358886719,0.04280000180006027,0,0.0,0.0,,,,,0,,1,,
Raw,257235327,34583920000000,,,-1221704410515322624,0.0,14.518460375256836,2.686576962290648,9.514999987832958,81,15,0.0,15,42994353616347,6,39.6,370.65863037109375,0.039100002497434616,0,0.0,0.0,,,,,0,,1,,
Raw,257235327,34583920000000,,,-1221704410515322624,0.0,14.518460375256836,2.686576962290648,9.514999987832958,81,20,0.0,15,42994368675639,5,48.8,82.261962890625,0.02980000153183937,0,0.0,0.0,,,,,0,,1,,
Raw,257235328,34583920000000,,,-1221704410515322624,0.0,14.518460375256836,2.686576962290648,9.514999987832958,81,21,0.0,15,42994359376876,4,42.2,470.44195556640625,0.047300003468990326,0,0.0,0.0,,,,,0,,1,,
Raw,257235330,34583920000000,,,-1221704410515322624,0.0,14.518460375256836,2.686576962290648,9.514999987832958,81,24,0.0,15,42994357248972,5,41.5,615.5455932617188,0.044600002467632294,0,0.0,0.0,,,,,0,,1,,
Raw,257235331,34583920000000,,,-1221704410515322624,0.0,14.518460375256836,2.686576962290648,9.514999987832958,81,25,0.0,15,42994362523287,4,45.3,-407.54608154296875,0.02110000140964985,0,0.0,0.0,,,,,0,,1,,
Raw,257235331,34583920000000,,,-1221704410515322624,0.0,14.518460375256836,2.686576962290648,9.514999987832958,81,31,0.0,15,42994358944732,4,42.6,-532.7623291015625,0.04580000042915344,0,0.0,0.0,,,,,0,,1,,
Raw,257235331,34583920000000,,,-1221704410515322624,0.0,14.518460375256836,2.686576962290648,9.514999987832958,81,32,0.0,15,42994360319146,4,44.5,-229.95281982421875,0.018300000578165054,0,0.0,0.0,,,,,0,,1,,
Raw,257236326,34584920000000,,,-1221704410515322624,0.0,14.5184412758681,7.113945999957799,9.514980105863554,81,10,0.0,15,42995366595436,4,44.5,-320.8892822265625,0.027300002053380013,0,0.0,0.0,,,,,0,,1,,
Raw,257236326,34584920000000,,,-1221704410515322624,0.0,14.5184412758681,7.113945999957799,9.514980105863554,81,12,0.0,15,42995361374194,5,41.0,8.338884353637695,0.020600000396370888,0,0.0,0.0,,,,,0,,1,,
Raw,257236327,34584920000000,,,-1221704410515322624,0.0,14.5184412758681,7.113945999957799,9.514980105863554,81,14,0.0,15,42995356084005,6,39.4,-262.1385498046875,0.04360000044107437,0,0.0,0.0,,,,,0,,1,,
Raw,257236328,34584920000000,,,-1221704410515322624,0.0,14.5184412758681,7.113945999957799,9.514980105863554,81,15,0.0,15,42995353615112,7,37.5,371.4704895019531,0.04010000079870224,0,0.0,0.0,,,,,0,,1,,
Raw,257236328,34584920000000,,,-1221704410515322624,0.0,14.5184412758681,7.113945999957799,9.514980105863554,81,20,0.0,15,42995368675369,5,46.7,83.17973327636719,0.030000001192092896,0,0.0,0.0,,,,,0,,1,,
Raw,257236329,34584920000000,,,-1221704410515322624,0.0,14.5184412758681,7.113945999957799,9.514980105863554,81,21,0.0,15,42995359375307,5,40.3,471.2846984863281,0.0479000024497509,0,0.0,0.0,,,,,0,,1,,
Raw,257236330,34584920000000,,,-1221704410515322624,0.0,14.5184412758681,7.113945999957799,9.514980105863554,81,24,0.0,15,42995357246916,6,39.2,616.37158203125,0.045100003480911255,0,0.0,0.0,,,,,0,,1,,
Raw,257236331,34584920000000,,,-1221704410515322624,0.0,14.5184412758681,7.113945999957799,9.514980105863554,81,25,0.0,15,42995362524644,4,42.9,-406.6632385253906,0.021800000220537186,0,0.0,0.0,,,,,0,,1,,
