# 
# Header Description:
# 
# Version: v2.0.0.1 Platform: 8.0.0 Manufacturer: Xiaomi Model: MIX 2
# 
# Raw,ElapsedRealtimeMillis,TimeNanos,LeapSecond,TimeUncertaintyNanos,FullBiasNanos,BiasNanos,BiasUncertaintyNanos,DriftNanosPerSecond,DriftUncertaintyNanosPerSecond,HardwareClockDiscontinuityCount,Svid,TimeOffsetNanos,State,ReceivedSvTimeNanos,ReceivedSvTimeUncertaintyNanos,Cn0DbHz,PseudorangeRateMetersPerSecond,PseudorangeRateUncertaintyMetersPerSecond,AccumulatedDeltaRangeState,AccumulatedDeltaRangeMeters,AccumulatedDeltaRangeUncertaintyMeters,CarrierFrequencyHz,CarrierCycles,CarrierPhase,CarrierPhaseUncertainty,MultipathIndicator,SnrInDb,ConstellationType,AgcDb,CarrierFrequencyHz
# 
# Fix,Provider,Latitude,Longitude,Altitude,Speed,Accuracy,(UTC)TimeInMs
# 
# Nav,Svid,Type,Status,MessageId,Sub-messageId,Data(Bytes)
# 
Raw,258997570,35751451000000,,,-1221709575996640256,0.0,54.33179467217997,-6.910107301560321,13.574887006249442,117,14,0.0,207,60109373483419,111,24.4,-677.33935546875,6.571000099182129,0,0.0,0.0,,,,,0,,3,,
Raw,258997570,35751451000000,,,-1221709575996640256,0.0,54.33179467217997,-6.910107301560321,13.574887006249442,117,2,0.0,207,60109382495580,31,23.3,111.10920715332031,0.9294999837875366,0,0.0,0.0,,,,,0,,3,,
Raw,258997570,35751451000000,,,-1221709575996640256,0.0,54.33179467217997,-6.910107301560321,13.574887006249442,117,13,0.0,207,60109383269708,896,17.1,-131.16241455078125,4.776000022888184,0,0.0,0.0,,,,,0,,3,,
Raw,258997571,35751451000000,,,-1221709575996640256,0.0,54.33179467217997,-6.910107301560321,13.574887006249442,117,12,0.0,207,60109376899108,72,27.0,639.8661499023438,5.250500202178955,0,0.0,0.0,,,,,0,,3,,
Raw,258997571,35751451000000,,,-1221709575996640256,0.0,54.33179467217997,-6.910107301560321,13.574887006249442,117,1,0.0,207,60109368925893,53,19.7,645.5902709960938,1.2085000276565552,0,0.0,0.0,,,,,0,,3,,
Raw,258997572,35751451000000,,,-1221709575996640256,0.0,54.33179467217997,-6.910107301560321,13.574887006249442,117,3,0.0,207,60109379206191,81,16.1,-527.2293701171875,1.4850000143051147,0,0.0,0.0,,,,,0,,3,,
Raw,258997572,35751451000000,,,-1221709575996640256,0.0,54.33179467217997,-6.910107301560321,13.574887006249442,117,10,0.0,15,49327376690409,100,24.2,487.68463134765625,6.075500011444092,0,0.0,0.0,,,,,0,,1,,
Raw,258997572,35751451000000,,,-1221709575996640256,0.0,54.33179467217997,-6.910107301560321,13.574887006249442,117,14,0.0,15,49327376690678,35,22.5,-179.74188232421875,0.750499963760376,0,0.0,0.0,,,,,0,,1,,
Raw,258997573,35751451000000,,,-1221709575996640256,0.0,54.33179467217997,-6.910107301560321,13.574887006249442,117,18,0.0,15,49327367813447,1025,15.5,269.74127197265625,4.582000255584717,0,0.0,0.0,,,,,0,,1,,
Raw,258997573,35751451000000,,,-1221709575996640256,0.0,54.33179467217997,-6.910107301560321,13.574887006249442,117,20,0.0,15,49327369263774,90,16.8,689.0248413085938,2.680000066757202,0,0.0,0.0,,,,,0,,1,,
Raw,258997573,35751451000000,,,-1221709575996640256,0.0,54.33179467217997,-6.910107301560321,13.574887006249442,117,22,0.0,15,49327366217005,46,20.9,-587.893310546875,0.8554999828338623,0,0.0,0.0,,,,,0,,1,,
Raw,258997574,35751451000000,,,-1221709575996640256,0.0,54.33179467217997,-6.910107301560321,13.574887006249442,117,25,0.0,15,49327375023525,40,21.4,226.09742736816406,0.8689999580383301,0,0.0,0.0,,,,,0,,1,,
Raw,258997576,35751451000000,,,-1221709575996640256,0.0,54.33179467217997,-6.910107301560321,13.574887006249442,117,26,0.0,15,49327370148120,70,17.9,-685.2665405273438,1.091499924659729,0,0.0,0.0,,,,,0,,1,,
Raw,258997577,35751451000000,,,-1221709575996640256,0.0,54.33179467217997,-6.910107301560321,13.574887006249442,117,31,0.0,15,49327379356767,35,22.3,-95.6035385131836,0.8149999976158142,0,0.0,0.0,,,,,0,,1,,
Raw,258997578,35751451000000,,,-1221709575996640256,0.0,54.33179467217997,-6.910107301560321,13.574887006249442,117,32,0.0,15,49327377735546,53,19.2,8.544185638427734,1.0220000743865967,0,0.0,0.0,,,,,0,,1,,
Raw,258997579,35751451000000,,,-1221709575996640256,0.0,54.33179467217997,-6.910107301560321,13.574887006249442,117,5,0.0,783,49313318440993,113,34.8,0.7585560083389282,6.9185004234313965,0,0.0,0.0,,,,,0,,5,,
Raw,258997580,35751451000000,,,-1221709575996640256,0.0,54.33179467217997,-6.910107301560321,13.574887006249442,117,7,0.0,15,49313326244702,495,18.5,-134.42764282226562,2.430500030517578,0,0.0,0.0,,,,,0,,5,,
Raw,258997581,35751451000000,,,-1221709575996640256,0.0,54.33179467217997,-6.910107301560321,13.574887006249442,117,9,0.0,15,49313326750716,102,15.9,-89.8456802368164,2.630500078201294,0,0.0,0.0,,,,,0,,5,,
Raw,258997581,35751451000000,,,-1221709575996640256,0.0,54.33179467217997,-6.910107301560321,13.574887006249442,117,16,0.0,15,49313327535670,656,16.6,-49.872657775878906,2.5820000171661377,0,0.0,0.0,,,,,0,,5,,
Raw,258997582,35751451000000,,,-1221709575996640256,0.0,54.33179467217997,-6.910107301560321,13.574887006249442,117,21,0.0,1,532308,836,31.3,-521.7136840820312,72.59850311279297,0,0.0,0.0,,,,,0,,5,,
Raw,258997583,35751451000000,,,-1221709575996640256,0.0,54.33179467217997,-6.910107301560321,13.574887006249442,117,22,0.0,1,714383,809,28.8,-132.82411193847656,72.41850280761719,0,0.0,0.0,,,,,0,,5,,
Raw,258998597,35752451000000,,,-1221709575996640256,0.0,54.43584086606279,-5.067516759359056,13.462728840446974,117,14,0.0,207,60110373485544,173,12.6,-675.1632080078125,4.946000099182129,0,0.0,0.0,,,,,0,,3,,
Raw,258998598,35752451000000,,,-1221709575996640256,0.0,54.43584086606279,-5.067516759359056,13.462728840446974,117,2,0.0,207,60110382495074,35,22.4,111.30597686767578,0.9894999861717224,0,0.0,0.0,,,,,0,,3,,
Raw,258998598,35752451000000,,,-1221709575996640256,0.0,54.43584086606279,-5.067516759359056,13.462728840446974,117,13,0.0,207,60110383270152,1043,16.6,-131.2935028076172,5.616000175476074,0,0.0,0.0,,,,,0,,3,,
Raw,258998598,35752451000000,,,-1221709575996640256,0.0,54.43584086606279,-5.067516759359056,13.462728840446974,117,12,0.0,207,60110376896974,110,27.0,639.8661499023438,6.750500202178955,0,0.0,0.0,,,,,0,,3,,
Raw,258998599,35752451000000,,,-1221709575996640256,0.0,54.43584086606279,-5.067516759359056,13.462728840446974,117,1,0.0,207,60110368923812,53,19.9,646.0392456054688,1.2085000276565552,0,0.0,0.0,,,,,0,,3,,
Raw,258998599,35752451000000,,,-1221709575996640256,0.0,54.43584086606279,-5.067516759359056,13.462728840446974,117,3,0.0,207,60110379207950,91,16.1,-527.2293701171875,2.9850001335144043,0,0.0,0.0,,,,,0,,3,,
Raw,258998600,35752451000000,,,-1221709575996640256,0.0,54.43584086606279,-5.067516759359056,13.462728840446974,117,10,0.0,15,49328376688672,171,12.3,491.0528259277344,4.750500202178955,0,0.0,0.0,,,,,0,,1,,
Raw,258998600,35752451000000,,,-1221709575996640256,0.0,54.43584086606279,-5.067516759359056,13.462728840446974,117,14,0.0,15,49328376691287,35,22.5,-180.12246704101562,0.750499963760376,0,0.0,0.0,,,,,0,,1,,
Raw,258998600,35752451000000,,,-1221709575996640256,0.0,54.43584086606279,-5.067516759359056,13.462728840446974,117,18,0.0,15,49328367812563,1191,14.9,269.59857177734375,5.432000160217285,0,0.0,0.0,,,,,0,,1,,
Raw,258998601,35752451000000,,,-1221709575996640256,0.0,54.43584086606279,-5.067516759359056,13.462728840446974,117,20,0.0,15,49328369261296,84,16.2,692.0029296875,2.0199999809265137,0,0.0,0.0,,,,,0,,1,,
Raw,258998601,35752451000000,,,-1221709575996640256,0.0,54.43584086606279,-5.067516759359056,13.462728840446974,117,22,0.0,15,49328366218927,35,22.8,-587.484130859375,0.7354999780654907,0,0.0,0.0,,,,,0,,1,,
Raw,258998601,35752451000000,,,-1221709575996640256,0.0,54.43584086606279,-5.067516759359056,13.462728840446974,117,25,0.0,15,49328375022699,35,22.1,226.55413818359375,0.8089999556541443,0,0.0,0.0,,,,,0,,1,,
Raw,258998602,35752451000000,,,-1221709575996640256,0.0,54.43584086606279,-5.067516759359056,13.462728840446974,117,26,0.0,15,49328370150127,46,20.2,-684.6956787109375,0.9314999580383301,0,0.0,0.0,,,,,0,,1,,
Raw,258998602,35752451000000,,,-1221709575996640256,0.0,54.43584086606279,-5.067516759359056,13.462728840446974,117,31,0.0,15,49328379357134,31,23.1,-95.15635681152344,0.7549999952316284,0,0.0,0.0,,,,,0,,1,,
Raw,258998602,35752451000000,,,-1221709575996640256,0.0,54.43584086606279,-5.067516759359056,13.462728840446974,117,32,0.0,15,49328377735462,81,16.9,8.18262767791748,1.1920000314712524,0,0.0,0.0,,,,,0,,1,,
Raw,258998603,35752451000000,,,-1221709575996640256,0.0,54.43584086606279,-5.067516759359056,13.462728840446974,117,5,0.0,783,49314318440990,163,34.8,0.7585560083389282,8.418499946594238,0,0.0,0.0,,,,,0,,5,,
Raw,258998603,35752451000000,,,-1221709575996640256,0.0,54.43584086606279,-5.067516759359056,13.462728840446974,117,7,0.0,15,49314326245141,503,18.6,-134.25482177734375,3.180500030517578,0,0.0,0.0,,,,,0,,5,,
Raw,258998604,35752451000000,,,-1221709575996640256,0.0,54.43584086606279,-5.067516759359056,13.462728840446974,117,9,0.0,15,49314326751015,121,15.9,-89.8456802368164,4.130500316619873,0,0.0,0.0,,,,,0,,5,,
Raw,258998604,35752451000000,,,-1221709575996640256,0.0,54.43584086606279,-5.067516759359056,13.462728840446974,117,16,0.0,15,49314327535835,664,16.2,-50.055091857910156,3.3320000171661377,0,0.0,0.0,,,,,0,,5,,
Raw,258998604,35752451000000,,,-1221709575996640256,0.0,54.43584086606279,-5.067516759359056,13.462728840446974,117,21,0.0,1,534048,1100,31.3,-521.7136840820312,74.09850311279297,0,0.0,0.0,,,,,0,,5,,
Raw,258998605,35752451000000,,,-1221709575996640256,0.0,54.43584086606279,-5.067516759359056,13.462728840446974,117,22,0.0,1,714826,1072,28.8,-132.82411193847656,73.91850280761719,0,0.0,0.0,,,,,0,,5,,
Raw,258999579,35753451000000,,,-1221709575996640256,0.0,56.09214713331312,-3.5967671593806148,13.18645456055889,117,14,0.0,207,60111373487797,204,12.6,-675.1632080078125,6.446000099182129,0,0.0,0.0,,,,,0,,3,,
Raw,258999580,35753451000000,,,-1221709575996640256,0.0,56.09214713331312,-3.5967671593806148,13.18645456055889,117,2,0.0,207,60111382494768,31,23.4,111.99935150146484,0.9294999837875366,0,0.0,0.0,,,,,0,,3,,
Raw,258999580,35753451000000,,,-1221709575996640256,0.0,56.09214713331312,-3.5967671593806148,13.18645456055889,117,13,0.0,207,60111383270604,1213,15.6,-131.48077392578125,6.466000080108643,0,0.0,0.0,,,,,0,,3,,
Raw,258999581,35753451000000,,,-1221709575996640256,0.0,56.09214713331312,-3.5967671593806148,13.18645456055889,117,12,0.0,207,60111376894833,123,15.1,642.7396850585938,4.58050012588501,0,0.0,0.0,,,,,0,,3,,
Raw,258999581,35753451000000,,,-1221709575996640256,0.0,56.09214713331312,-3.5967671593806148,13.18645456055889,117,1,0.0,207,60111368921692,35,22.9,646.8717651367188,0.9984999895095825,0,0.0,0.0,,,,,0,,3,,
Raw,258999581,35753451000000,,,-1221709575996640256,0.0,56.09214713331312,-3.5967671593806148,13.18645456055889,117,3,0.0,207,60111379209708,111,16.1,-527.2293701171875,4.485000133514404,0,0.0,0.0,,,,,0,,3,,
Raw,258999582,35753451000000,,,-1221709575996640256,0.0,56.09214713331312,-3.5967671593806148,13.18645456055889,117,10,0.0,15,49329376687034,202,12.3,491.0528259277344,6.250500202178955,0,0.0,0.0,,,,,0,,1,,
Raw,258999584,35753451000000,,,-1221709575996640256,0.0,56.09214713331312,-3.5967671593806148,13.18645456055889,117,14,0.0,15,49329376691853,19,27.2,-179.04287719726562,0.06530000269412994,0,0.0,0.0,,,,,0,,1,,
Raw,258999584,35753451000000,,,-1221709575996640256,0.0,56.09214713331312,-3.5967671593806148,13.18645456055889,117,18,0.0,15,49329367811648,1208,14.7,269.5605163574219,6.182000160217285,0,0.0,0.0,,,,,0,,1,,
Raw,258999585,35753451000000,,,-1221709575996640256,0.0,56.09214713331312,-3.5967671593806148,13.18645456055889,117,20,0.0,15,49329369259057,61,18.9,691.1941528320312,1.0099999904632568,0,0.0,0.0,,,,,0,,1,,
Raw,258999585,35753451000000,,,-1221709575996640256,0.0,56.09214713331312,-3.5967671593806148,13.18645456055889,117,22,0.0,15,49329366220855,21,26.3,-586.7095947265625,0.12020000070333481,0,0.0,0.0,,,,,0,,1,,
Raw,258999586,35753451000000,,,-1221709575996640256,0.0,56.09214713331312,-3.5967671593806148,13.18645456055889,117,25,0.0,15,49329375021923,24,25.4,227.01686096191406,0.4043000042438507,0,0.0,0.0,,,,,0,,1,,
Raw,258999587,35753451000000,,,-1221709575996640256,0.0,56.09214713331312,-3.5967671593806148,13.18645456055889,117,26,0.0,15,49329370152445,31,23.9,-685.142822265625,0.6814999580383301,0,0.0,0.0,,,,,0,,1,,
Raw,258999587,35753451000000,,,-1221709575996640256,0.0,56.09214713331312,-3.5967671593806148,13.18645456055889,117,31,0.0,15,49329379357449,35,22.4,-94.16682434082031,0.8149999976158142,0,0.0,0.0,,,,,0,,1,,
Raw,258999588,35753451000000,,,-1221709575996640256,0.0,56.09214713331312,-3.5967671593806148,13.18645456055889,117,32,0.0,15,49329377735487,21,26.2,9.806918144226074,0.13670000433921814,0,0.0,0.0,,,,,0,,1,,
Raw,258999588,35753451000000,,,-1221709575996640256,0.0,56.09214713331312,-3.5967671593806148,13.18645456055889,117,5,0.0,783,49315318440988,223,34.8,0.7585560083389282,9.918500900268555,0,0.0,0.0,,,,,0,,5,,
Raw,259000566,35754451000000,,,-1221709575996640256,0.0,53.74555621528998,-1.9923695693298844,12.278441836758061,117,14,0.0,207,60112373490049,246,12.6,-675.1632080078125,7.946000576019287,0,0.0,0.0,,,,,0,,3,,
Raw,259000567,35754451000000,,,-1221709575996640256,0.0,53.74555621528998,-1.9923695693298844,12.278441836758061,117,2,0.0,207,60112382494342,24,25.0,112.026123046875,0.5848000049591064,0,0.0,0.0,,,,,0,,3,,
Raw,259000567,35754451000000,,,-1221709575996640256,0.0,53.74555621528998,-1.9923695693298844,12.278441836758061,117,13,0.0,207,60112383271025,1233,15.6,-131.22796630859375,7.216000556945801,0,0.0,0.0,,,,,0,,3,,
Raw,259000567,35754451000000,,,-1221709575996640256,0.0,53.74555621528998,-1.9923695693298844,12.278441836758061,117,12,0.0,207,60112376892621,53,19.1,643.9752197265625,1.220500111579895,0,0.0,0.0,,,,,0,,3,,
Raw,259000567,35754451000000,,,-1221709575996640256,0.0,53.74555621528998,-1.9923695693298844,12.278441836758061,117,1,0.0,207,60112368919506,46,20.7,646.8717651367188,1.128499984741211,0,0.0,0.0,,,,,0,,3,,
Raw,259000568,35754451000000,,,-1221709575996640256,0.0,53.74555621528998,-1.9923695693298844,12.278441836758061,117,3,0.0,207,60112379211150,80,17.0,-525.4173583984375,2.8949999809265137,0,0.0,0.0,,,,,0,,3,,
Raw,259000568,35754451000000,,,-1221709575996640256,0.0,53.74555621528998,-1.9923695693298844,12.278441836758061,117,10,0.0,15,49330376685396,243,12.3,491.0528259277344,7.750500202178955,0,0.0,0.0,,,,,0,,1,,
Raw,259000568,35754451000000,,,-1221709575996640256,0.0,53.74555621528998,-1.9923695693298844,12.278441836758061,117,14,0.0,15,49330376692455,24,25.6,-179.13250732421875,0.4058000147342682,0,0.0,0.0,,,,,0,,1,,
Raw,259000568,35754451000000,,,-1221709575996640256,0.0,53.74555621528998,-1.9923695693298844,12.278441836758061,117,18,0.0,15,49330367810725,1404,14.1,269.76031494140625,7.052000522613525,0,0.0,0.0,,,,,0,,1,,
Raw,259000569,35754451000000,,,-1221709575996640256,0.0,53.74555621528998,-1.9923695693298844,12.278441836758061,117,20,0.0,15,49330369256740,93,15.7,690.5567016601562,1.2699999809265137,0,0.0,0.0,,,,,0,,1,,
Raw,259000569,35754451000000,,,-1221709575996640256,0.0,53.74555621528998,-1.9923695693298844,12.278441836758061,117,22,0.0,15,49330366222809,24,25.4,-586.705810546875,0.39079999923706055,0,0.0,0.0,,,,,0,,1,,
Raw,259000569,35754451000000,,,-1221709575996640256,0.0,53.74555621528998,-1.9923695693298844,12.278441836758061,117,25,0.0,15,49330375021247,21,26.0,227.1150360107422,0.13369999825954437,0,0.0,0.0,,,,,0,,1,,
Raw,259000569,35754451000000,,,-1221709575996640256,0.0,53.74555621528998,-1.9923695693298844,12.278441836758061,117,26,0.0,15,49330370154796,46,20.4,-684.7717895507812,0.9314999580383301,0,0.0,0.0,,,,,0,,1,,
Raw,259000569,35754451000000,,,-1221709575996640256,0.0,53.74555621528998,-1.9923695693298844,12.278441836758061,117,31,0.0,15,49330379357785,27,24.6,-94.34760284423828,0.6450000405311584,0,0.0,0.0,,,,,0,,1,,
Raw,259000570,35754451000000,,,-1221709575996640256,0.0,53.74555621528998,-1.9923695693298844,12.278441836758061,117,32,0.0,15,49330377735420,16,29.1,9.821362495422363,0.05220000073313713,0,0.0,0.0,,,,,0,,1,,
Raw,259000570,35754451000000,,,-1221709575996640256,0.0,53.74555621528998,-1.9923695693298844,12.278441836758061,117,5,0.0,783,49316318440985,294,34.8,0.7585560083389282,11.418500900268555,0,0.0,0.0,,,,,0,,5,,
Raw,259000570,35754451000000,,,-1221709575996640256,0.0,53.74555621528998,-1.9923695693298844,12.278441836758061,117,7,0.0,15,49316326246039,602,17.5,-134.21640014648438,4.750500202178955,0,0.0,0.0,,,,,0,,5,,
Raw,259000571,35754451000000,,,-1221709575996640256,0.0,53.74555621528998,-1.9923695693298844,12.278441836758061,117,9,0.0,15,49316326751615,189,15.9,-89.8456802368164,7.130500316619873,0,0.0,0.0,,,,,0,,5,,
Raw,259000571,35754451000000,,,-1221709575996640256,0.0,53.74555621528998,-1.9923695693298844,12.278441836758061,117,16,0.0,15,49316327536178,92,19.3,-49.133304595947266,4.622000217437744,0,0.0,0.0,,,,,0,,5,,
Raw,259000571,35754451000000,,,-1221709575996640256,0.0,53.74555621528998,-1.9923695693298844,12.278441836758061,117,21,0.0,3,5537970,16,29.2,-542.0122680664062,0.5059999823570251,0,0.0,0.0,,,,,0,,5,,
Raw,259000571,35754451000000,,,-1221709575996640256,0.0,53.74555621528998,-1.9923695693298844,12.278441836758061,117,22,0.0,1,715712,1628,28.8,-132.82411193847656,76.91850280761719,0,0.0,0.0,,,,,0,,5,,
Raw,259001592,35755451000000,,,-1221709575996640256,0.0,50.75064837001264,-2.005835627207288,11.880260068550507,117,14,0.0,207,60113373492463,133,13.4,-673.249755859375,3.31600022315979,0,0.0,0.0,,,,,0,,3,,
Raw,259001593,35755451000000,,,-1221709575996640256,0.0,50.75064837001264,-2.005835627207288,11.880260068550507,117,2,0.0,207,60113382493990,21,26.1,111.5573501586914,0.3141999840736389,0,0.0,0.0,,,,,0,,3,,
Raw,259001593,35755451000000,,,-1221709575996640256,0.0,50.75064837001264,-2.005835627207288,11.880260068550507,117,13,0.0,207,60113383271449,1432,14.9,-131.0406951904297,8.086000442504883,0,0.0,0.0,,,,,0,,3,,
Raw,259001593,35755451000000,,,-1221709575996640256,0.0,50.75064837001264,-2.005835627207288,11.880260068550507,117,12,0.0,207,60113376890580,35,22.3,643.1515502929688,1.0104999542236328,0,0.0,0.0,,,,,0,,3,,
Raw,259001594,35755451000000,,,-1221709575996640256,0.0,50.75064837001264,-2.005835627207288,11.880260068550507,117,1,0.0,207,60113368917442,35,22.9,645.7305908203125,0.9984999895095825,0,0.0,0.0,,,,,0,,3,,
Raw,259001594,35755451000000,,,-1221709575996640256,0.0,50.75064837001264,-2.005835627207288,11.880260068550507,117,3,0.0,207,60113379212870,27,24.1,-525.4827270507812,0.8949999809265137,0,0.0,0.0,,,,,0,,3,,
Raw,259001594,35755451000000,,,-1221709575996640256,0.0,50.75064837001264,-2.005835627207288,11.880260068550507,117,10,0.0,15,49331376683742,116,14.6,490.4533996582031,2.880500078201294,0,0.0,0.0,,,,,0,,1,,
Raw,259001595,35755451000000,,,-1221709575996640256,0.0,50.75064837001264,-2.005835627207288,11.880260068550507,117,14,0.0,15,49331376693091,21,26.5,-179.61529541015625,0.13520000874996185,0,0.0,0.0,,,,,0,,1,,
Raw,259001595,35755451000000,,,-1221709575996640256,0.0,50.75064837001264,-2.005835627207288,11.880260068550507,117,18,0.0,15,49331367809835,1426,13.5,269.8554382324219,7.802000522613525,0,0.0,0.0,,,,,0,,1,,
Raw,259001595,35755451000000,,,-1221709575996640256,0.0,50.75064837001264,-2.005835627207288,11.880260068550507,117,20,0.0,15,49331369254688,80,16.5,691.5557861328125,1.1799999475479126,0,0.0,0.0,,,,,0,,1,,
Raw,259001596,35755451000000,,,-1221709575996640256,0.0,50.75064837001264,-2.005835627207288,11.880260068550507,117,22,0.0,15,49331366224774,19,27.0,-587.2816162109375,0.050300002098083496,0,0.0,0.0,,,,,0,,1,,
Raw,259001596,35755451000000,,,-1221709575996640256,0.0,50.75064837001264,-2.005835627207288,11.880260068550507,117,25,0.0,15,49331375020456,21,26.6,226.6459197998047,0.13369999825954437,0,0.0,0.0,,,,,0,,1,,
Raw,259001596,35755451000000,,,-1221709575996640256,0.0,50.75064837001264,-2.005835627207288,11.880260068550507,117,26,0.0,15,49331370157046,93,15.4,-685.0096435546875,1.371500015258789,0,0.0,0.0,,,,,0,,1,,
Raw,259001597,35755451000000,,,-1221709575996640256,0.0,50.75064837001264,-2.005835627207288,11.880260068550507,117,31,0.0,15,49331379358069,24,25.0,-95.17121124267578,0.41030001640319824,0,0.0,0.0,,,,,0,,1,,
Raw,259001597,35755451000000,,,-1221709575996640256,0.0,50.75064837001264,-2.005835627207288,11.880260068550507,117,32,0.0,15,49331377735396,13,31.6,9.281325340270996,0.050700001418590546,0,0.0,0.0,,,,,0,,1,,
Raw,259001597,35755451000000,,,-1221709575996640256,0.0,50.75064837001264,-2.005835627207288,11.880260068550507,117,5,0.0,783,49317318440982,374,34.8,0.7585560083389282,12.918500900268555,0,0.0,0.0,,,,,0,,5,,
Raw,259001598,35755451000000,,,-1221709575996640256,0.0,50.75064837001264,-2.005835627207288,11.880260068550507,117,7,0.0,15,49317326246492,617,17.6,-134.322021484375,5.500500202178955,0,0.0,0.0,,,,,0,,5,,
Raw,259001598,35755451000000,,,-1221709575996640256,0.0,50.75064837001264,-2.005835627207288,11.880260068550507,117,9,0.0,15,49317326751985,97,16.6,-89.3655776977539,3.255500078201294,0,0.0,0.0,,,,,0,,5,,
Raw,259001598,35755451000000,,,-1221709575996640256,0.0,50.75064837001264,-2.005835627207288,11.880260068550507,117,16,0.0,15,49317327536348,27,24.7,-49.584598541259766,0.5130000114440918,0,0.0,0.0,,,,,0,,5,,
Raw,259001599,35755451000000,,,-1221709575996640256,0.0,50.75064837001264,-2.005835627207288,11.880260068550507,117,21,0.0,3,5539784,16,29.4,-542.5294189453125,0.03420000150799751,0,0.0,0.0,,,,,0,,5,,
Raw,259001599,35755451000000,,,-1221709575996640256,0.0,50.75064837001264,-2.005835627207288,11.880260068550507,117,22,0.0,1,715945,35,26.1,-132.80490112304688,67.59149932861328,0,0.0,0.0,,,,,0,,5,,
Raw,259002599,35756451000000,,,-1221709575996640256,0.0,47.781642933841795,-3.819162097462337,13.621312200086816,117,14,0.0,207,60114373494647,61,18.0,-674.3190307617188,1.2960000038146973,0,0.0,0.0,,,,,0,,3,,
Raw,259002600,35756451000000,,,-1221709575996640256,0.0,47.781642933841795,-3.819162097462337,13.621312200086816,117,2,0.0,207,60114382493640,21,26.2,111.51669311523438,0.3141999840736389,0,0.0,0.0,,,,,0,,3,,
Raw,259002600,35756451000000,,,-1221709575996640256,0.0,47.781642933841795,-3.819162097462337,13.621312200086816,117,13,0.0,207,60114383271857,1457,14.9,-130.82534790039062,8.836000442504883,0,0.0,0.0,,,,,0,,3,,
Raw,259002600,35756451000000,,,-1221709575996640256,0.0,47.781642933841795,-3.819162097462337,13.621312200086816,117,12,0.0,207,60114376888434,46,20.1,642.58056640625,1.1405000686645508,0,0.0,0.0,,,,,0,,3,,
Raw,259002601,35756451000000,,,-1221709575996640256,0.0,47.781642933841795,-3.819162097462337,13.621312200086816,117,1,0.0,207,60114368915242,24,25.6,645.7496948242188,0.5938000082969666,0,0.0,0.0,,,,,0,,3,,
Raw,259002601,35756451000000,,,-1221709575996640256,0.0,47.781642933841795,-3.819162097462337,13.621312200086816,117,3,0.0,207,60114379214693,46,20.1,-525.7722778320312,1.1449999809265137,0,0.0,0.0,,,,,0,,3,,
Raw,259002601,35756451000000,,,-1221709575996640256,0.0,47.781642933841795,-3.819162097462337,13.621312200086816,117,10,0.0,15,49332376682044,61,18.7,490.3011779785156,1.0205000638961792,0,0.0,0.0,,,,,0,,1,,
Raw,259002602,35756451000000,,,-1221709575996640256,0.0,47.781642933841795,-3.819162097462337,13.621312200086816,117,14,0.0,15,49332376693683,21,26.8,-179.8060760498047,0.13520000874996185,0,0.0,0.0,,,,,0,,1,,
Raw,259002602,35756451000000,,,-1221709575996640256,0.0,47.781642933841795,-3.819162097462337,13.621312200086816,117,18,0.0,15,49332367808939,1654,13.3,270.1599426269531,8.67199993133545,0,0.0,0.0,,,,,0,,1,,
Raw,259002602,35756451000000,,,-1221709575996640256,0.0,47.781642933841795,-3.819162097462337,13.621312200086816,117,20,0.0,15,49332369252389,61,18.6,691.7269897460938,1.0099999904632568,0,0.0,0.0,,,,,0,,1,,
Raw,259002603,35756451000000,,,-1221709575996640256,0.0,47.781642933841795,-3.819162097462337,13.621312200086816,117,22,0.0,15,49332366226723,27,24.8,-587.4556274414062,0.6255000233650208,0,0.0,0.0,,,,,0,,1,,
Raw,259002603,35756451000000,,,-1221709575996640256,0.0,47.781642933841795,-3.819162097462337,13.621312200086816,117,25,0.0,15,49332375019693,27,24.9,226.7444305419922,0.6389999985694885,0,0.0,0.0,,,,,0,,1,,
Raw,259002603,35756451000000,,,-1221709575996640256,0.0,47.781642933841795,-3.819162097462337,13.621312200086816,117,26,0.0,15,49332370159192,70,17.2,-685.7803344726562,1.18149995803833,0,0.0,0.0,,,,,0,,1,,
Raw,259002604,35756451000000,,,-1221709575996640256,0.0,47.781642933841795,-3.819162097462337,13.621312200086816,117,31,0.0,15,49332379358385,31,23.1,-95.38470458984375,0.7549999952316284,0,0.0,0.0,,,,,0,,1,,
Raw,259002604,35756451000000,,,-1221709575996640256,0.0,47.781642933841795,-3.819162097462337,13.621312200086816,117,32,0.0,15,49332377735358,16,29.4,9.126164436340332,0.05220000073313713,0,0.0,0.0,,,,,0,,1,,
Raw,259002605,35756451000000,,,-1221709575996640256,0.0,47.781642933841795,-3.819162097462337,13.621312200086816,117,1,0.0,783,49318320667487,561,18.1,-11.676000595092773,6.198500156402588,0,0.0,0.0,,,,,0,,5,,
Raw,259002605,35756451000000,,,-1221709575996640256,0.0,47.781642933841795,-3.819162097462337,13.621312200086816,117,5,0.0,783,49318318440980,465,34.8,0.7585560083389282,14.418500900268555,0,0.0,0.0,,,,,0,,5,,
Raw,259002606,35756451000000,,,-1221709575996640256,0.0,47.781642933841795,-3.819162097462337,13.621312200086816,117,7,0.0,15,49318326246947,635,17.6,-134.21640014648438,6.250500202178955,0,0.0,0.0,,,,,0,,5,,
Raw,259002606,35756451000000,,,-1221709575996640256,0.0,47.781642933841795,-3.819162097462337,13.621312200086816,117,9,0.0,15,49318326752288,46,20.4,-90.16253662109375,0.7354999780654907,0,0.0,0.0,,,,,0,,5,,
Raw,259002606,35756451000000,,,-1221709575996640256,0.0,47.781642933841795,-3.819162097462337,13.621312200086816,117,16,0.0,15,49318327536531,27,24.2,-49.536590576171875,0.5370000004768372,0,0.0,0.0,,,,,0,,5,,
Raw,259002607,35756451000000,,,-1221709575996640256,0.0,47.781642933841795,-3.819162097462337,13.621312200086816,117,21,0.0,3,5541595,24,25.9,-542.6826171875,0.38929998874664307,0,0.0,0.0,,,,,0,,5,,
Raw,259002607,35756451000000,,,-1221709575996640256,0.0,47.781642933841795,-3.819162097462337,13.621312200086816,117,22,0.0,3,15716364,24,25.0,-123.88972473144531,0.37130001187324524,0,0.0,0.0,,,,,0,,5,,
Raw,259003600,35757451000000,,,-1221709575996640256,0.0,45.68077201838605,-4.3293572907350955,12.275745046428087,117,14,0.0,207,60115373496896,70,18.0,-674.3190307617188,2.7960000038146973,0,0.0,0.0,,,,,0,,3,,
Raw,259003600,35757451000000,,,-1221709575996640256,0.0,45.68077201838605,-4.3293572907350955,12.275745046428087,117,2,0.0,207,60115382493260,53,19.9,111.09983825683594,1.1995000839233398,0,0.0,0.0,,,,,0,,3,,
Raw,259003600,35757451000000,,,-1221709575996640256,0.0,45.68077201838605,-4.3293572907350955,12.275745046428087,117,13,0.0,207,60115383272288,1485,14.1,-130.64743041992188,9.586000442504883,0,0.0,0.0,,,,,0,,3,,
Raw,259003601,35757451000000,,,-1221709575996640256,0.0,45.68077201838605,-4.3293572907350955,12.275745046428087,117,12,0.0,207,60115376886290,55,20.1,642.58056640625,2.640500068664551,0,0.0,0.0,,,,,0,,3,,
Raw,259003601,35757451000000,,,-1221709575996640256,0.0,45.68077201838605,-4.3293572907350955,12.275745046428087,117,1,0.0,207,60115368913088,19,27.7,646.3970947265625,0.2533000111579895,0,0.0,0.0,,,,,0,,3,,
Raw,259003601,35757451000000,,,-1221709575996640256,0.0,45.68077201838605,-4.3293572907350955,12.275745046428087,117,3,0.0,207,60115379216384,61,18.0,-524.5673828125,1.3049999475479126,0,0.0,0.0,,,,,0,,3,,
Raw,259003602,35757451000000,,,-1221709575996640256,0.0,45.68077201838605,-4.3293572907350955,12.275745046428087,117,10,0.0,15,49333376680502,27,24.2,491.547607421875,0.6904999613761902,0,0.0,0.0,,,,,0,,1,,
Raw,259003602,35757451000000,,,-1221709575996640256,0.0,45.68077201838605,-4.3293572907350955,12.275745046428087,117,14,0.0,15,49333376694252,40,21.6,-178.7428436279297,0.8104999661445618,0,0.0,0.0,,,,,0,,1,,
Raw,259003602,35757451000000,,,-1221709575996640256,0.0,45.68077201838605,-4.3293572907350955,12.275745046428087,117,18,0.0,15,49333367808019,1681,13.2,270.5690612792969,9.422000885009766,0,0.0,0.0,,,,,0,,1,,
Raw,259003603,35757451000000,,,-1221709575996640256,0.0,45.68077201838605,-4.3293572907350955,12.275745046428087,117,20,0.0,15,49333369250047,31,23.4,692.1266479492188,0.7400000095367432,0,0.0,0.0,,,,,0,,1,,
Raw,259003603,35757451000000,,,-1221709575996640256,0.0,45.68077201838605,-4.3293572907350955,12.275745046428087,117,22,0.0,15,49333366228664,61,18.6,-586.6753540039062,1.005500078201294,0,0.0,0.0,,,,,0,,1,,
Raw,259003603,35757451000000,,,-1221709575996640256,0.0,45.68077201838605,-4.3293572907350955,12.275745046428087,117,25,0.0,15,49333375018870,70,17.1,227.78152465820312,1.1890000104904175,0,0.0,0.0,,,,,0,,1,,
Raw,259003604,35757451000000,,,-1221709575996640256,0.0,45.68077201838605,-4.3293572907350955,12.275745046428087,117,26,0.0,15,49333370161523,46,20.5,-685.17138671875,0.8614999651908875,0,0.0,0.0,,,,,0,,1,,
Raw,259003604,35757451000000,,,-1221709575996640256,0.0,45.68077201838605,-4.3293572907350955,12.275745046428087,117,31,0.0,15,49333379358669,70,17.7,-94.22390747070312,1.1049998998641968,0,0.0,0.0,,,,,0,,1,,
Raw,259003604,35757451000000,,,-1221709575996640256,0.0,45.68077201838605,-4.3293572907350955,12.275745046428087,117,32,0.0,15,49333377735360,35,22.0,9.600316047668457,0.8119999766349792,0,0.0,0.0,,,,,0,,1,,
Raw,259003605,35757451000000,,,-1221709575996640256,0.0,45.68077201838605,-4.3293572907350955,12.275745046428087,117,1,0.0,783,49319320667495,581,18.9,-9.093070030212402,6.948500156402588,0,0.0,0.0,,,,,0,,5,,
Raw,259003605,35757451000000,,,-1221709575996640256,0.0,45.68077201838605,-4.3293572907350955,12.275745046428087,117,5,0.0,783,49319318440977,565,34.8,0.7585560083389282,15.918500900268555,0,0.0,0.0,,,,,0,,5,,
Raw,259003605,35757451000000,,,-1221709575996640256,0.0,45.68077201838605,-4.3293572907350955,12.275745046428087,117,7,0.0,15,49319326247402,656,17.2,-134.235595703125,7.000500202178955,0,0.0,0.0,,,,,0,,5,,
Raw,259003606,35757451000000,,,-1221709575996640256,0.0,45.68077201838605,-4.3293572907350955,12.275745046428087,117,9,0.0,15,49319326752537,70,17.7,-89.50000762939453,0.9254999756813049,0,0.0,0.0,,,,,0,,5,,
Raw,259003606,35757451000000,,,-1221709575996640256,0.0,45.68077201838605,-4.3293572907350955,12.275745046428087,117,16,0.0,15,49319327536696,34,24.2,-49.536590576171875,2.0370001792907715,0,0.0,0.0,,,,,0,,5,,
Raw,259003606,35757451000000,,,-1221709575996640256,0.0,45.68077201838605,-4.3293572907350955,12.275745046428087,117,21,0.0,3,5543360,35,22.1,-541.6473999023438,0.6240000128746033,0,0.0,0.0,,,,,0,,5,,
Raw,259003607,35757451000000,,,-1221709575996640256,0.0,45.68077201838605,-4.3293572907350955,12.275745046428087,117,22,0.0,3,15716818,70,17.2,-123.75025177001953,0.9389999508857727,0,0.0,0.0,,,,,0,,5,,
Raw,259004595,35758451000000,,,-1221709575996640256,0.0,48.19760943064466,-2.3246436030612814,13.469924522813711,117,14,0.0,207,60116373499212,64,18.6,-674.25341796875,2.0460000038146973,0,0.0,0.0,,,,,0,,3,,
Raw,259004596,35758451000000,,,-1221709575996640256,0.0,48.19760943064466,-2.3246436030612814,13.469924522813711,117,2,0.0,207,60116382492866,80,16.6,110.88432312011719,1.4595000743865967,0,0.0,0.0,,,,,0,,3,,
Raw,259004597,35758451000000,,,-1221709575996640256,0.0,48.19760943064466,-2.3246436030612814,13.469924522813711,117,13,0.0,207,60116383272748,306,14.1,-130.48825073242188,10.336000442504883,0,0.0,0.0,,,,,0,,3,,
Raw,259004597,35758451000000,,,-1221709575996640256,0.0,48.19760943064466,-2.3246436030612814,13.469924522813711,117,12,0.0,207,60116376884147,74,20.1,642.58056640625,4.140500068664551,0,0.0,0.0,,,,,0,,3,,
Raw,259004598,35758451000000,,,-1221709575996640256,0.0,48.19760943064466,-2.3246436030612814,13.469924522813711,117,1,0.0,207,60116368911005,16,29.7,646.8514404296875,0.2387000024318695,0,0.0,0.0,,,,,0,,3,,
Raw,259004598,35758451000000,,,-1221709575996640256,0.0,48.19760943064466,-2.3246436030612814,13.469924522813711,117,3,0.0,207,60116379218134,70,18.0,-524.5673828125,2.805000066757202,0,0.0,0.0,,,,,0,,3,,
Raw,259004599,35758451000000,,,-1221709575996640256,0.0,48.19760943064466,-2.3246436030612814,13.469924522813711,117,1,0.0,15,49334365778035,423,22.1,12.188309669494629,1.093999981880188,0,0.0,0.0,,,,,0,,1,,
Raw,259004599,35758451000000,,,-1221709575996640256,0.0,48.19760943064466,-2.3246436030612814,13.469924522813711,117,10,0.0,15,49334376678858,19,27.5,491.87530517578125,0.06530000269412994,0,0.0,0.0,,,,,0,,1,,
Raw,259004600,35758451000000,,,-1221709575996640256,0.0,48.19760943064466,-2.3246436030612814,13.469924522813711,117,14,0.0,15,49334376694766,53,19.3,-179.5991668701172,1.0205000638961792,0,0.0,0.0,,,,,0,,1,,
Raw,259004600,35758451000000,,,-1221709575996640256,0.0,48.19760943064466,-2.3246436030612814,13.469924522813711,117,18,0.0,15,49334367807141,316,13.1,270.62615966796875,10.172000885009766,0,0.0,0.0,,,,,0,,1,,
Raw,259004601,35758451000000,,,-1221709575996640256,0.0,48.19760943064466,-2.3246436030612814,13.469924522813711,117,20,0.0,15,49334369247705,21,26.4,692.2030029296875,0.12470000237226486,0,0.0,0.0,,,,,0,,1,,
Raw,259004602,35758451000000,,,-1221709575996640256,0.0,48.19760943064466,-2.3246436030612814,13.469924522813711,117,22,0.0,15,49334366230621,69,18.6,-586.6753540039062,2.505500078201294,0,0.0,0.0,,,,,0,,1,,
Raw,259004602,35758451000000,,,-1221709575996640256,0.0,48.19760943064466,-2.3246436030612814,13.469924522813711,117,25,0.0,15,49334375018111,79,17.1,227.78152465820312,2.689000129699707,0,0.0,0.0,,,,,0,,1,,
Raw,259004603,35758451000000,,,-1221709575996640256,0.0,48.19760943064466,-2.3246436030612814,13.469924522813711,117,26,0.0,15,49334370164019,40,21.7,-684.6766357421875,0.8014999628067017,0,0.0,0.0,,,,,0,,1,,
Raw,259004603,35758451000000,,,-1221709575996640256,0.0,48.19760943064466,-2.3246436030612814,13.469924522813711,117,31,0.0,15,49334379358983,79,17.7,-94.22390747070312,2.6050000190734863,0,0.0,0.0,,,,,0,,1,,
Raw,259004607,35758451000000,,,-1221709575996640256,0.0,48.19760943064466,-2.3246436030612814,13.469924522813711,117,32,0.0,15,49334377735315,70,17.2,10.827710151672363,1.1920000314712524,0,0.0,0.0,,,,,0,,1,,
Raw,259004607,35758451000000,,,-1221709575996640256,0.0,48.19760943064466,-2.3246436030612814,13.469924522813711,117,1,0.0,783,49320320667462,604,18.7,-5.549941062927246,7.698500156402588,0,0.0,0.0,,,,,0,,5,,
Raw,259004608,35758451000000,,,-1221709575996640256,0.0,48.19760943064466,-2.3246436030612814,13.469924522813711,117,5,0.0,783,49320318440975,676,34.8,0.7585560083389282,17.418500900268555,0,0.0,0.0,,,,,0,,5,,
Raw,259004609,35758451000000,,,-1221709575996640256,0.0,48.19760943064466,-2.3246436030612814,13.469924522813711,117,7,0.0,15,49320326247847,679,17.4,-134.0243682861328,7.750500202178955,0,0.0,0.0,,,,,0,,5,,
Raw,259004610,35758451000000,,,-1221709575996640256,0.0,48.19760943064466,-2.3246436030612814,13.469924522813711,117,9,0.0,15,49320326752805,46,20.5,-89.72085571289062,0.7354999780654907,0,0.0,0.0,,,,,0,,5,,
Raw,259004610,35758451000000,,,-1221709575996640256,0.0,48.19760943064466,-2.3246436030612814,13.469924522813711,117,16,0.0,15,49320327536843,83,16.7,-48.34593963623047,1.7570000886917114,0,0.0,0.0,,,,,0,,5,,
Raw,259004611,35758451000000,,,-1221709575996640256,0.0,48.19760943064466,-2.3246436030612814,13.469924522813711,117,21,0.0,3,5545164,46,20.2,-540.86962890625,0.7339999675750732,0,0.0,0.0,,,,,0,,5,,
Raw,259004612,35758451000000,,,-1221709575996640256,0.0,48.19760943064466,-2.3246436030612814,13.469924522813711,117,22,0.0,3,15717230,78,17.2,-123.75025177001953,2.439000129699707,0,0.0,0.0,,,,,0,,5,,
Raw,259006512,35759451000000,,,-1221709575996640256,0.0,44.2993150500115,-2.37979797556553,12.392328143341134,117,14,0.0,207,60117373501458,24,25.4,-673.8880004882812,0.6013000011444092,0,0.0,0.0,,,,,0,,3,,
Raw,259006513,35759451000000,,,-1221709575996640256,0.0,44.2993150500115,-2.37979797556553,12.392328143341134,117,2,0.0,207,60117382492561,46,20.6,111.92439270019531,1.1195000410079956,0,0.0,0.0,,,,,0,,3,,
Raw,259006513,35759451000000,,,-1221709575996640256,0.0,44.2993150500115,-2.37979797556553,12.392328143341134,117,13,0.0,207,60117383273183,374,14.1,-130.48825073242188,11.836000442504883,0,0.0,0.0,,,,,0,,3,,
Raw,259006513,35759451000000,,,-1221709575996640256,0.0,44.2993150500115,-2.37979797556553,12.392328143341134,117,12,0.0,207,60117376881836,117,14.3,643.5820922851562,3.200500249862671,0,0.0,0.0,,,,,0,,3,,
Raw,259006514,35759451000000,,,-1221709575996640256,0.0,44.2993150500115,-2.37979797556553,12.392328143341134,117,1,0.0,207,60117368908873,17,28.4,646.7493286132812,0.24530000984668732,0,0.0,0.0,,,,,0,,3,,
Raw,259006514,35759451000000,,,-1221709575996640256,0.0,44.2993150500115,-2.37979797556553,12.392328143341134,117,3,0.0,207,60117379219756,97,15.7,-525.00634765625,2.3350000381469727,0,0.0,0.0,,,,,0,,3,,
Raw,259006514,35759451000000,,,-1221709575996640256,0.0,44.2993150500115,-2.37979797556553,12.392328143341134,117,1,0.0,15,49335365778003,32,23.4,10.72304916381836,1.121000051498413,0,0.0,0.0,,,,,0,,1,,
Raw,259006515,35759451000000,,,-1221709575996640256,0.0,44.2993150500115,-2.37979797556553,12.392328143341134,117,10,0.0,15,49335376677233,17,28.3,491.7985534667969,0.05730000138282776,0,0.0,0.0,,,,,0,,1,,
Raw,259006515,35759451000000,,,-1221709575996640256,0.0,44.2993150500115,-2.37979797556553,12.392328143341134,117,14,0.0,15,49335376695365,61,19.3,-179.5991668701172,2.5205001831054688,0,0.0,0.0,,,,,0,,1,,
Raw,259006515,35759451000000,,,-1221709575996640256,0.0,44.2993150500115,-2.37979797556553,12.392328143341134,117,18,0.0,15,49335367806238,384,13.1,270.62615966796875,11.672000885009766,0,0.0,0.0,,,,,0,,1,,
Raw,259006516,35759451000000,,,-1221709575996640256,0.0,44.2993150500115,-2.37979797556553,12.392328143341134,117,20,0.0,15,49335369245441,21,26.1,692.06494140625,0.12470000237226486,0,0.0,0.0,,,,,0,,1,,
Raw,259006516,35759451000000,,,-1221709575996640256,0.0,44.2993150500115,-2.37979797556553,12.392328143341134,117,25,0.0,15,49335375017335,110,14.9,228.0003662109375,2.129000186920166,0,0.0,0.0,,,,,0,,1,,
Raw,259006516,35759451000000,,,-1221709575996640256,0.0,44.2993150500115,-2.37979797556553,12.392328143341134,117,26,0.0,15,49335370166307,24,25.7,-684.7062377929688,0.3968000113964081,0,0.0,0.0,,,,,0,,1,,
Raw,259006517,35759451000000,,,-1221709575996640256,0.0,44.2993150500115,-2.37979797556553,12.392328143341134,117,31,0.0,15,49335379359298,98,17.7,-94.22390747070312,4.105000019073486,0,0.0,0.0,,,,,0,,1,,
Raw,259006517,35759451000000,,,-1221709575996640256,0.0,44.2993150500115,-2.37979797556553,12.392328143341134,117,32,0.0,15,49335377735310,46,20.4,10.428092956542969,0.9419999718666077,0,0.0,0.0,,,,,0,,1,,
Raw,259006517,35759451000000,,,-1221709575996640256,0.0,44.2993150500115,-2.37979797556553,12.392328143341134,117,5,0.0,783,49321318440972,796,34.8,0.7585560083389282,18.918500900268555,0,0.0,0.0,,,,,0,,5,,
Raw,259006543,35760451000000,,,-1221709575996640256,0.0,43.848896893905476,-3.3477323704943247,12.541131959870482,117,14,0.0,207,60118373503725,19,27.0,-676.3539428710938,0.26080000400543213,0,0.0,0.0,,,,,0,,3,,
Raw,259006544,35760451000000,,,-1221709575996640256,0.0,43.848896893905476,-3.3477323704943247,12.541131959870482,117,2,0.0,207,60118382491964,53,19.6,109.83489227294922,1.1995000839233398,0,0.0,0.0,,,,,0,,3,,
Raw,259006544,35760451000000,,,-1221709575996640256,0.0,43.848896893905476,-3.3477323704943247,12.541131959870482,117,13,0.0,207,60118383273618,452,14.1,-130.48825073242188,13.336000442504883,0,0.0,0.0,,,,,0,,3,,
Raw,259006544,35760451000000,,,-1221709575996640256,0.0,43.848896893905476,-3.3477323704943247,12.541131959870482,117,12,0.0,207,60118376879689,138,14.3,643.5820922851562,4.700500011444092,0,0.0,0.0,,,,,0,,3,,
Raw,259006544,35760451000000,,,-1221709575996640256,0.0,43.848896893905476,-3.3477323704943247,12.541131959870482,117,1,0.0,207,60118368906621,24,25.9,644.233642578125,0.5938000082969666,0,0.0,0.0,,,,,0,,3,,
Raw,259006545,35760451000000,,,-1221709575996640256,0.0,43.848896893905476,-3.3477323704943247,12.541131959870482,117,3,0.0,207,60118379221507,112,15.7,-525.00634765625,3.8350002765655518,0,0.0,0.0,,,,,0,,3,,
Raw,259006545,35760451000000,,,-1221709575996640256,0.0,43.848896893905476,-3.3477323704943247,12.541131959870482,117,1,0.0,15,49336365777956,27,24.2,9.75255012512207,0.6739999651908875,0,0.0,0.0,,,,,0,,1,,
Raw,259006545,35760451000000,,,-1221709575996640256,0.0,43.848896893905476,-3.3477323704943247,12.541131959870482,117,10,0.0,15,49336376675593,19,27.1,489.321533203125,0.06530000269412994,0,0.0,0.0,,,,,0,,1,,
Raw,259006545,35760451000000,,,-1221709575996640256,0.0,43.848896893905476,-3.3477323704943247,12.541131959870482,117,14,0.0,15,49336376695940,96,15.7,-181.1024932861328,2.0304999351501465,0,0.0,0.0,,,,,0,,1,,
Raw,259006546,35760451000000,,,-1221709575996640256,0.0,43.848896893905476,-3.3477323704943247,12.541131959870482,117,18,0.0,15,49336367805290,97,15.1,271.5871276855469,2.252000093460083,0,0.0,0.0,,,,,0,,1,,
Raw,259006546,35760451000000,,,-1221709575996640256,0.0,43.848896893905476,-3.3477323704943247,12.541131959870482,117,20,0.0,15,49336369243103,27,24.0,689.8336181640625,0.6800000071525574,0,0.0,0.0,,,,,0,,1,,
Raw,259006546,35760451000000,,,-1221709575996640256,0.0,43.848896893905476,-3.3477323704943247,12.541131959870482,117,25,0.0,15,49336375016507,81,16.8,224.080322265625,1.1890000104904175,0,0.0,0.0,,,,,0,,1,,
Raw,259006546,35760451000000,,,-1221709575996640256,0.0,43.848896893905476,-3.3477323704943247,12.541131959870482,117,26,0.0,15,49336370168656,24,25.5,-687.2557373046875,0.3968000113964081,0,0.0,0.0,,,,,0,,1,,
Raw,259006547,35760451000000,,,-1221709575996640256,0.0,43.848896893905476,-3.3477323704943247,12.541131959870482,117,31,0.0,15,49336379359630,90,16.1,-96.10781860351562,2.7850000858306885,0,0.0,0.0,,,,,0,,1,,
Raw,259006547,35760451000000,,,-1221709575996640256,0.0,43.848896893905476,-3.3477323704943247,12.541131959870482,117,32,0.0,15,49336377735333,46,20.6,8.020878791809082,0.871999979019165,0,0.0,0.0,,,,,0,,1,,
Raw,259006547,35760451000000,,,-1221709575996640256,0.0,43.848896893905476,-3.3477323704943247,12.541131959870482,117,1,0.0,783,49322320667540,232,18.2,-7.739191055297852,9.198500633239746,0,0.0,0.0,,,,,0,,5,,
Raw,259006547,35760451000000,,,-1221709575996640256,0.0,43.848896893905476,-3.3477323704943247,12.541131959870482,117,5,0.0,783,49322318440970,926,34.8,0.7585560083389282,20.418500900268555,0,0.0,0.0,,,,,0,,5,,
Raw,259006548,35760451000000,,,-1221709575996640256,0.0,43.848896893905476,-3.3477323704943247,12.541131959870482,117,7,0.0,15,49322326248739,242,17.6,-133.95713806152344,9.250500679016113,0,0.0,0.0,,,,,0,,5,,
Raw,259006548,35760451000000,,,-1221709575996640256,0.0,43.848896893905476,-3.3477323704943247,12.541131959870482,117,9,0.0,15,49322326753404,71,20.5,-89.72085571289062,3.7355000972747803,0,0.0,0.0,,,,,0,,5,,
Raw,259006548,35760451000000,,,-1221709575996640256,0.0,43.848896893905476,-3.3477323704943247,12.541131959870482,117,10,0.0,15,49322323552258,319,12.7,-190.4359588623047,9.68600082397461,0,0.0,0.0,,,,,0,,5,,
Raw,259006548,35760451000000,,,-1221709575996640256,0.0,43.848896893905476,-3.3477323704943247,12.541131959870482,117,16,0.0,15,49322327537068,69,18.2,-49.96867752075195,2.3570001125335693,0,0.0,0.0,,,,,0,,5,,
Raw,259006549,35760451000000,,,-1221709575996640256,0.0,43.848896893905476,-3.3477323704943247,12.541131959870482,117,21,0.0,3,5548752,73,17.3,-544.8160400390625,1.6740000247955322,0,0.0,0.0,,,,,0,,5,,
Raw,259006549,35760451000000,,,-1221709575996640256,0.0,43.848896893905476,-3.3477323704943247,12.541131959870482,117,22,0.0,3,15718056,125,17.2,-123.75025177001953,5.439000129699707,0,0.0,0.0,,,,,0,,5,,
Raw,259007550,35761451000000,,,-1221709575996640256,0.0,46.48507456295192,-10.483997074026401,14.218089393720595,117,14,0.0,207,60119373506016,17,28.7,-678.3729858398438,0.25280001759529114,0,0.0,0.0,,,,,0,,3,,
Raw,259007550,35761451000000,,,-1221709575996640256,0.0,46.48507456295192,-10.483997074026401,14.218089393720595,117,2,0.0,207,60119382491722,46,20.1,109.01033020019531,1.1195000410079956,0,0.0,0.0,,,,,0,,3,,
Raw,259007551,35761451000000,,,-1221709575996640256,0.0,46.48507456295192,-10.483997074026401,14.218089393720595,117,13,0.0,207,60119383274054,541,14.1,-130.48825073242188,14.836000442504883,0,0.0,0.0,,,,,0,,3,,
Raw,259007551,35761451000000,,,-1221709575996640256,0.0,46.48507456295192,-10.483997074026401,14.218089393720595,117,12,0.0,207,60119376877543,169,14.3,643.5820922851562,6.20050048828125,0,0.0,0.0,,,,,0,,3,,
Raw,259007551,35761451000000,,,-1221709575996640256,0.0,46.48507456295192,-10.483997074026401,14.218089393720595,117,1,0.0,207,60119368904489,35,22.3,642.1388549804688,0.9984999895095825,0,0.0,0.0,,,,,0,,3,,
Raw,259007552,35761451000000,,,-1221709575996640256,0.0,46.48507456295192,-10.483997074026401,14.218089393720595,117,3,0.0,207,60119379223258,137,15.7,-525.00634765625,5.335000038146973,0,0.0,0.0,,,,,0,,3,,
Raw,259007552,35761451000000,,,-1221709575996640256,0.0,46.48507456295192,-10.483997074026401,14.218089393720595,117,1,0.0,15,49337365777873,24,25.1,7.861767768859863,0.38929998874664307,0,0.0,0.0,,,,,0,,1,,
Raw,259007552,35761451000000,,,-1221709575996640256,0.0,46.48507456295192,-10.483997074026401,14.218089393720595,117,10,0.0,15,49337376673918,31,23.1,487.2469482421875,0.750499963760376,0,0.0,0.0,,,,,0,,1,,
Raw,259007553,35761451000000,,,-1221709575996640256,0.0,46.48507456295192,-10.483997074026401,14.218089393720595,117,14,0.0,15,49337376696616,46,20.2,-183.0054168701172,0.9404999613761902,0,0.0,0.0,,,,,0,,1,,
Raw,259007553,35761451000000,,,-1221709575996640256,0.0,46.48507456295192,-10.483997074026401,14.218089393720595,117,18,0.0,15,49337367804384,113,15.1,271.5871276855469,3.752000093460083,0,0.0,0.0,,,,,0,,1,,
Raw,259007553,35761451000000,,,-1221709575996640256,0.0,46.48507456295192,-10.483997074026401,14.218089393720595,117,20,0.0,15,49337369240838,40,21.0,687.6261596679688,0.8600000143051147,0,0.0,0.0,,,,,0,,1,,
Raw,259007554,35761451000000,,,-1221709575996640256,0.0,46.48507456295192,-10.483997074026401,14.218089393720595,117,25,0.0,15,49337375015784,70,17.1,223.8329315185547,1.1890000104904175,0,0.0,0.0,,,,,0,,1,,
Raw,259007554,35761451000000,,,-1221709575996640256,0.0,46.48507456295192,-10.483997074026401,14.218089393720595,117,26,0.0,15,49337370170926,24,25.6,-689.3270874023438,0.3968000113964081,0,0.0,0.0,,,,,0,,1,,
Raw,259007554,35761451000000,,,-1221709575996640256,0.0,46.48507456295192,-10.483997074026401,14.218089393720595,117,31,0.0,15,49337379359915,40,21.1,-98.61969757080078,0.875,0,0.0,0.0,,,,,0,,1,,
Raw,259007554,35761451000000,,,-1221709575996640256,0.0,46.48507456295192,-10.483997074026401,14.218089393720595,117,32,0.0,15,49337377735252,53,19.8,5.5756049156188965,0.9419999718666077,0,0.0,0.0,,,,,0,,1,,
Raw,259007555,35761451000000,,,-1221709575996640256,0.0,46.48507456295192,-10.483997074026401,14.218089393720595,117,1,0.0,783,49323320667566,295,18.2,-7.739191055297852,10.698500633239746,0,0.0,0.0,,,,,0,,5,,
Raw,259007555,35761451000000,,,-1221709575996640256,0.0,46.48507456295192,-10.483997074026401,14.218089393720595,117,5,0.0,783,49323318440967,1067,34.8,0.7585560083389282,21.918500900268555,0,0.0,0.0,,,,,0,,5,,
Raw,259007555,35761451000000,,,-1221709575996640256,0.0,46.48507456295192,-10.483997074026401,14.218089393720595,117,7,0.0,15,49323326249186,305,17.6,-133.95713806152344,10.750500679016113,0,0.0,0.0,,,,,0,,5,,
Raw,259007555,35761451000000,,,-1221709575996640256,0.0,46.48507456295192,-10.483997074026401,14.218089393720595,117,9,0.0,15,49323326753703,99,20.5,-89.72085571289062,5.235500335693359,0,0.0,0.0,,,,,0,,5,,
Raw,259007556,35761451000000,,,-1221709575996640256,0.0,46.48507456295192,-10.483997074026401,14.218089393720595,117,10,0.0,15,49323323552894,384,12.7,-190.4359588623047,11.18600082397461,0,0.0,0.0,,,,,0,,5,,
Raw,259007556,35761451000000,,,-1221709575996640256,0.0,46.48507456295192,-10.483997074026401,14.218089393720595,117,16,0.0,15,49323327537333,109,14.1,-50.86166000366211,1.9270000457763672,0,0.0,0.0,,,,,0,,5,,
Raw,259007556,35761451000000,,,-1221709575996640256,0.0,46.48507456295192,-10.483997074026401,14.218089393720595,117,21,0.0,3,5550656,61,18.0,-546.0451049804688,0.8539999723434448,0,0.0,0.0,,,,,0,,5,,
Raw,259007556,35761451000000,,,-1221709575996640256,0.0,46.48507456295192,-10.483997074026401,14.218089393720595,117,22,0.0,3,15718469,163,17.2,-123.75025177001953,6.939000129699707,0,0.0,0.0,,,,,0,,5,,
Raw,259008558,35762451000000,,,-1221709575996640256,0.0,47.96674329554662,-16.884069033347973,13.253450435220532,117,14,0.0,207,60120373508317,16,29.9,-676.4290771484375,0.24619999527931213,0,0.0,0.0,,,,,0,,3,,
Raw,259008559,35762451000000,,,-1221709575996640256,0.0,47.96674329554662,-16.884069033347973,13.253450435220532,117,2,0.0,207,60120382491269,61,18.1,110.1534652709961,1.2795000076293945,0,0.0,0.0,,,,,0,,3,,
Raw,259008559,35762451000000,,,-1221709575996640256,0.0,47.96674329554662,-16.884069033347973,13.253450435220532,117,13,0.0,207,60120383274489,639,14.1,-130.48825073242188,16.336000442504883,0,0.0,0.0,,,,,0,,3,,
Raw,259008559,35762451000000,,,-1221709575996640256,0.0,47.96674329554662,-16.884069033347973,13.253450435220532,117,12,0.0,207,60120376875396,210,14.3,643.5820922851562,7.70050048828125,0,0.0,0.0,,,,,0,,3,,
Raw,259008560,35762451000000,,,-1221709575996640256,0.0,47.96674329554662,-16.884069033347973,13.253450435220532,117,1,0.0,207,60120368902347,43,22.3,642.1388549804688,2.498500108718872,0,0.0,0.0,,,,,0,,3,,
Raw,259008560,35762451000000,,,-1221709575996640256,0.0,47.96674329554662,-16.884069033347973,13.253450435220532,117,3,0.0,207,60120379225010,173,15.7,-525.00634765625,6.835000514984131,0,0.0,0.0,,,,,0,,3,,
Raw,259008561,35762451000000,,,-1221709575996640256,0.0,47.96674329554662,-16.884069033347973,13.253450435220532,117,1,0.0,15,49338365777936,27,24.2,9.800124168395996,0.6739999651908875,0,0.0,0.0,,,,,0,,1,,
Raw,259008561,35762451000000,,,-1221709575996640256,0.0,47.96674329554662,-16.884069033347973,13.253450435220532,117,10,0.0,15,49338376672293,38,23.1,487.2469482421875,2.250499963760376,0,0.0,0.0,,,,,0,,1,,
Raw,259008561,35762451000000,,,-1221709575996640256,0.0,47.96674329554662,-16.884069033347973,13.253450435220532,117,14,0.0,15,49338376697108,81,16.7,-181.33084106445312,1.190500020980835,0,0.0,0.0,,,,,0,,1,,
Raw,259008562,35762451000000,,,-1221709575996640256,0.0,47.96674329554662,-16.884069033347973,13.253450435220532,117,18,0.0,15,49338367803627,56,19.2,269.75079345703125,1.7570000886917114,0,0.0,0.0,,,,,0,,1,,
Raw,259008562,35762451000000,,,-1221709575996640256,0.0,47.96674329554662,-16.884069033347973,13.253450435220532,117,20,0.0,15,49338369238518,35,22.2,689.900146484375,0.800000011920929,0,0.0,0.0,,,,,0,,1,,
Raw,259008562,35762451000000,,,-1221709575996640256,0.0,47.96674329554662,-16.884069033347973,13.253450435220532,117,25,0.0,15,49338375015062,61,18.3,226.09742736816406,1.0989999771118164,0,0.0,0.0,,,,,0,,1,,
Raw,259008562,35762451000000,,,-1221709575996640256,0.0,47.96674329554662,-16.884069033347973,13.253450435220532,117,26,0.0,15,49338370173247,24,25.2,-687.3880615234375,0.3968000113964081,0,0.0,0.0,,,,,0,,1,,
Raw,259008563,35762451000000,,,-1221709575996640256,0.0,47.96674329554662,-16.884069033347973,13.253450435220532,117,31,0.0,15,49338379360205,46,20.0,-96.68821716308594,0.9449999928474426,0,0.0,0.0,,,,,0,,1,,
Raw,259008563,35762451000000,,,-1221709575996640256,0.0,47.96674329554662,-16.884069033347973,13.253450435220532,117,32,0.0,15,49338377735224,40,21.9,7.459512233734131,0.8119999766349792,0,0.0,0.0,,,,,0,,1,,
Raw,259008563,35762451000000,,,-1221709575996640256,0.0,47.96674329554662,-16.884069033347973,13.253450435220532,117,1,0.0,783,49324320667592,369,18.2,-7.739191055297852,12.198500633239746,0,0.0,0.0,,,,,0,,5,,
Raw,259008564,35762451000000,,,-1221709575996640256,0.0,47.96674329554662,-16.884069033347973,13.253450435220532,117,5,0.0,783,49324318440965,1217,34.8,0.7585560083389282,23.418500900268555,0,0.0,0.0,,,,,0,,5,,
Raw,259008564,35762451000000,,,-1221709575996640256,0.0,47.96674329554662,-16.884069033347973,13.253450435220532,117,7,0.0,15,49324326249667,53,19.3,-135.2822265625,0.7804999947547913,0,0.0,0.0,,,,,0,,5,,
Raw,259008564,35762451000000,,,-1221709575996640256,0.0,47.96674329554662,-16.884069033347973,13.253450435220532,117,9,0.0,15,49324326754002,136,20.5,-89.72085571289062,6.735500335693359,0,0.0,0.0,,,,,0,,5,,
Raw,259008565,35762451000000,,,-1221709575996640256,0.0,47.96674329554662,-16.884069033347973,13.253450435220532,117,10,0.0,15,49324323553529,459,12.7,-190.4359588623047,12.68600082397461,0,0.0,0.0,,,,,0,,5,,
Raw,259008565,35762451000000,,,-1221709575996640256,0.0,47.96674329554662,-16.884069033347973,13.253450435220532,117,16,0.0,15,49324327537502,124,14.1,-50.86166000366211,3.427000045776367,0,0.0,0.0,,,,,0,,5,,
Raw,259008565,35762451000000,,,-1221709575996640256,0.0,47.96674329554662,-16.884069033347973,13.253450435220532,117,21,0.0,3,5552430,70,17.6,-544.9793090820312,0.9239999651908875,0,0.0,0.0,,,,,0,,5,,
Raw,259008565,35762451000000,,,-1221709575996640256,0.0,47.96674329554662,-16.884069033347973,13.253450435220532,117,22,0.0,3,15718864,189,11.8,-124.83526611328125,4.499000072479248,0,0.0,0.0,,,,,0,,5,,
Raw,259009592,35763451000000,,,-1221709575996640256,0.0,48.63747744821012,-10.8328135027611,12.979676511804708,117,14,0.0,207,60121373510538,13,31.5,-674.418212890625,0.24469999969005585,0,0.0,0.0,,,,,0,,3,,
Raw,259009593,35763451000000,,,-1221709575996640256,0.0,48.63747744821012,-10.8328135027611,12.979676511804708,117,2,0.0,207,60121382490827,53,19.3,112.7583236694336,1.1995000839233398,0,0.0,0.0,,,,,0,,3,,
Raw,259009594,35763451000000,,,-1221709575996640256,0.0,48.63747744821012,-10.8328135027611,12.979676511804708,117,13,0.0,207,60121383274924,748,14.1,-130.48825073242188,17.836000442504883,0,0.0,0.0,,,,,0,,3,,
Raw,259009594,35763451000000,,,-1221709575996640256,0.0,48.63747744821012,-10.8328135027611,12.979676511804708,117,12,0.0,207,60121376873249,260,14.3,643.5820922851562,9.20050048828125,0,0.0,0.0,,,,,0,,3,,
Raw,259009595,35763451000000,,,-1221709575996640256,0.0,48.63747744821012,-10.8328135027611,12.979676511804708,117,1,0.0,207,60121368900205,62,22.3,642.1388549804688,3.998500108718872,0,0.0,0.0,,,,,0,,3,,
Raw,259009597,35763451000000,,,-1221709575996640256,0.0,48.63747744821012,-10.8328135027611,12.979676511804708,117,3,0.0,207,60121379226902,161,12.0,-526.416748046875,4.205000400543213,0,0.0,0.0,,,,,0,,3,,
Raw,259009597,35763451000000,,,-1221709575996640256,0.0,48.63747744821012,-10.8328135027611,12.979676511804708,117,1,0.0,15,49339365777888,46,20.6,11.103635787963867,0.8539999723434448,0,0.0,0.0,,,,,0,,1,,
Raw,259009598,35763451000000,,,-1221709575996640256,0.0,48.63747744821012,-10.8328135027611,12.979676511804708,117,10,0.0,15,49339376670728,73,17.6,492.5942077636719,1.8504999876022339,0,0.0,0.0,,,,,0,,1,,
Raw,259009598,35763451000000,,,-1221709575996640256,0.0,48.63747744821012,-10.8328135027611,12.979676511804708,117,14,0.0,15,49339376697786,81,16.6,-179.86558532714844,1.190500020980835,0,0.0,0.0,,,,,0,,1,,
Raw,259009599,35763451000000,,,-1221709575996640256,0.0,48.63747744821012,-10.8328135027611,12.979676511804708,117,18,0.0,15,49339367802743,31,23.7,272.83355712890625,0.6769999861717224,0,0.0,0.0,,,,,0,,1,,
Raw,259009599,35763451000000,,,-1221709575996640256,0.0,48.63747744821012,-10.8328135027611,12.979676511804708,117,20,0.0,15,49339369236217,43,22.2,689.900146484375,2.299999952316284,0,0.0,0.0,,,,,0,,1,,
Raw,259009600,35763451000000,,,-1221709575996640256,0.0,48.63747744821012,-10.8328135027611,12.979676511804708,117,25,0.0,15,49339375014308,70,18.3,226.09742736816406,2.5989999771118164,0,0.0,0.0,,,,,0,,1,,
Raw,259009600,35763451000000,,,-1221709575996640256,0.0,48.63747744821012,-10.8328135027611,12.979676511804708,117,26,0.0,15,49339370175579,70,17.1,-686.5986328125,1.18149995803833,0,0.0,0.0,,,,,0,,1,,
Raw,259009601,35763451000000,,,-1221709575996640256,0.0,48.63747744821012,-10.8328135027611,12.979676511804708,117,31,0.0,15,49339379360510,31,23.2,-94.09070587158203,0.7549999952316284,0,0.0,0.0,,,,,0,,1,,
Raw,259009601,35763451000000,,,-1221709575996640256,0.0,48.63747744821012,-10.8328135027611,12.979676511804708,117,32,0.0,15,49339377735101,40,21.9,9.781094551086426,0.8119999766349792,0,0.0,0.0,,,,,0,,1,,
Raw,259009602,35763451000000,,,-1221709575996640256,0.0,48.63747744821012,-10.8328135027611,12.979676511804708,117,1,0.0,783,49325320667617,453,18.2,-7.739191055297852,13.698500633239746,0,0.0,0.0,,,,,0,,5,,
Raw,259009602,35763451000000,,,-1221709575996640256,0.0,48.63747744821012,-10.8328135027611,12.979676511804708,117,5,0.0,783,49325318440962,1378,34.8,0.7585560083389282,24.918500900268555,0,0.0,0.0,,,,,0,,5,,
Raw,259009603,35763451000000,,,-1221709575996640256,0.0,48.63747744821012,-10.8328135027611,12.979676511804708,117,7,0.0,15,49325326250118,60,19.3,-135.2822265625,2.2804999351501465,0,0.0,0.0,,,,,0,,5,,
Raw,259009603,35763451000000,,,-1221709575996640256,0.0,48.63747744821012,-10.8328135027611,12.979676511804708,117,9,0.0,15,49325326754302,184,20.5,-89.72085571289062,8.23550033569336,0,0.0,0.0,,,,,0,,5,,
Raw,259009605,35763451000000,,,-1221709575996640256,0.0,48.63747744821012,-10.8328135027611,12.979676511804708,117,10,0.0,15,49325323554164,544,12.7,-190.4359588623047,14.18600082397461,0,0.0,0.0,,,,,0,,5,,
Raw,259009605,35763451000000,,,-1221709575996640256,0.0,48.63747744821012,-10.8328135027611,12.979676511804708,117,16,0.0,15,49325327537689,96,15.9,-50.22793197631836,1.8370000123977661,0,0.0,0.0,,,,,0,,5,,
Raw,259009606,35763451000000,,,-1221709575996640256,0.0,48.63747744821012,-10.8328135027611,12.979676511804708,117,21,0.0,3,5554266,70,17.1,-541.3593139648438,0.9239999651908875,0,0.0,0.0,,,,,0,,5,,
Raw,259009607,35763451000000,,,-1221709575996640256,0.0,48.63747744821012,-10.8328135027611,12.979676511804708,117,22,0.0,3,15719280,219,11.8,-124.83526611328125,5.999000072479248,0,0.0,0.0,,,,,0,,5,,
Raw,259010596,35764451000000,,,-1221709575996640256,0.0,50.006645324174315,-5.4534575966438865,12.896522162968957,117,14,0.0,207,60122373512797,12,32.3,-673.4111938476562,0.24340000748634338,0,0.0,0.0,,,,,0,,3,,
Raw,259010596,35764451000000,,,-1221709575996640256,0.0,50.006645324174315,-5.4534575966438865,12.896522162968957,117,2,0.0,207,60122382490747,46,20.3,112.97383880615234,1.1195000410079956,0,0.0,0.0,,,,,0,,3,,
Raw,259010597,35764451000000,,,-1221709575996640256,0.0,50.006645324174315,-5.4534575966438865,12.896522162968957,117,13,0.0,207,60122383275359,866,14.1,-130.48825073242188,19.336000442504883,0,0.0,0.0,,,,,0,,3,,
Raw,259010597,35764451000000,,,-1221709575996640256,0.0,50.006645324174315,-5.4534575966438865,12.896522162968957,117,12,0.0,207,60122376871102,321,14.3,643.5820922851562,10.70050048828125,0,0.0,0.0,,,,,0,,3,,
Raw,259010597,35764451000000,,,-1221709575996640256,0.0,50.006645324174315,-5.4534575966438865,12.896522162968957,117,1,0.0,207,60122368897827,103,15.8,647.3019409179688,3.06850004196167,0,0.0,0.0,,,,,0,,3,,
Raw,259010598,35764451000000,,,-1221709575996640256,0.0,50.006645324174315,-5.4534575966438865,12.896522162968957,117,3,0.0,207,60122379228658,187,12.0,-526.416748046875,5.705000400543213,0,0.0,0.0,,,,,0,,3,,
Raw,259010598,35764451000000,,,-1221709575996640256,0.0,50.006645324174315,-5.4534575966438865,12.896522162968957,117,1,0.0,15,49340365777896,46,20.3,12.958998680114746,0.9239999651908875,0,0.0,0.0,,,,,0,,1,,
Raw,259010598,35764451000000,,,-1221709575996640256,0.0,50.006645324174315,-5.4534575966438865,12.896522162968957,117,10,0.0,15,49340376668963,35,22.1,492.22314453125,0.8104999661445618,0,0.0,0.0,,,,,0,,1,,
Raw,259010598,35764451000000,,,-1221709575996640256,0.0,50.006645324174315,-5.4534575966438865,12.896522162968957,117,14,0.0,15,49340376698386,90,16.6,-179.86558532714844,2.690500020980835,0,0.0,0.0,,,,,0,,1,,
