# 
# Header Description:
# 
# Version: v2.0.0.1 Platform: 8.0.0 Manufacturer: Xiaomi Model: MIX 2
# 
# Raw,ElapsedRealtimeMillis,TimeNanos,LeapSecond,TimeUncertaintyNanos,FullBiasNanos,BiasNanos,BiasUncertaintyNanos,DriftNanosPerSecond,DriftUncertaintyNanosPerSecond,HardwareClockDiscontinuityCount,Svid,TimeOffsetNanos,State,ReceivedSvTimeNanos,ReceivedSvTimeUncertaintyNanos,Cn0DbHz,PseudorangeRateMetersPerSecond,PseudorangeRateUncertaintyMetersPerSecond,AccumulatedDeltaRangeState,AccumulatedDeltaRangeMeters,AccumulatedDeltaRangeUncertaintyMeters,CarrierFrequencyHz,CarrierCycles,CarrierPhase,CarrierPhaseUncertainty,MultipathIndicator,SnrInDb,ConstellationType,AgcDb,CarrierFrequencyHz
# 
# Fix,Provider,Latitude,Longitude,Altitude,Speed,Accuracy,(UTC)TimeInMs
# 
# Nav,Svid,Type,Status,MessageId,Sub-messageId,Data(Bytes)
# 
Raw,253346268,32158000000000,,,-1221706837445788672,0.0,16.432528354926035,-6.935060763720032,9.581626057863684,31,10,0.0,15,42995377061512,7,37.1,-327.162353515625,0.04610000178217888,0,0.0,0.0,,,,,0,,1,,
Raw,253346269,32158000000000,,,-1221706837445788672,0.0,16.432528354926035,-6.935060763720032,9.581626057863684,31,12,0.0,15,42995371840243,11,33.1,2.037503242492676,0.039400000125169754,0,0.0,0.0,,,,,0,,1,,
Raw,253346270,32158000000000,,,-1221706837445788672,0.0,16.432528354926035,-6.935060763720032,9.581626057863684,31,14,0.0,15,42995366550060,13,31.5,-268.4468688964844,0.03420000150799751,0,0.0,0.0,,,,,0,,1,,
Raw,253346270,32158000000000,,,-1221706837445788672,0.0,16.432528354926035,-6.935060763720032,9.581626057863684,31,15,0.0,15,42995364081160,16,29.7,365.1504211425781,0.03270000219345093,0,0.0,0.0,,,,,0,,1,,
Raw,253346271,32158000000000,,,-1221706837445788672,0.0,16.432528354926035,-6.935060763720032,9.581626057863684,31,20,0.0,15,42995379141418,6,38.8,76.91393280029297,0.048600003123283386,0,0.0,0.0,,,,,0,,1,,
Raw,253346272,32158000000000,,,-1221706837445788672,0.0,16.432528354926035,-6.935060763720032,9.581626057863684,31,21,0.0,15,42995369841339,12,32.3,465.0006103515625,0.03739999979734421,0,0.0,0.0,,,,,0,,1,,
Raw,253346273,32158000000000,,,-1221706837445788672,0.0,16.432528354926035,-6.935060763720032,9.581626057863684,31,24,0.0,15,42995367712936,13,31.3,610.0664672851562,0.0357000008225441,0,0.0,0.0,,,,,0,,1,,
Raw,253346274,32158000000000,,,-1221706837445788672,0.0,16.432528354926035,-6.935060763720032,9.581626057863684,31,25,0.0,15,42995372990719,10,34.8,-412.963134765625,0.04010000079870224,0,0.0,0.0,,,,,0,,1,,
Raw,253346275,32158000000000,,,-1221706837445788672,0.0,16.432528354926035,-6.935060763720032,9.581626057863684,31,31,0.0,15,42995369412583,12,32.4,-538.1756591796875,0.03739999979734421,0,0.0,0.0,,,,,0,,1,,
Raw,253346276,32158000000000,,,-1221706837445788672,0.0,16.432528354926035,-6.935060763720032,9.581626057863684,31,32,0.0,15,42995370785995,10,34.0,-235.45654296875,0.03710000216960907,0,0.0,0.0,,,,,0,,1,,
Raw,253347240,32159000000000,,,-1221706837445788672,0.0,16.86671021161601,-11.254923618785888,9.580739322028261,31,10,0.0,15,42996377062602,4,42.0,-329.5431213378906,0.04430000111460686,0,0.0,0.0,,,,,0,,1,,
Raw,253347240,32159000000000,,,-1221706837445788672,0.0,16.86671021161601,-11.254923618785888,9.580739322028261,31,12,0.0,15,42996371840244,6,38.6,-0.279680073261261,0.03660000115633011,0,0.0,0.0,,,,,0,,1,,
Raw,253347240,32159000000000,,,-1221706837445788672,0.0,16.86671021161601,-11.254923618785888,9.580739322028261,31,14,0.0,15,42996366550963,8,36.7,-270.873046875,0.03020000085234642,0,0.0,0.0,,,,,0,,1,,
Raw,253347241,32159000000000,,,-1221706837445788672,0.0,16.86671021161601,-11.254923618785888,9.580739322028261,31,15,0.0,15,42996364079948,10,34.8,362.7450866699219,0.02810000069439411,0,0.0,0.0,,,,,0,,1,,
Raw,253347241,32159000000000,,,-1221706837445788672,0.0,16.86671021161601,-11.254923618785888,9.580739322028261,31,20,0.0,15,42996379141179,4,43.8,74.5588150024414,0.0471000038087368,0,0.0,0.0,,,,,0,,1,,
Raw,253347242,32159000000000,,,-1221706837445788672,0.0,16.86671021161601,-11.254923618785888,9.580739322028261,31,21,0.0,15,42996369839811,7,37.5,462.58648681640625,0.0340999998152256,0,0.0,0.0,,,,,0,,1,,
Raw,253347242,32159000000000,,,-1221706837445788672,0.0,16.86671021161601,-11.254923618785888,9.580739322028261,31,24,0.0,15,42996367710925,8,36.5,607.63916015625,0.031700000166893005,0,0.0,0.0,,,,,0,,1,,
Raw,253347242,32159000000000,,,-1221706837445788672,0.0,16.86671021161601,-11.254923618785888,9.580739322028261,31,25,0.0,15,42996372992106,5,40.0,-415.3163146972656,0.03739999979734421,0,0.0,0.0,,,,,0,,1,,
Raw,253347243,32159000000000,,,-1221706837445788672,0.0,16.86671021161601,-11.254923618785888,9.580739322028261,31,31,0.0,15,42996369414373,7,37.7,-540.5447998046875,0.0340999998152256,0,0.0,0.0,,,,,0,,1,,
Raw,253347243,32159000000000,,,-1221706837445788672,0.0,16.86671021161601,-11.254923618785888,9.580739322028261,31,32,0.0,15,42996370786770,6,39.3,-237.8870849609375,0.03460000082850456,0,0.0,0.0,,,,,0,,1,,
Raw,253348238,32160000000000,,,-1221706837445788672,0.0,15.530338714597747,-19.287593952380675,9.514945113597403,31,10,0.0,15,42997377063699,5,46.5,-327.6300048828125,0.04350000247359276,0,0.0,0.0,,,,,0,,1,,
Raw,253348238,32160000000000,,,-1221706837445788672,0.0,15.530338714597747,-19.287593952380675,9.514945113597403,31,12,0.0,15,42997371840253,4,44.5,1.686745047569275,0.03480000048875809,0,0.0,0.0,,,,,0,,1,,
Raw,253348239,32160000000000,,,-1221706837445788672,0.0,15.530338714597747,-19.287593952380675,9.514945113597403,31,14,0.0,15,42997366551874,4,42.3,-269.024658203125,0.027800001204013824,0,0.0,0.0,,,,,0,,1,,
Raw,253348239,32160000000000,,,-1221706837445788672,0.0,15.530338714597747,-19.287593952380675,9.514945113597403,31,15,0.0,15,42997364078731,5,40.2,364.6104736328125,0.02540000155568123,0,0.0,0.0,,,,,0,,1,,
Raw,253348240,32160000000000,,,-1221706837445788672,0.0,15.530338714597747,-19.287593952380675,9.514945113597403,31,20,0.0,15,42997379140921,5,48.9,76.49205017089844,0.046300001442432404,0,0.0,0.0,,,,,0,,1,,
Raw,253348240,32160000000000,,,-1221706837445788672,0.0,15.530338714597747,-19.287593952380675,9.514945113597403,31,21,0.0,15,42997369838254,4,42.7,464.45574951171875,0.03230000287294388,0,0.0,0.0,,,,,0,,1,,
Raw,253348240,32160000000000,,,-1221706837445788672,0.0,15.530338714597747,-19.287593952380675,9.514945113597403,31,24,0.0,15,42997367708907,5,41.2,609.503173828125,0.029600001871585846,0,0.0,0.0,,,,,0,,1,,
Raw,253348241,32160000000000,,,-1221706837445788672,0.0,15.530338714597747,-19.287593952380675,9.514945113597403,31,25,0.0,15,42997372993484,4,45.6,-413.3937683105469,0.03610000014305115,0,0.0,0.0,,,,,0,,1,,
Raw,253348241,32160000000000,,,-1221706837445788672,0.0,15.530338714597747,-19.287593952380675,9.514945113597403,31,31,0.0,15,42997369416186,4,42.5,-538.63232421875,0.03230000287294388,0,0.0,0.0,,,,,0,,1,,
Raw,253348242,32160000000000,,,-1221706837445788672,0.0,15.530338714597747,-19.287593952380675,9.514945113597403,31,32,0.0,15,42997370787566,4,44.9,-236.05067443847656,0.0333000011742115,0,0.0,0.0,,,,,0,,1,,
Raw,253349244,32161000000000,,,-1221706837445788672,0.0,14.687786460854113,-13.07360211638483,9.514922050512894,31,10,0.0,15,42998377064790,5,47.9,-326.72882080078125,0.04330000281333923,0,0.0,0.0,,,,,0,,1,,
Raw,253349245,32161000000000,,,-1221706837445788672,0.0,14.687786460854113,-13.07360211638483,9.514922050512894,31,12,0.0,15,42998371840237,5,46.8,2.6111974716186523,0.03450000286102295,0,0.0,0.0,,,,,0,,1,,
Raw,253349246,32161000000000,,,-1221706837445788672,0.0,14.687786460854113,-13.07360211638483,9.514922050512894,31,14,0.0,15,42998366552762,4,44.7,-268.2475280761719,0.027300002053380013,0,0.0,0.0,,,,,0,,1,,
Raw,253349247,32161000000000,,,-1221706837445788672,0.0,14.687786460854113,-13.07360211638483,9.514922050512894,31,15,0.0,15,42998364077508,4,42.4,365.3938903808594,0.024800000712275505,0,0.0,0.0,,,,,0,,1,,
Raw,253349248,32161000000000,,,-1221706837445788672,0.0,14.687786460854113,-13.07360211638483,9.514922050512894,31,20,0.0,15,42998379140663,4,51.3,77.42961883544922,0.046300001442432404,0,0.0,0.0,,,,,0,,1,,
Raw,253349248,32161000000000,,,-1221706837445788672,0.0,14.687786460854113,-13.07360211638483,9.514922050512894,31,21,0.0,15,42998369836708,4,44.7,465.2884216308594,0.03180000185966492,0,0.0,0.0,,,,,0,,1,,
Raw,253349249,32161000000000,,,-1221706837445788672,0.0,14.687786460854113,-13.07360211638483,9.514922050512894,31,24,0.0,15,42998367706868,4,42.0,610.2992553710938,0.02930000051856041,0,0.0,0.0,,,,,0,,1,,
Raw,253349250,32161000000000,,,-1221706837445788672,0.0,14.687786460854113,-13.07360211638483,9.514922050512894,31,25,0.0,15,42998372994860,5,47.4,-412.5037536621094,0.03580000251531601,0,0.0,0.0,,,,,0,,1,,
Raw,253349250,32161000000000,,,-1221706837445788672,0.0,14.687786460854113,-13.07360211638483,9.514922050512894,31,31,0.0,15,42998369417976,4,44.5,-537.7647705078125,0.03180000185966492,0,0.0,0.0,,,,,0,,1,,
Raw,253349250,32161000000000,,,-1221706837445788672,0.0,14.687786460854113,-13.07360211638483,9.514922050512894,31,32,0.0,15,42998370788351,5,47.2,-235.2444610595703,0.03280000016093254,0,0.0,0.0,,,,,0,,1,,
Raw,253350242,32162000000000,,,-1221706837445788672,0.0,14.518363968818448,-10.51613747048631,9.514902963822266,31,10,0.0,15,42999377065883,5,47.9,-327.09442138671875,0.04330000281333923,0,0.0,0.0,,,,,0,,1,,
Raw,253350243,32162000000000,,,-1221706837445788672,0.0,14.518363968818448,-10.51613747048631,9.514902963822266,31,12,0.0,15,42999371840228,5,46.8,2.2902426719665527,0.03450000286102295,0,0.0,0.0,,,,,0,,1,,
Raw,253350244,32162000000000,,,-1221706837445788672,0.0,14.518363968818448,-10.51613747048631,9.514902963822266,31,14,0.0,15,42999366553659,4,44.0,-268.6914367675781,0.027300002053380013,0,0.0,0.0,,,,,0,,1,,
Raw,253350244,32162000000000,,,-1221706837445788672,0.0,14.518363968818448,-10.51613747048631,9.514902963822266,31,15,0.0,15,42999364076293,4,42.2,364.963134765625,0.024800000712275505,0,0.0,0.0,,,,,0,,1,,
Raw,253350246,32162000000000,,,-1221706837445788672,0.0,14.518363968818448,-10.51613747048631,9.514902963822266,31,20,0.0,15,42999379140411,4,51.1,77.09494018554688,0.046300001442432404,0,0.0,0.0,,,,,0,,1,,
Raw,253350247,32162000000000,,,-1221706837445788672,0.0,14.518363968818448,-10.51613747048631,9.514902963822266,31,21,0.0,15,42999369835157,4,44.8,464.8732604980469,0.03180000185966492,0,0.0,0.0,,,,,0,,1,,
Raw,253350247,32162000000000,,,-1221706837445788672,0.0,14.518363968818448,-10.51613747048631,9.514902963822266,31,24,0.0,15,42999367704826,4,42.4,609.8700561523438,0.02930000051856041,0,0.0,0.0,,,,,0,,1,,
Raw,253350248,32162000000000,,,-1221706837445788672,0.0,14.518363968818448,-10.51613747048631,9.514902963822266,31,25,0.0,15,42999372996234,5,46.8,-412.8621826171875,0.036000002175569534,0,0.0,0.0,,,,,0,,1,,
Raw,253350248,32162000000000,,,-1221706837445788672,0.0,14.518363968818448,-10.51613747048631,9.514902963822266,31,31,0.0,15,42999369419768,4,44.1,-538.1412963867188,0.03180000185966492,0,0.0,0.0,,,,,0,,1,,
Raw,253350249,32162000000000,,,-1221706837445788672,0.0,14.518363968818448,-10.51613747048631,9.514902963822266,31,32,0.0,15,42999370789139,5,46.3,-235.68714904785156,0.032999999821186066,0,0.0,0.0,,,,,0,,1,,
Raw,253351244,32163000000000,,,-1221706837445788672,0.0,15.49490843899548,-11.97463580091794,10.491446450322734,31,10,0.0,15,43000377066970,4,45.3,-326.7668151855469,0.04360000044107437,0,0.0,0.0,,,,,0,,1,,
Raw,253351245,32163000000000,,,-1221706837445788672,0.0,15.49490843899548,-11.97463580091794,10.491446450322734,31,12,0.0,15,43000371840219,5,41.9,2.6593213081359863,0.035600002855062485,0,0.0,0.0,,,,,0,,1,,
Raw,253351245,32163000000000,,,-1221706837445788672,0.0,15.49490843899548,-11.97463580091794,10.491446450322734,31,14,0.0,15,43000366554552,5,40.1,-268.4322509765625,0.028400002047419548,0,0.0,0.0,,,,,0,,1,,
Raw,253351246,32163000000000,,,-1221706837445788672,0.0,15.49490843899548,-11.97463580091794,10.491446450322734,31,15,0.0,15,43000364075078,6,38.1,365.2215576171875,0.026100000366568565,0,0.0,0.0,,,,,0,,1,,
Raw,253351247,32163000000000,,,-1221706837445788672,0.0,15.49490843899548,-11.97463580091794,10.491446450322734,31,20,0.0,15,43000379140147,5,47.8,77.44902038574219,0.046300001442432404,0,0.0,0.0,,,,,0,,1,,
Raw,253351247,32163000000000,,,-1221706837445788672,0.0,15.49490843899548,-11.97463580091794,10.491446450322734,31,21,0.0,15,43000369833605,5,40.7,465.1523742675781,0.03290000185370445,0,0.0,0.0,,,,,0,,1,,
Raw,253351248,32163000000000,,,-1221706837445788672,0.0,15.49490843899548,-11.97463580091794,10.491446450322734,31,24,0.0,15,43000367702803,6,39.4,610.1273803710938,0.030100001022219658,0,0.0,0.0,,,,,0,,1,,
Raw,253351248,32163000000000,,,-1221706837445788672,0.0,15.49490843899548,-11.97463580091794,10.491446450322734,31,25,0.0,15,43000372997605,4,43.3,-412.5337829589844,0.03660000115633011,0,0.0,0.0,,,,,0,,1,,
Raw,253351249,32163000000000,,,-1221706837445788672,0.0,15.49490843899548,-11.97463580091794,10.491446450322734,31,31,0.0,15,43000369421570,5,40.9,-537.82177734375,0.03290000185370445,0,0.0,0.0,,,,,0,,1,,
Raw,253351250,32163000000000,,,-1221706837445788672,0.0,15.49490843899548,-11.97463580091794,10.491446450322734,31,32,0.0,15,43000370789920,4,42.7,-235.42825317382812,0.03380000218749046,0,0.0,0.0,,,,,0,,1,,
Raw,253352234,32164000000000,,,-1221706837445788672,0.0,14.518325770040974,-11.11406145611532,9.51486479044101,31,10,0.0,15,43001377068045,5,47.1,-327.29302978515625,0.04330000281333923,0,0.0,0.0,,,,,0,,1,,
Raw,253352235,32164000000000,,,-1221706837445788672,0.0,14.518325770040974,-11.11406145611532,9.51486479044101,31,12,0.0,15,43001371840201,4,44.3,2.159987211227417,0.03480000048875809,0,0.0,0.0,,,,,0,,1,,
Raw,253352235,32164000000000,,,-1221706837445788672,0.0,14.518325770040974,-11.11406145611532,9.51486479044101,31,14,0.0,15,43001366555433,4,42.6,-269.0647277832031,0.027800001204013824,0,0.0,0.0,,,,,0,,1,,
Raw,253352236,32164000000000,,,-1221706837445788672,0.0,14.518325770040974,-11.11406145611532,9.51486479044101,31,15,0.0,15,43001364073842,5,40.6,364.58929443359375,0.02540000155568123,0,0.0,0.0,,,,,0,,1,,
Raw,253352236,32164000000000,,,-1221706837445788672,0.0,14.518325770040974,-11.11406145611532,9.51486479044101,31,20,0.0,15,43001379139872,4,49.5,76.95570373535156,0.046300001442432404,0,0.0,0.0,,,,,0,,1,,
Raw,253352236,32164000000000,,,-1221706837445788672,0.0,14.518325770040974,-11.11406145611532,9.51486479044101,31,21,0.0,15,43001369832034,4,43.0,464.56292724609375,0.032099999487400055,0,0.0,0.0,,,,,0,,1,,
Raw,253352237,32164000000000,,,-1221706837445788672,0.0,14.518325770040974,-11.11406145611532,9.51486479044101,31,24,0.0,15,43001367700743,5,41.0,609.509033203125,0.029600001871585846,0,0.0,0.0,,,,,0,,1,,
Raw,253352237,32164000000000,,,-1221706837445788672,0.0,14.518325770040974,-11.11406145611532,9.51486479044101,31,25,0.0,15,43001372998973,4,45.1,-413.0670166015625,0.03610000014305115,0,0.0,0.0,,,,,0,,1,,
Raw,253352237,32164000000000,,,-1221706837445788672,0.0,14.518325770040974,-11.11406145611532,9.51486479044101,31,31,0.0,15,43001369423345,4,43.0,-538.3740844726562,0.032099999487400055,0,0.0,0.0,,,,,0,,1,,
Raw,253352238,32164000000000,,,-1221706837445788672,0.0,14.518325770040974,-11.11406145611532,9.51486479044101,31,32,0.0,15,43001370790691,4,44.8,-236.04470825195312,0.0333000011742115,0,0.0,0.0,,,,,0,,1,,
Raw,253353242,32165000000000,,,-1221706837445788672,0.0,14.518305761157535,-13.25356097897042,9.514844908471606,31,10,0.0,15,43002377069140,4,43.2,-327.448486328125,0.04410000145435333,0,0.0,0.0,,,,,0,,1,,
Raw,253353243,32165000000000,,,-1221706837445788672,0.0,14.518305761157535,-13.25356097897042,9.514844908471606,31,12,0.0,15,43002371840199,6,39.4,2.056140661239624,0.03610000014305115,0,0.0,0.0,,,,,0,,1,,
Raw,253353243,32165000000000,,,-1221706837445788672,0.0,14.518305761157535,-13.25356097897042,9.514844908471606,31,14,0.0,15,43002366556343,7,37.2,-269.2763671875,0.029600001871585846,0,0.0,0.0,,,,,0,,1,,
Raw,253353244,32165000000000,,,-1221706837445788672,0.0,14.518305761157535,-13.25356097897042,9.514844908471606,31,15,0.0,15,43002364072625,9,35.8,364.3923645019531,0.0276000015437603,0,0.0,0.0,,,,,0,,1,,
Raw,253353245,32165000000000,,,-1221706837445788672,0.0,14.518305761157535,-13.25356097897042,9.514844908471606,31,20,0.0,15,43002379139624,4,45.0,76.93434143066406,0.04660000279545784,0,0.0,0.0,,,,,0,,1,,
Raw,253353246,32165000000000,,,-1221706837445788672,0.0,14.518305761157535,-13.25356097897042,9.514844908471606,31,21,0.0,15,43002369830490,6,38.3,464.3722229003906,0.03360000252723694,0,0.0,0.0,,,,,0,,1,,
Raw,253353247,32165000000000,,,-1221706837445788672,0.0,14.518305761157535,-13.25356097897042,9.514844908471606,31,24,0.0,15,43002367698718,8,36.9,609.3037719726562,0.031700000166893005,0,0.0,0.0,,,,,0,,1,,
Raw,253353247,32165000000000,,,-1221706837445788672,0.0,14.518305761157535,-13.25356097897042,9.514844908471606,31,25,0.0,15,43002373000356,5,40.9,-413.20513916015625,0.03890000283718109,0,0.0,0.0,,,,,0,,1,,
Raw,253353248,32165000000000,,,-1221706837445788672,0.0,14.518305761157535,-13.25356097897042,9.514844908471606,31,31,0.0,15,43002369425154,6,38.2,-538.521484375,0.03360000252723694,0,0.0,0.0,,,,,0,,1,,
Raw,253353248,32165000000000,,,-1221706837445788672,0.0,14.518305761157535,-13.25356097897042,9.514844908471606,31,32,0.0,15,43002370791486,6,39.7,-236.2655029296875,0.03460000082850456,0,0.0,0.0,,,,,0,,1,,
Raw,253354246,32166000000000,,,-1221706837445788672,0.0,15.494850231334567,-14.039787892104533,10.491388394972073,31,10,0.0,15,43003377070232,8,36.2,-327.20977783203125,0.04670000076293945,0,0.0,0.0,,,,,0,,1,,
Raw,253354247,32166000000000,,,-1221706837445788672,0.0,15.494850231334567,-14.039787892104533,10.491388394972073,31,12,0.0,15,43003371840174,13,31.8,2.1196224689483643,0.04170000180602074,0,0.0,0.0,,,,,0,,1,,
Raw,253354247,32166000000000,,,-1221706837445788672,0.0,15.494850231334567,-14.039787892104533,10.491388394972073,31,14,0.0,15,43003366557223,14,30.1,-268.9427795410156,0.03480000048875809,0,0.0,0.0,,,,,0,,1,,
Raw,253354248,32166000000000,,,-1221706837445788672,0.0,15.494850231334567,-14.039787892104533,10.491388394972073,31,15,0.0,15,43003364071428,17,28.2,363.38385009765625,0.03930000215768814,0,0.0,0.0,,,,,0,,1,,
Raw,253354248,32166000000000,,,-1221706837445788672,0.0,15.494850231334567,-14.039787892104533,10.491388394972073,31,20,0.0,15,43003379139359,7,37.9,77.10417175292969,0.04910000041127205,0,0.0,0.0,,,,,0,,1,,
Raw,253354249,32166000000000,,,-1221706837445788672,0.0,15.494850231334567,-14.039787892104533,10.491388394972073,31,21,0.0,15,43003369828935,14,30.8,464.8693542480469,0.03930000215768814,0,0.0,0.0,,,,,0,,1,,
Raw,253354249,32166000000000,,,-1221706837445788672,0.0,15.494850231334567,-14.039787892104533,10.491388394972073,31,24,0.0,15,43003367696686,14,30.0,608.5006103515625,0.03629999980330467,0,0.0,0.0,,,,,0,,1,,
Raw,253354250,32166000000000,,,-1221706837445788672,0.0,15.494850231334567,-14.039787892104533,10.491388394972073,31,25,0.0,15,43003373001738,11,33.6,-413.0739440917969,0.04240000247955322,0,0.0,0.0,,,,,0,,1,,
Raw,253354250,32166000000000,,,-1221706837445788672,0.0,15.494850231334567,-14.039787892104533,10.491388394972073,31,31,0.0,15,43003369426934,13,31.3,-538.510986328125,0.038700003176927567,0,0.0,0.0,,,,,0,,1,,
Raw,253354250,32166000000000,,,-1221706837445788672,0.0,15.494850231334567,-14.039787892104533,10.491388394972073,31,32,0.0,15,43003370792270,12,32.6,-236.21788024902344,0.03890000283718109,0,0.0,0.0,,,,,0,,1,,
Raw,253355241,32167000000000,,,-1221706837445788672,0.0,17.869453586172312,-14.400146201717707,11.930772995297367,31,10,0.0,15,43004377071319,5,46.5,-327.5892639160156,0.04350000247359276,0,0.0,0.0,,,,,0,,1,,
Raw,253355242,32167000000000,,,-1221706837445788672,0.0,17.869453586172312,-14.400146201717707,11.930772995297367,31,12,0.0,15,43004371840174,4,44.1,1.9902875423431396,0.03480000048875809,0,0.0,0.0,,,,,0,,1,,
Raw,253355242,32167000000000,,,-1221706837445788672,0.0,17.869453586172312,-14.400146201717707,11.930772995297367,31,14,0.0,15,43004366558127,4,42.2,-269.5868835449219,0.027800001204013824,0,0.0,0.0,,,,,0,,1,,
Raw,253355243,32167000000000,,,-1221706837445788672,0.0,17.869453586172312,-14.400146201717707,11.930772995297367,31,15,0.0,15,43004364070195,5,40.6,364.10791015625,0.1925000101327896,0,0.0,0.0,,,,,0,,1,,
Raw,253355244,32167000000000,,,-1221706837445788672,0.0,17.869453586172312,-14.400146201717707,11.930772995297367,31,20,0.0,15,43004379139103,4,49.1,76.7504653930664,0.046300001442432404,0,0.0,0.0,,,,,0,,1,,
Raw,253355244,32167000000000,,,-1221706837445788672,0.0,17.869453586172312,-14.400146201717707,11.930772995297367,31,21,0.0,15,43004369827389,4,43.3,464.164306640625,0.17000000178813934,0,0.0,0.0,,,,,0,,1,,
Raw,253355246,32167000000000,,,-1221706837445788672,0.0,17.869453586172312,-14.400146201717707,11.930772995297367,31,24,0.0,15,43004367694648,5,41.5,608.9207153320312,0.18699999153614044,0,0.0,0.0,,,,,0,,1,,
Raw,253355247,32167000000000,,,-1221706837445788672,0.0,17.869453586172312,-14.400146201717707,11.930772995297367,31,25,0.0,15,43004373003106,4,45.4,-413.3453063964844,0.03760000318288803,0,0.0,0.0,,,,,0,,1,,
Raw,253355247,32167000000000,,,-1221706837445788672,0.0,17.869453586172312,-14.400146201717707,11.930772995297367,31,31,0.0,15,43004369428729,4,42.8,-538.6900634765625,0.03230000287294388,0,0.0,0.0,,,,,0,,1,,
Raw,253355248,32167000000000,,,-1221706837445788672,0.0,17.869453586172312,-14.400146201717707,11.930772995297367,31,32,0.0,15,43004370793052,4,44.6,-236.56991577148438,0.0333000011742115,0,0.0,0.0,,,,,0,,1,,
Raw,253356234,32168000000000,,,-1221706837445788672,0.0,14.678063052997459,-14.97452516389959,9.674602099585066,31,10,0.0,15,43005377072412,5,48.1,-327.99639892578125,0.04330000281333923,0,0.0,0.0,,,,,0,,1,,
Raw,253356235,32168000000000,,,-1221706837445788672,0.0,14.678063052997459,-14.97452516389959,9.674602099585066,31,12,0.0,15,43005371840169,5,46.4,1.6158370971679688,0.03450000286102295,0,0.0,0.0,,,,,0,,1,,
Raw,253356235,32168000000000,,,-1221706837445788672,0.0,14.678063052997459,-14.97452516389959,9.674602099585066,31,14,0.0,15,43005366559027,4,44.6,-270.0863342285156,0.027300002053380013,0,0.0,0.0,,,,,0,,1,,
Raw,253356236,32168000000000,,,-1221706837445788672,0.0,14.678063052997459,-14.97452516389959,9.674602099585066,31,15,0.0,15,43005364068977,4,42.4,363.5942687988281,0.024800000712275505,0,0.0,0.0,,,,,0,,1,,
Raw,253356237,32168000000000,,,-1221706837445788672,0.0,14.678063052997459,-14.97452516389959,9.674602099585066,31,20,0.0,15,43005379138846,4,50.9,76.36666870117188,0.046300001442432404,0,0.0,0.0,,,,,0,,1,,
Raw,253356237,32168000000000,,,-1221706837445788672,0.0,14.678063052997459,-14.97452516389959,9.674602099585066,31,21,0.0,15,43005369825837,4,45.2,463.6529846191406,0.03160000219941139,0,0.0,0.0,,,,,0,,1,,
Raw,253356238,32168000000000,,,-1221706837445788672,0.0,14.678063052997459,-14.97452516389959,9.674602099585066,31,24,0.0,15,43005367692607,4,42.6,608.5172729492188,0.02930000051856041,0,0.0,0.0,,,,,0,,1,,
Raw,253356238,32168000000000,,,-1221706837445788672,0.0,14.678063052997459,-14.97452516389959,9.674602099585066,31,25,0.0,15,43005373004482,5,47.6,-413.7530212402344,0.037300001829862595,0,0.0,0.0,,,,,0,,1,,
Raw,253356239,32168000000000,,,-1221706837445788672,0.0,14.678063052997459,-14.97452516389959,9.674602099585066,31,31,0.0,15,43005369430526,4,44.3,-539.1216430664062,0.03180000185966492,0,0.0,0.0,,,,,0,,1,,
Raw,253356239,32168000000000,,,-1221706837445788672,0.0,14.678063052997459,-14.97452516389959,9.674602099585066,31,32,0.0,15,43005370793844,5,46.9,-237.0706024169922,0.032999999821186066,0,0.0,0.0,,,,,0,,1,,
Raw,253357250,32169000000000,,,-1221706837445788672,0.0,14.5182366395602,-16.643851897892407,9.514774923939303,31,10,0.0,15,43006377073505,5,47.9,-328.4422607421875,0.04330000281333923,0,0.0,0.0,,,,,0,,1,,
Raw,253357251,32169000000000,,,-1221706837445788672,0.0,14.5182366395602,-16.643851897892407,9.514774923939303,31,12,0.0,15,43006371840162,5,46.8,1.2066588401794434,0.03450000286102295,0,0.0,0.0,,,,,0,,1,,
Raw,253357251,32169000000000,,,-1221706837445788672,0.0,14.5182366395602,-16.643851897892407,9.514774923939303,31,14,0.0,15,43006366559931,4,44.8,-270.61712646484375,0.027300002053380013,0,0.0,0.0,,,,,0,,1,,
Raw,253357252,32169000000000,,,-1221706837445788672,0.0,14.5182366395602,-16.643851897892407,9.514774923939303,31,15,0.0,15,43006364067761,4,42.6,363.0714111328125,0.024800000712275505,0,0.0,0.0,,,,,0,,1,,
Raw,253357252,32169000000000,,,-1221706837445788672,0.0,14.5182366395602,-16.643851897892407,9.514774923939303,31,20,0.0,15,43006379138591,4,51.4,75.95401763916016,0.046300001442432404,0,0.0,0.0,,,,,0,,1,,
Raw,253357254,32169000000000,,,-1221706837445788672,0.0,14.5182366395602,-16.643851897892407,9.514774923939303,31,21,0.0,15,43006369824292,4,45.8,463.15484619140625,0.03160000219941139,0,0.0,0.0,,,,,0,,1,,
Raw,253357255,32169000000000,,,-1221706837445788672,0.0,14.5182366395602,-16.643851897892407,9.514774923939303,31,24,0.0,15,43006367690581,4,43.0,607.9951782226562,0.029100000858306885,0,0.0,0.0,,,,,0,,1,,
Raw,253357255,32169000000000,,,-1221706837445788672,0.0,14.5182366395602,-16.643851897892407,9.514774923939303,31,25,0.0,15,43006373005860,5,47.4,-414.19610595703125,0.037300001829862595,0,0.0,0.0,,,,,0,,1,,
Raw,253357255,32169000000000,,,-1221706837445788672,0.0,14.5182366395602,-16.643851897892407,9.514774923939303,31,31,0.0,15,43006369432321,4,44.4,-539.5799560546875,0.03180000185966492,0,0.0,0.0,,,,,0,,1,,
Raw,253357256,32169000000000,,,-1221706837445788672,0.0,14.5182366395602,-16.643851897892407,9.514774923939303,31,32,0.0,15,43006370794629,5,47.0,-237.5889434814453,0.03280000016093254,0,0.0,0.0,,,,,0,,1,,
Raw,253358249,32170000000000,,,-1221706837445788928,0.0,14.518209354719147,-18.413196071890763,9.51474867973969,31,10,0.0,15,43007377074599,5,47.8,-329.0231018066406,0.04330000281333923,0,0.0,0.0,,,,,0,,1,,
Raw,253358250,32170000000000,,,-1221706837445788928,0.0,14.518209354719147,-18.413196071890763,9.51474867973969,31,12,0.0,15,43007371840156,4,45.9,0.6657823324203491,0.03460000082850456,0,0.0,0.0,,,,,0,,1,,
Raw,253358251,32170000000000,,,-1221706837445788928,0.0,14.518209354719147,-18.413196071890763,9.51474867973969,31,14,0.0,15,43007366560823,4,44.2,-271.2746276855469,0.027300002053380013,0,0.0,0.0,,,,,0,,1,,
Raw,253358251,32170000000000,,,-1221706837445788928,0.0,14.518209354719147,-18.413196071890763,9.51474867973969,31,15,0.0,15,43007364066554,4,42.2,362.4235534667969,0.024800000712275505,0,0.0,0.0,,,,,0,,1,,
Raw,253358252,32170000000000,,,-1221706837445788928,0.0,14.518209354719147,-18.413196071890763,9.51474867973969,31,20,0.0,15,43007379138332,4,50.9,75.39972686767578,0.046300001442432404,0,0.0,0.0,,,,,0,,1,,
Raw,253358252,32170000000000,,,-1221706837445788928,0.0,14.518209354719147,-18.413196071890763,9.51474867973969,31,21,0.0,15,43007369822741,4,45.1,462.52716064453125,0.03160000219941139,0,0.0,0.0,,,,,0,,1,,
Raw,253358253,32170000000000,,,-1221706837445788928,0.0,14.518209354719147,-18.413196071890763,9.51474867973969,31,24,0.0,15,43007367688550,4,42.6,607.3440551757812,0.02930000051856041,0,0.0,0.0,,,,,0,,1,,
Raw,253358254,32170000000000,,,-1221706837445788928,0.0,14.518209354719147,-18.413196071890763,9.51474867973969,31,25,0.0,15,43007373007241,5,46.9,-414.7745666503906,0.03750000149011612,0,0.0,0.0,,,,,0,,1,,
Raw,253358254,32170000000000,,,-1221706837445788928,0.0,14.518209354719147,-18.413196071890763,9.51474867973969,31,31,0.0,15,43007369434123,4,44.1,-540.1767578125,0.03180000185966492,0,0.0,0.0,,,,,0,,1,,
Raw,253358255,32170000000000,,,-1221706837445788928,0.0,14.518209354719147,-18.413196071890763,9.51474867973969,31,32,0.0,15,43007370795422,5,46.7,-238.24630737304688,0.032999999821186066,0,0.0,0.0,,,,,0,,1,,
Raw,253359212,32171000000000,,,-1221706837445788928,0.0,14.51819025533041,-20.595140418308535,9.514728797770285,31,10,0.0,15,43008377075696,5,46.9,-328.8441467285156,0.04350000247359276,0,0.0,0.0,,,,,0,,1,,
Raw,253359215,32171000000000,,,-1221706837445788928,0.0,14.51819025533041,-20.595140418308535,9.514728797770285,31,12,0.0,15,43008371840155,4,45.6,0.8906988501548767,0.03460000082850456,0,0.0,0.0,,,,,0,,1,,
Raw,253359216,32171000000000,,,-1221706837445788928,0.0,14.51819025533041,-20.595140418308535,9.514728797770285,31,14,0.0,15,43008366561732,4,43.6,-271.16778564453125,0.0276000015437603,0,0.0,0.0,,,,,0,,1,,
Raw,253359217,32171000000000,,,-1221706837445788928,0.0,14.51819025533041,-20.595140418308535,9.514728797770285,31,15,0.0,15,43008364065338,5,41.6,362.5334777832031,0.025100000202655792,0,0.0,0.0,,,,,0,,1,,
Raw,253359218,32171000000000,,,-1221706837445788928,0.0,14.51819025533041,-20.595140418308535,9.514728797770285,31,20,0.0,15,43008379138082,4,50.1,75.61225891113281,0.046300001442432404,0,0.0,0.0,,,,,0,,1,,
Raw,253359228,32171000000000,,,-1221706837445788928,0.0,14.51819025533041,-20.595140418308535,9.514728797770285,31,21,0.0,15,43008369821199,4,44.1,462.6595153808594,0.03180000185966492,0,0.0,0.0,,,,,0,,1,,
Raw,253359228,32171000000000,,,-1221706837445788928,0.0,14.51819025533041,-20.595140418308535,9.514728797770285,31,24,0.0,15,43008367686526,4,42.4,607.4579467773438,0.02930000051856041,0,0.0,0.0,,,,,0,,1,,
Raw,253359229,32171000000000,,,-1221706837445788928,0.0,14.51819025533041,-20.595140418308535,9.514728797770285,31,25,0.0,15,43008373008623,5,46.4,-414.59002685546875,0.03750000149011612,0,0.0,0.0,,,,,0,,1,,
Raw,253359229,32171000000000,,,-1221706837445788928,0.0,14.51819025533041,-20.595140418308535,9.514728797770285,31,31,0.0,15,43008369435923,4,44.4,-539.999755859375,0.03180000185966492,0,0.0,0.0,,,,,0,,1,,
Raw,253359229,32171000000000,,,-1221706837445788928,0.0,14.51819025533041,-20.595140418308535,9.514728797770285,31,32,0.0,15,43008370796211,4,45.8,-238.13980102539062,0.03310000151395798,0,0.0,0.0,,,,,0,,1,,
Raw,253360235,32172000000000,,,-1221706837445788928,0.0,14.518171155941673,-20.233562151052727,9.514709711079657,31,10,0.0,15,43009377076785,5,48.8,-328.7697448730469,0.04330000281333923,0,0.0,0.0,,,,,0,,1,,
Raw,253360236,32172000000000,,,-1221706837445788928,0.0,14.518171155941673,-20.233562151052727,9.514709711079657,31,12,0.0,15,43009371840149,4,45.3,1.002405047416687,0.03460000082850456,0,0.0,0.0,,,,,0,,1,,
Raw,253360236,32172000000000,,,-1221706837445788928,0.0,14.518171155941673,-20.233562151052727,9.514709711079657,31,14,0.0,15,43009366562629,4,43.2,-271.1767578125,0.0276000015437603,0,0.0,0.0,,,,,0,,1,,
Raw,253360237,32172000000000,,,-1221706837445788928,0.0,14.518171155941673,-20.233562151052727,9.514709711079657,31,15,0.0,15,43009364064126,5,41.2,362.5406799316406,0.025100000202655792,0,0.0,0.0,,,,,0,,1,,
Raw,253360237,32172000000000,,,-1221706837445788928,0.0,14.518171155941673,-20.233562151052727,9.514709711079657,31,20,0.0,15,43009379137829,4,50.8,75.71285247802734,0.046300001442432404,0,0.0,0.0,,,,,0,,1,,
Raw,253360237,32172000000000,,,-1221706837445788928,0.0,14.518171155941673,-20.233562151052727,9.514709711079657,31,21,0.0,15,43009369819647,4,44.2,462.6780090332031,0.03180000185966492,0,0.0,0.0,,,,,0,,1,,
Raw,253360238,32172000000000,,,-1221706837445788928,0.0,14.518171155941673,-20.233562151052727,9.514709711079657,31,24,0.0,15,43009367684491,5,41.8,607.457763671875,0.029600001871585846,0,0.0,0.0,,,,,0,,1,,
Raw,253360238,32172000000000,,,-1221706837445788928,0.0,14.518171155941673,-20.233562151052727,9.514709711079657,31,25,0.0,15,43009373009998,5,46.4,-414.5112609863281,0.03750000149011612,0,0.0,0.0,,,,,0,,1,,
Raw,253360238,32172000000000,,,-1221706837445788928,0.0,14.518171155941673,-20.233562151052727,9.514709711079657,31,31,0.0,15,43009369437716,4,44.1,-539.940185546875,0.03180000185966492,0,0.0,0.0,,,,,0,,1,,
Raw,253360238,32172000000000,,,-1221706837445788928,0.0,14.518171155941673,-20.233562151052727,9.514709711079657,31,32,0.0,15,43009370797005,4,45.7,-238.15042114257812,0.03310000151395798,0,0.0,0.0,,,,,0,,1,,
Raw,253361254,32173000000000,,,-1221706837445788928,0.0,14.518151147058234,-20.25012144573002,9.51469062438903,31,10,0.0,15,43010377077875,4,44.8,-328.8534240722656,0.043800003826618195,0,0.0,0.0,,,,,0,,1,,
Raw,253361255,32173000000000,,,-1221706837445788928,0.0,14.518151147058234,-20.25012144573002,9.51469062438903,31,12,0.0,15,43010371840138,5,41.3,0.9579848647117615,0.035600002855062485,0,0.0,0.0,,,,,0,,1,,
Raw,253361255,32173000000000,,,-1221706837445788928,0.0,14.518151147058234,-20.25012144573002,9.51469062438903,31,14,0.0,15,43010366563531,6,39.3,-271.3501892089844,0.028600001707673073,0,0.0,0.0,,,,,0,,1,,
Raw,253361256,32173000000000,,,-1221706837445788928,0.0,14.518151147058234,-20.25012144573002,9.51469062438903,31,15,0.0,15,43010364062904,7,37.4,362.37432861328125,0.026600001379847527,0,0.0,0.0,,,,,0,,1,,
Raw,253361256,32173000000000,,,-1221706837445788928,0.0,14.518151147058234,-20.25012144573002,9.51469062438903,31,20,0.0,15,43010379137566,5,46.8,75.66033172607422,0.04650000110268593,0,0.0,0.0,,,,,0,,1,,
Raw,253361258,32173000000000,,,-1221706837445788928,0.0,14.518151147058234,-20.25012144573002,9.51469062438903,31,21,0.0,15,43010369818094,5,40.1,462.5390625,0.03290000185370445,0,0.0,0.0,,,,,0,,1,,
Raw,253361258,32173000000000,,,-1221706837445788928,0.0,14.518151147058234,-20.25012144573002,9.51469062438903,31,24,0.0,15,43010367682464,6,39.0,608.2684936523438,0.030100001022219658,0,0.0,0.0,,,,,0,,1,,
Raw,253361259,32173000000000,,,-1221706837445788928,0.0,14.518151147058234,-20.25012144573002,9.51469062438903,31,25,0.0,15,43010373011372,4,42.5,-414.5949401855469,0.03830000013113022,0,0.0,0.0,,,,,0,,1,,
Raw,253361259,32173000000000,,,-1221706837445788928,0.0,14.518151147058234,-20.25012144573002,9.51469062438903,31,31,0.0,15,43010369439512,5,40.1,-540.0355224609375,0.03290000185370445,0,0.0,0.0,,,,,0,,1,,
Raw,253361260,32173000000000,,,-1221706837445788928,0.0,14.518151147058234,-20.25012144573002,9.51469062438903,31,32,0.0,15,43010370797789,5,41.6,-238.31459045410156,0.0340999998152256,0,0.0,0.0,,,,,0,,1,,
Raw,253362206,32174000000000,,,-1221706837445788928,0.0,14.542321878252551,-20.82563129433161,9.538860736954218,31,10,0.0,15,43011377078967,4,43.2,-329.33880615234375,0.04410000145435333,0,0.0,0.0,,,,,0,,1,,
Raw,253362206,32174000000000,,,-1221706837445788928,0.0,14.542321878252551,-20.82563129433161,9.538860736954218,31,12,0.0,15,43011371840131,5,40.3,0.5055193305015564,0.03590000048279762,0,0.0,0.0,,,,,0,,1,,
Raw,253362206,32174000000000,,,-1221706837445788928,0.0,14.542321878252551,-20.82563129433161,9.538860736954218,31,14,0.0,15,43011366564424,6,38.1,-271.9171447753906,0.029100000858306885,0,0.0,0.0,,,,,0,,1,,
Raw,253362206,32174000000000,,,-1221706837445788928,0.0,14.542321878252551,-20.82563129433161,9.538860736954218,31,15,0.0,15,43011364061702,8,36.2,361.7933654785156,0.0272000003606081,0,0.0,0.0,,,,,0,,1,,
Raw,253362207,32174000000000,,,-1221706837445788928,0.0,14.542321878252551,-20.82563129433161,9.538860736954218,31,20,0.0,15,43011379137304,4,45.4,75.20304870605469,0.04660000279545784,0,0.0,0.0,,,,,0,,1,,
Raw,253362207,32174000000000,,,-1221706837445788928,0.0,14.542321878252551,-20.82563129433161,9.538860736954218,31,21,0.0,15,43011369816556,6,39.2,461.99566650390625,0.03310000151395798,0,0.0,0.0,,,,,0,,1,,
Raw,253362207,32174000000000,,,-1221706837445788928,0.0,14.542321878252551,-20.82563129433161,9.538860736954218,31,24,0.0,15,43011367680430,6,38.1,606.59912109375,0.2369999885559082,0,0.0,0.0,,,,,0,,1,,
Raw,253362207,32174000000000,,,-1221706837445788928,0.0,14.542321878252551,-20.82563129433161,9.538860736954218,31,25,0.0,15,43011373012755,5,41.5,-415.08233642578125,0.038600001484155655,0,0.0,0.0,,,,,0,,1,,
Raw,253362208,32174000000000,,,-1221706837445788928,0.0,14.542321878252551,-20.82563129433161,9.538860736954218,31,31,0.0,15,43011369441312,6,39.1,-540.5411376953125,0.03310000151395798,0,0.0,0.0,,,,,0,,1,,
Raw,253362208,32174000000000,,,-1221706837445788928,0.0,14.542321878252551,-20.82563129433161,9.538860736954218,31,32,0.0,15,43011370798580,5,40.4,-238.89002990722656,0.03440000116825104,0,0.0,0.0,,,,,0,,1,,
Raw,253363234,32175000000000,,,-1221706837445788928,0.0,14.540652955474798,-22.776139973540225,9.53719144680305,31,10,0.0,15,43012377080064,5,46.2,-329.35711669921875,0.04350000247359276,0,0.0,0.0,,,,,0,,1,,
Raw,253363235,32175000000000,,,-1221706837445788928,0.0,14.540652955474798,-22.776139973540225,9.53719144680305,31,12,0.0,15,43012371840120,4,43.0,0.5341081619262695,0.035100001841783524,0,0.0,0.0,,,,,0,,1,,
Raw,253363236,32175000000000,,,-1221706837445788928,0.0,14.540652955474798,-22.776139973540225,9.53719144680305,31,14,0.0,15,43012366565337,5,41.0,-272.0055236816406,0.02810000069439411,0,0.0,0.0,,,,,0,,1,,
Raw,253363236,32175000000000,,,-1221706837445788928,0.0,14.540652955474798,-22.776139973540225,9.53719144680305,31,15,0.0,15,43012364060484,6,39.2,361.72637939453125,0.025600001215934753,0,0.0,0.0,,,,,0,,1,,
Raw,253363237,32175000000000,,,-1221706837445788928,0.0,14.540652955474798,-22.776139973540225,9.53719144680305,31,20,0.0,15,43012379137051,5,48.2,75.2113037109375,0.046300001442432404,0,0.0,0.0,,,,,0,,1,,
Raw,253363238,32175000000000,,,-1221706837445788928,0.0,14.540652955474798,-22.776139973540225,9.53719144680305,31,21,0.0,15,43012369815011,5,41.8,461.9364013671875,0.032600000500679016,0,0.0,0.0,,,,,0,,1,,
Raw,253363238,32175000000000,,,-1221706837445788928,0.0,14.540652955474798,-22.776139973540225,9.53719144680305,31,24,0.0,15,43012367678402,5,40.3,606.6512451171875,0.029900001361966133,0,0.0,0.0,,,,,0,,1,,
Raw,253363239,32175000000000,,,-1221706837445788928,0.0,14.540652955474798,-22.776139973540225,9.53719144680305,31,25,0.0,15,43012373014137,4,44.1,-415.0882263183594,0.037800002843141556,0,0.0,0.0,,,,,0,,1,,
Raw,253363239,32175000000000,,,-1221706837445788928,0.0,14.540652955474798,-22.776139973540225,9.53719144680305,31,31,0.0,15,43012369443110,5,41.5,-540.5599975585938,0.032600000500679016,0,0.0,0.0,,,,,0,,1,,
Raw,253363240,32175000000000,,,-1221706837445788928,0.0,14.540652955474798,-22.776139973540225,9.53719144680305,31,32,0.0,15,43012370799376,4,43.2,-238.9713134765625,0.03360000252723694,0,0.0,0.0,,,,,0,,1,,
Raw,253364235,32176000000000,,,-1221706837445788928,0.0,14.518093848892022,-23.004489959097864,9.514632569038369,31,10,0.0,15,43013377081171,5,48.3,-329.17633056640625,0.04330000281333923,0,0.0,0.0,,,,,0,,1,,
Raw,253364236,32176000000000,,,-1221706837445788928,0.0,14.518093848892022,-23.004489959097864,9.514632569038369,31,12,0.0,15,43013371840126,4,45.3,0.7505709528923035,0.03460000082850456,0,0.0,0.0,,,,,0,,1,,
Raw,253364236,32176000000000,,,-1221706837445788928,0.0,14.518093848892022,-23.004489959097864,9.514632569038369,31,14,0.0,15,43013366566246,4,43.6,-271.9139099121094,0.0276000015437603,0,0.0,0.0,,,,,0,,1,,
Raw,253364237,32176000000000,,,-1221706837445788928,0.0,14.518093848892022,-23.004489959097864,9.514632569038369,31,15,0.0,15,43013364059287,5,41.2,361.81329345703125,0.025100000202655792,0,0.0,0.0,,,,,0,,1,,
Raw,253364238,32176000000000,,,-1221706837445788928,0.0,14.518093848892022,-23.004489959097864,9.514632569038369,31,20,0.0,15,43013379136811,4,50.8,75.4265365600586,0.046300001442432404,0,0.0,0.0,,,,,0,,1,,
Raw,253364238,32176000000000,,,-1221706837445788928,0.0,14.518093848892022,-23.004489959097864,9.514632569038369,31,21,0.0,15,43013369813476,4,44.2,462.05914306640625,0.03180000185966492,0,0.0,0.0,,,,,0,,1,,
Raw,253364239,32176000000000,,,-1221706837445788928,0.0,14.518093848892022,-23.004489959097864,9.514632569038369,31,24,0.0,15,43013367676383,4,42.6,606.7476806640625,0.02930000051856041,0,0.0,0.0,,,,,0,,1,,
Raw,253364239,32176000000000,,,-1221706837445788928,0.0,14.518093848892022,-23.004489959097864,9.514632569038369,31,25,0.0,15,43013373015527,5,46.6,-414.91217041015625,0.03750000149011612,0,0.0,0.0,,,,,0,,1,,
Raw,253364240,32176000000000,,,-1221706837445788928,0.0,14.518093848892022,-23.004489959097864,9.514632569038369,31,31,0.0,15,43013369444918,4,44.3,-540.402587890625,0.03180000185966492,0,0.0,0.0,,,,,0,,1,,
Raw,253364240,32176000000000,,,-1221706837445788928,0.0,14.518093848892022,-23.004489959097864,9.514632569038369,31,32,0.0,15,43013370800173,4,45.4,-238.87147521972656,0.03310000151395798,0,0.0,0.0,,,,,0,,1,,
Raw,253365209,32177000000000,,,-1221706837445788928,0.0,14.518073840008583,-22.736500098221086,9.514612687068965,31,10,0.0,15,43014377082263,5,48.3,-329.49053955078125,0.04330000281333923,0,0.0,0.0,,,,,0,,1,,
Raw,253365209,32177000000000,,,-1221706837445788928,0.0,14.518073840008583,-22.736500098221086,9.514612687068965,31,12,0.0,15,43014371840122,5,46.7,0.47551366686820984,0.03450000286102295,0,0.0,0.0,,,,,0,,1,,
Raw,253365209,32177000000000,,,-1221706837445788928,0.0,14.518073840008583,-22.736500098221086,9.514612687068965,31,14,0.0,15,43014366567154,4,44.5,-272.31109619140625,0.027300002053380013,0,0.0,0.0,,,,,0,,1,,
Raw,253365210,32177000000000,,,-1221706837445788928,0.0,14.518073840008583,-22.736500098221086,9.514612687068965,31,15,0.0,15,43014364058072,4,42.4,361.4300537109375,0.024800000712275505,0,0.0,0.0,,,,,0,,1,,
Raw,253365210,32177000000000,,,-1221706837445788928,0.0,14.518073840008583,-22.736500098221086,9.514612687068965,31,20,0.0,15,43014379136551,4,51.7,75.14259338378906,0.046300001442432404,0,0.0,0.0,,,,,0,,1,,
Raw,253365211,32177000000000,,,-1221706837445788928,0.0,14.518073840008583,-22.736500098221086,9.514612687068965,31,21,0.0,15,43014369811931,4,45.1,461.6903076171875,0.03160000219941139,0,0.0,0.0,,,,,0,,1,,
Raw,253365211,32177000000000,,,-1221706837445788928,0.0,14.518073840008583,-22.736500098221086,9.514612687068965,31,24,0.0,15,43014367674362,4,43.4,606.3605346679688,0.029100000858306885,0,0.0,0.0,,,,,0,,1,,
Raw,253365214,32177000000000,,,-1221706837445788928,0.0,14.518073840008583,-22.736500098221086,9.514612687068965,31,25,0.0,15,43014373016910,5,47.7,-415.22186279296875,0.037300001829862595,0,0.0,0.0,,,,,0,,1,,
Raw,253365214,32177000000000,,,-1221706837445788928,0.0,14.518073840008583,-22.736500098221086,9.514612687068965,31,31,0.0,15,43014369446716,4,45.5,-540.7294311523438,0.03160000219941139,0,0.0,0.0,,,,,0,,1,,
Raw,253365215,32177000000000,,,-1221706837445788928,0.0,14.518073840008583,-22.736500098221086,9.514612687068965,31,32,0.0,15,43014370800973,5,46.5,-239.26451110839844,0.032999999821186066,0,0.0,0.0,,,,,0,,1,,
Raw,253366245,32178000000000,,,-1221706837445788928,0.0,14.518054740619846,-24.04920474229115,9.514593600378337,31,10,0.0,15,43015377083362,5,47.6,-330.1089782714844,0.04330000281333923,0,0.0,0.0,,,,,0,,1,,
Raw,253366246,32178000000000,,,-1221706837445788928,0.0,14.518054740619846,-24.04920474229115,9.514593600378337,31,12,0.0,15,43015371840120,5,46.8,-0.11190788447856903,0.03450000286102295,0,0.0,0.0,,,,,0,,1,,
Raw,253366247,32178000000000,,,-1221706837445788928,0.0,14.518054740619846,-24.04920474229115,9.514593600378337,31,14,0.0,15,43015366568054,4,44.7,-273.0173034667969,0.027300002053380013,0,0.0,0.0,,,,,0,,1,,
Raw,253366247,32178000000000,,,-1221706837445788928,0.0,14.518054740619846,-24.04920474229115,9.514593600378337,31,15,0.0,15,43015364056867,4,42.0,360.7256164550781,0.024800000712275505,0,0.0,0.0,,,,,0,,1,,
Raw,253366248,32178000000000,,,-1221706837445788928,0.0,14.518054740619846,-24.04920474229115,9.514593600378337,31,20,0.0,15,43015379136303,4,51.2,74.55390167236328,0.046300001442432404,0,0.0,0.0,,,,,0,,1,,
Raw,253366249,32178000000000,,,-1221706837445788928,0.0,14.518054740619846,-24.04920474229115,9.514593600378337,31,21,0.0,15,43015369810381,4,43.7,461.0163879394531,0.032099999487400055,0,0.0,0.0,,,,,0,,1,,
Raw,253366249,32178000000000,,,-1221706837445788928,0.0,14.518054740619846,-24.04920474229115,9.514593600378337,31,24,0.0,15,43015367672335,4,42.9,605.6607666015625,0.02930000051856041,0,0.0,0.0,,,,,0,,1,,
Raw,253366250,32178000000000,,,-1221706837445788928,0.0,14.518054740619846,-24.04920474229115,9.514593600378337,31,25,0.0,15,43015373018289,5,47.2,-415.84185791015625,0.037300001829862595,0,0.0,0.0,,,,,0,,1,,
Raw,253366251,32178000000000,,,-1221706837445788928,0.0,14.518054740619846,-24.04920474229115,9.514593600378337,31,31,0.0,15,43015369448518,4,44.4,-541.3631591796875,0.03180000185966492,0,0.0,0.0,,,,,0,,1,,
Raw,253366251,32178000000000,,,-1221706837445788928,0.0,14.518054740619846,-24.04920474229115,9.514593600378337,31,32,0.0,15,43015370801771,5,46.9,-239.97056579589844,0.032999999821186066,0,0.0,0.0,,,,,0,,1,,
Raw,253367248,32179000000000,,,-1221706837445788928,0.0,14.518034731736407,-26.418053916125526,9.514573718408933,31,10,0.0,15,43016377084459,5,47.4,-330.2919006347656,0.04330000281333923,0,0.0,0.0,,,,,0,,1,,
Raw,253367249,32179000000000,,,-1221706837445788928,0.0,14.518034731736407,-26.418053916125526,9.514573718408933,31,12,0.0,15,43016371840107,5,46.1,-0.2513387203216553,0.03450000286102295,0,0.0,0.0,,,,,0,,1,,
Raw,253367250,32179000000000,,,-1221706837445788928,0.0,14.518034731736407,-26.418053916125526,9.514573718408933,31,14,0.0,15,43016366568968,4,44.1,-273.27154541015625,0.027300002053380013,0,0.0,0.0,,,,,0,,1,,
Raw,253367250,32179000000000,,,-1221706837445788928,0.0,14.518034731736407,-26.418053916125526,9.514573718408933,31,15,0.0,15,43016364055665,5,41.7,360.4803771972656,0.025100000202655792,0,0.0,0.0,,,,,0,,1,,
Raw,253367251,32179000000000,,,-1221706837445788928,0.0,14.518034731736407,-26.418053916125526,9.514573718408933,31,20,0.0,15,43016379136051,4,49.9,74.39429473876953,0.046300001442432404,0,0.0,0.0,,,,,0,,1,,
Raw,253367252,32179000000000,,,-1221706837445788928,0.0,14.518034731736407,-26.418053916125526,9.514573718408933,31,21,0.0,15,43016369808846,4,44.6,460.78863525390625,0.03180000185966492,0,0.0,0.0,,,,,0,,1,,
Raw,253367252,32179000000000,,,-1221706837445788928,0.0,14.518034731736407,-26.418053916125526,9.514573718408933,31,24,0.0,15,43016367670310,4,43.3,605.4183349609375,0.029100000858306885,0,0.0,0.0,,,,,0,,1,,
Raw,253367253,32179000000000,,,-1221706837445788928,0.0,14.518034731736407,-26.418053916125526,9.514573718408933,31,25,0.0,15,43016373019673,5,47.3,-416.01995849609375,0.037300001829862595,0,0.0,0.0,,,,,0,,1,,
Raw,253367254,32179000000000,,,-1221706837445788928,0.0,14.518034731736407,-26.418053916125526,9.514573718408933,31,31,0.0,15,43016369450323,4,44.7,-541.5546875,0.03180000185966492,0,0.0,0.0,,,,,0,,1,,
Raw,253367254,32179000000000,,,-1221706837445788928,0.0,14.518034731736407,-26.418053916125526,9.514573718408933,31,32,0.0,15,43016370802565,4,45.5,-240.229248046875,0.03310000151395798,0,0.0,0.0,,,,,0,,1,,
Raw,253368210,32180000000000,,,-1221706837445788928,0.0,14.51801563234767,-27.23837443039381,9.514554631718305,31,10,0.0,15,43017377085558,5,47.7,-329.95355224609375,0.04330000281333923,0,0.0,0.0,,,,,0,,1,,
Raw,253368211,32180000000000,,,-1221706837445788928,0.0,14.51801563234767,-27.23837443039381,9.514554631718305,31,12,0.0,15,43017371840111,4,45.9,0.13067425787448883,0.03460000082850456,0,0.0,0.0,,,,,0,,1,,
Raw,253368211,32180000000000,,,-1221706837445788928,0.0,14.51801563234767,-27.23837443039381,9.514554631718305,31,14,0.0,15,43017366569874,4,43.6,-273.01361083984375,0.0276000015437603,0,0.0,0.0,,,,,0,,1,,
Raw,253368211,32180000000000,,,-1221706837445788928,0.0,14.51801563234767,-27.23837443039381,9.514554631718305,31,15,0.0,15,43017364054453,5,40.9,360.7413635253906,0.02540000155568123,0,0.0,0.0,,,,,0,,1,,
Raw,253368212,32180000000000,,,-1221706837445788928,0.0,14.51801563234767,-27.23837443039381,9.514554631718305,31,20,0.0,15,43017379135800,4,49.7,74.7681655883789,0.046300001442432404,0,0.0,0.0,,,,,0,,1,,
Raw,253368212,32180000000000,,,-1221706837445788928,0.0,14.51801563234767,-27.23837443039381,9.514554631718305,31,21,0.0,15,43017369807306,4,43.5,461.07208251953125,0.032099999487400055,0,0.0,0.0,,,,,0,,1,,
Raw,253368212,32180000000000,,,-1221706837445788928,0.0,14.51801563234767,-27.23837443039381,9.514554631718305,31,24,0.0,15,43017367668293,4,43.2,605.6732177734375,0.029100000858306885,0,0.0,0.0,,,,,0,,1,,
Raw,253368213,32180000000000,,,-1221706837445788928,0.0,14.51801563234767,-27.23837443039381,9.514554631718305,31,25,0.0,15,43017373021061,5,46.6,-415.6788330078125,0.03750000149011612,0,0.0,0.0,,,,,0,,1,,
Raw,253368213,32180000000000,,,-1221706837445788928,0.0,14.51801563234767,-27.23837443039381,9.514554631718305,31,31,0.0,15,43017369452119,4,44.6,-541.2308959960938,0.03180000185966492,0,0.0,0.0,,,,,0,,1,,
Raw,253368213,32180000000000,,,-1221706837445788928,0.0,14.51801563234767,-27.23837443039381,9.514554631718305,31,32,0.0,15,43017370803365,4,45.3,-239.97434997558594,0.03310000151395798,0,0.0,0.0,,,,,0,,1,,
Raw,253369217,32181000000000,,,-1221706837445788928,0.0,14.517996532958932,-26.402429869289,9.5145347497489,31,10,0.0,15,43018377086650,4,44.4,-330.1068115234375,0.043800003826618195,0,0.0,0.0,,,,,0,,1,,
Raw,253369218,32181000000000,,,-1221706837445788928,0.0,14.517996532958932,-26.402429869289,9.5145347497489,31,12,0.0,15,43018371840094,5,41.2,0.01527680829167366,0.035600002855062485,0,0.0,0.0,,,,,0,,1,,
Raw,253369219,32181000000000,,,-1221706837445788928,0.0,14.517996532958932,-26.402429869289,9.5145347497489,31,14,0.0,15,43018366570773,6,39.0,-273.2589416503906,0.028600001707673073,0,0.0,0.0,,,,,0,,1,,
Raw,253369219,32181000000000,,,-1221706837445788928,0.0,14.517996532958932,-26.402429869289,9.5145347497489,31,15,0.0,15,43018364053236,7,37.0,360.4980773925781,0.026600001379847527,0,0.0,0.0,,,,,0,,1,,
Raw,253369221,32181000000000,,,-1221706837445788928,0.0,14.517996532958932,-26.402429869289,9.5145347497489,31,20,0.0,15,43018379135539,5,46.3,74.64027404785156,0.04650000110268593,0,0.0,0.0,,,,,0,,1,,
Raw,253369221,32181000000000,,,-1221706837445788928,0.0,14.517996532958932,-26.402429869289,9.5145347497489,31,21,0.0,15,43018369805760,6,39.9,460.8624267578125,0.03310000151395798,0,0.0,0.0,,,,,0,,1,,
Raw,253369222,32181000000000,,,-1221706837445788928,0.0,14.517996532958932,-26.402429869289,9.5145347497489,31,24,0.0,15,43018367666258,6,38.9,605.4430541992188,0.03060000203549862,0,0.0,0.0,,,,,0,,1,,
Raw,253369222,32181000000000,,,-1221706837445788928,0.0,14.517996532958932,-26.402429869289,9.5145347497489,31,25,0.0,15,43018373022438,4,42.6,-415.8331604003906,0.03830000013113022,0,0.0,0.0,,,,,0,,1,,
Raw,253369223,32181000000000,,,-1221706837445788928,0.0,14.517996532958932,-26.402429869289,9.5145347497489,31,31,0.0,15,43018369453917,5,40.2,-541.3991088867188,0.03290000185370445,0,0.0,0.0,,,,,0,,1,,
Raw,253369223,32181000000000,,,-1221706837445788928,0.0,14.517996532958932,-26.402429869289,9.5145347497489,31,32,0.0,15,43018370804157,5,41.2,-240.2063446044922,0.0340999998152256,0,0.0,0.0,,,,,0,,1,,
Raw,253370244,32182000000000,,,-1221706837445788928,0.0,14.517976524075493,-27.217137305955116,9.514515663058273,31,10,0.0,15,43019377087746,4,43.3,-330.7503662109375,0.04410000145435333,0,0.0,0.0,,,,,0,,1,,
Raw,253370244,32182000000000,,,-1221706837445788928,0.0,14.517976524075493,-27.217137305955116,9.514515663058273,31,12,0.0,15,43019371840098,6,39.9,-0.5938481688499451,0.03610000014305115,0,0.0,0.0,,,,,0,,1,,
Raw,253370245,32182000000000,,,-1221706837445788928,0.0,14.517976524075493,-27.217137305955116,9.514515663058273,31,14,0.0,15,43019366571679,6,38.1,-273.9874572753906,0.029100000858306885,0,0.0,0.0,,,,,0,,1,,
Raw,253370246,32182000000000,,,-1221706837445788928,0.0,14.517976524075493,-27.217137305955116,9.514515663058273,31,15,0.0,15,43019364052034,9,35.9,359.78790283203125,0.0276000015437603,0,0.0,0.0,,,,,0,,1,,
Raw,253370246,32182000000000,,,-1221706837445788928,0.0,14.517976524075493,-27.217137305955116,9.514515663058273,31,20,0.0,15,43019379135289,4,45.0,74.02967834472656,0.04660000279545784,0,0.0,0.0,,,,,0,,1,,
Raw,253370247,32182000000000,,,-1221706837445788928,0.0,14.517976524075493,-27.217137305955116,9.514515663058273,31,21,0.0,15,43019369804226,6,38.9,460.167724609375,0.03360000252723694,0,0.0,0.0,,,,,0,,1,,
Raw,253370247,32182000000000,,,-1221706837445788928,0.0,14.517976524075493,-27.217137305955116,9.514515663058273,31,24,0.0,15,43019367664239,7,37.9,604.7173461914062,0.03110000118613243,0,0.0,0.0,,,,,0,,1,,
Raw,253370248,32182000000000,,,-1221706837445788928,0.0,14.517976524075493,-27.217137305955116,9.514515663058273,31,25,0.0,15,43019373023823,5,41.6,-416.4713134765625,0.038600001484155655,0,0.0,0.0,,,,,0,,1,,
Raw,253370249,32182000000000,,,-1221706837445788928,0.0,14.517976524075493,-27.217137305955116,9.514515663058273,31,31,0.0,15,43019369455723,6,38.9,-542.056640625,0.03360000252723694,0,0.0,0.0,,,,,0,,1,,
Raw,253370249,32182000000000,,,-1221706837445788928,0.0,14.517976524075493,-27.217137305955116,9.514515663058273,31,32,0.0,15,43019370804966,5,40.1,-240.9212188720703,0.03440000116825104,0,0.0,0.0,,,,,0,,1,,
Raw,253371216,32183000000000,,,-1221706837445789184,0.0,14.517957424686756,-29.636006333695132,9.514496576367646,31,10,0.0,15,43020377088851,4,49.2,-330.779541015625,0.04330000281333923,0,0.0,0.0,,,,,0,,1,,
Raw,253371217,32183000000000,,,-1221706837445789184,0.0,14.517957424686756,-29.636006333695132,9.514496576367646,31,12,0.0,15,43020371840103,4,45.7,-0.584030032157898,0.03460000082850456,0,0.0,0.0,,,,,0,,1,,
Raw,253371217,32183000000000,,,-1221706837445789184,0.0,14.517957424686756,-29.636006333695132,9.514496576367646,31,14,0.0,15,43020366572597,4,44.2,-274.0881042480469,0.027300002053380013,0,0.0,0.0,,,,,0,,1,,
Raw,253371217,32183000000000,,,-1221706837445789184,0.0,14.517957424686756,-29.636006333695132,9.514496576367646,31,15,0.0,15,43020364050834,5,41.1,359.68963623046875,0.025100000202655792,0,0.0,0.0,,,,,0,,1,,
Raw,253371217,32183000000000,,,-1221706837445789184,0.0,14.517957424686756,-29.636006333695132,9.514496576367646,31,20,0.0,15,43020379135044,4,51.1,74.02596282958984,0.046300001442432404,0,0.0,0.0,,,,,0,,1,,
Raw,253371218,32183000000000,,,-1221706837445789184,0.0,14.517957424686756,-29.636006333695132,9.514496576367646,31,21,0.0,15,43020369802691,4,44.5,460.0820617675781,0.03180000185966492,0,0.0,0.0,,,,,0,,1,,
Raw,253371218,32183000000000,,,-1221706837445789184,0.0,14.517957424686756,-29.636006333695132,9.514496576367646,31,24,0.0,15,43020367662216,4,43.0,604.6318969726562,0.029100000858306885,0,0.0,0.0,,,,,0,,1,,
Raw,253371218,32183000000000,,,-1221706837445789184,0.0,14.517957424686756,-29.636006333695132,9.514496576367646,31,25,0.0,15,43020373025214,5,46.8,-416.4989013671875,0.03750000149011612,0,0.0,0.0,,,,,0,,1,,
Raw,253371219,32183000000000,,,-1221706837445789184,0.0,14.517957424686756,-29.636006333695132,9.514496576367646,31,31,0.0,15,43020369457534,4,44.9,-542.0947265625,0.03180000185966492,0,0.0,0.0,,,,,0,,1,,
Raw,253371219,32183000000000,,,-1221706837445789184,0.0,14.517957424686756,-29.636006333695132,9.514496576367646,31,32,0.0,15,43020370805759,5,46.0,-241.02867126464844,0.032999999821186066,0,0.0,0.0,,,,,0,,1,,
Raw,253372231,32184000000000,,,-1221706837445789184,0.0,14.517938325298019,-29.96436739702811,9.514476694398242,31,10,0.0,15,43021377089957,5,48.3,-330.7998046875,0.04330000281333923,0,0.0,0.0,,,,,0,,1,,
Raw,253372232,32184000000000,,,-1221706837445789184,0.0,14.517938325298019,-29.96436739702811,9.514476694398242,31,12,0.0,15,43021371840105,5,47.3,-0.5662482380867004,0.034300003200769424,0,0.0,0.0,,,,,0,,1,,
Raw,253372233,32184000000000,,,-1221706837445789184,0.0,14.517938325298019,-29.96436739702811,9.514476694398242,31,14,0.0,15,43021366573513,4,45.3,-274.1956481933594,0.02710000053048134,0,0.0,0.0,,,,,0,,1,,
Raw,253372233,32184000000000,,,-1221706837445789184,0.0,14.517938325298019,-29.96436739702811,9.514476694398242,31,15,0.0,15,43021364049643,4,42.6,359.5854187011719,0.024800000712275505,0,0.0,0.0,,,,,0,,1,,
Raw,253372234,32184000000000,,,-1221706837445789184,0.0,14.517938325298019,-29.96436739702811,9.514476694398242,31,20,0.0,15,43021379134795,4,51.5,74.03541564941406,0.046300001442432404,0,0.0,0.0,,,,,0,,1,,
Raw,253372235,32184000000000,,,-1221706837445789184,0.0,14.517938325298019,-29.96436739702811,9.514476694398242,31,21,0.0,15,43021369801154,4,45.6,460.0088806152344,0.03160000219941139,0,0.0,0.0,,,,,0,,1,,
Raw,253372235,32184000000000,,,-1221706837445789184,0.0,14.517938325298019,-29.96436739702811,9.514476694398242,31,24,0.0,15,43021367660205,4,44.0,604.5269165039062,0.028800001367926598,0,0.0,0.0,,,,,0,,1,,
Raw,253372236,32184000000000,,,-1221706837445789184,0.0,14.517938325298019,-29.96436739702811,9.514476694398242,31,25,0.0,15,43021373026605,5,48.0,-416.517333984375,0.037300001829862595,0,0.0,0.0,,,,,0,,1,,
Raw,253372237,32184000000000,,,-1221706837445789184,0.0,14.517938325298019,-29.96436739702811,9.514476694398242,31,31,0.0,15,43021369459341,4,45.8,-542.1322631835938,0.03160000219941139,0,0.0,0.0,,,,,0,,1,,
Raw,253372237,32184000000000,,,-1221706837445789184,0.0,14.517938325298019,-29.96436739702811,9.514476694398242,31,32,0.0,15,43021370806565,5,47.2,-241.1357879638672,0.03280000016093254,0,0.0,0.0,,,,,0,,1,,
Raw,253373243,32185000000000,,,-1221706837445789184,0.0,14.51791831641458,-30.336796447905904,9.514456812428838,31,10,0.0,15,43022377091057,5,47.2,-330.4617004394531,0.04330000281333923,0,0.0,0.0,,,,,0,,1,,
Raw,253373245,32185000000000,,,-1221706837445789184,0.0,14.51791831641458,-30.336796447905904,9.514456812428838,31,12,0.0,15,43022371840105,5,46.2,-0.18591418862342834,0.03450000286102295,0,0.0,0.0,,,,,0,,1,,
Raw,253373246,32185000000000,,,-1221706837445789184,0.0,14.51791831641458,-30.336796447905904,9.514456812428838,31,14,0.0,15,43022366574430,4,44.9,-273.9353942871094,0.027300002053380013,0,0.0,0.0,,,,,0,,1,,
Raw,253373247,32185000000000,,,-1221706837445789184,0.0,14.51791831641458,-30.336796447905904,9.514456812428838,31,15,0.0,15,43022364048440,5,41.3,359.85479736328125,0.025100000202655792,0,0.0,0.0,,,,,0,,1,,
Raw,253373248,32185000000000,,,-1221706837445789184,0.0,14.51791831641458,-30.336796447905904,9.514456812428838,31,20,0.0,15,43022379134543,4,51.0,74.4015884399414,0.046300001442432404,0,0.0,0.0,,,,,0,,1,,
Raw,253373249,32185000000000,,,-1221706837445789184,0.0,14.51791831641458,-30.336796447905904,9.514456812428838,31,21,0.0,15,43022369799614,4,45.0,460.29864501953125,0.03160000219941139,0,0.0,0.0,,,,,0,,1,,
Raw,253373249,32185000000000,,,-1221706837445789184,0.0,14.51791831641458,-30.336796447905904,9.514456812428838,31,24,0.0,15,43022367658182,4,44.0,604.799072265625,0.028800001367926598,0,0.0,0.0,,,,,0,,1,,
Raw,253373250,32185000000000,,,-1221706837445789184,0.0,14.51791831641458,-30.336796447905904,9.514456812428838,31,25,0.0,15,43022373027987,5,47.1,-416.1746826171875,0.037300001829862595,0,0.0,0.0,,,,,0,,1,,
Raw,253373251,32185000000000,,,-1221706837445789184,0.0,14.51791831641458,-30.336796447905904,9.514456812428838,31,31,0.0,15,43022369461144,4,45.1,-541.8013305664062,0.03160000219941139,0,0.0,0.0,,,,,0,,1,,
Raw,253373251,32185000000000,,,-1221706837445789184,0.0,14.51791831641458,-30.336796447905904,9.514456812428838,31,32,0.0,15,43022370807365,5,47.1,-240.87513732910156,0.03280000016093254,0,0.0,0.0,,,,,0,,1,,
Raw,253374206,32186000000000,,,-1221706837445789184,0.0,14.517899217025843,-29.44852413388703,9.51443772573821,31,10,0.0,15,43023377092157,5,47.1,-330.6429748535156,0.04330000281333923,0,0.0,0.0,,,,,0,,1,,
Raw,253374209,32186000000000,,,-1221706837445789184,0.0,14.517899217025843,-29.44852413388703,9.51443772573821,31,12,0.0,15,43023371840100,5,46.6,-0.33602374792099,0.03450000286102295,0,0.0,0.0,,,,,0,,1,,
Raw,253374211,32186000000000,,,-1221706837445789184,0.0,14.517899217025843,-29.44852413388703,9.51443772573821,31,14,0.0,15,43023366575334,4,44.8,-274.2086181640625,0.027300002053380013,0,0.0,0.0,,,,,0,,1,,
Raw,253374213,32186000000000,,,-1221706837445789184,0.0,14.517899217025843,-29.44852413388703,9.51443772573821,31,15,0.0,15,43023364047235,4,42.0,359.5809326171875,0.024800000712275505,0,0.0,0.0,,,,,0,,1,,
Raw,253374214,32186000000000,,,-1221706837445789184,0.0,14.517899217025843,-29.44852413388703,9.51443772573821,31,20,0.0,15,43023379134294,4,51.0,74.24849700927734,0.046300001442432404,0,0.0,0.0,,,,,0,,1,,
