# 
# Header Description:
# 
# Version: v2.0.0.1 Platform: 8.0.0 Manufacturer: Xiaomi Model: MIX 2
# 
# Raw,ElapsedRealtimeMillis,TimeNanos,LeapSecond,TimeUncertaintyNanos,FullBiasNanos,BiasNanos,BiasUncertaintyNanos,DriftNanosPerSecond,DriftUncertaintyNanosPerSecond,HardwareClockDiscontinuityCount,Svid,TimeOffsetNanos,State,ReceivedSvTimeNanos,ReceivedSvTimeUncertaintyNanos,Cn0DbHz,PseudorangeRateMetersPerSecond,PseudorangeRateUncertaintyMetersPerSecond,AccumulatedDeltaRangeState,AccumulatedDeltaRangeMeters,AccumulatedDeltaRangeUncertaintyMeters,CarrierFrequencyHz,CarrierCycles,CarrierPhase,CarrierPhaseUncertainty,MultipathIndicator,SnrInDb,ConstellationType,AgcDb,CarrierFrequencyHz
# 
# Fix,Provider,Latitude,Longitude,Altitude,Speed,Accuracy,(UTC)TimeInMs
# 
# Nav,Svid,Type,Status,MessageId,Sub-messageId,Data(Bytes)
# 
Raw,258827552,35581440000000,,,-1221709575998527744,0.0,61.56572635518387,-0.543097168570692,14.600852297015873,111,14,0.0,207,59939363985129,54,20.7,-686.784912109375,2.5759999752044678,0,0.0,0.0,,,,,0,,3,,
Raw,258827552,35581440000000,,,-1221709575998527744,0.0,61.56572635518387,-0.543097168570692,14.600852297015873,111,2,0.0,207,59939373440774,46,20.5,90.53273010253906,1.1360000371932983,0,0.0,0.0,,,,,0,,3,,
Raw,258827553,35581440000000,,,-1221709575998527744,0.0,61.56572635518387,-0.543097168570692,14.600852297015873,111,13,0.0,207,59939374077780,49,22.7,-153.4379425048828,3.0475001335144043,0,0.0,0.0,,,,,0,,3,,
Raw,258827553,35581440000000,,,-1221709575998527744,0.0,61.56572635518387,-0.543097168570692,14.600852297015873,111,12,0.0,207,59939368148519,40,21.5,631.3765258789062,1.0584999322891235,0,0.0,0.0,,,,,0,,3,,
Raw,258827554,35581440000000,,,-1221709575998527744,0.0,61.56572635518387,-0.543097168570692,14.600852297015873,111,1,0.0,207,59939360177390,48,21.3,637.1533813476562,2.501500129699707,0,0.0,0.0,,,,,0,,3,,
Raw,258827554,35581440000000,,,-1221709575998527744,0.0,61.56572635518387,-0.543097168570692,14.600852297015873,111,3,0.0,207,59939369792882,35,22.5,-535.2621459960938,1.0,0,0.0,0.0,,,,,0,,3,,
Raw,258827555,35581440000000,,,-1221709575998527744,0.0,61.56572635518387,-0.543097168570692,14.600852297015873,111,10,0.0,15,49157367852204,34,24.8,475.03009033203125,2.0820000171661377,0,0.0,0.0,,,,,0,,1,,
Raw,258827556,35581440000000,,,-1221709575998527744,0.0,61.56572635518387,-0.543097168570692,14.600852297015873,111,14,0.0,15,49157367475742,40,21.6,-183.11007690429688,0.796999990940094,0,0.0,0.0,,,,,0,,1,,
Raw,258827556,35581440000000,,,-1221709575998527744,0.0,61.56572635518387,-0.543097168570692,14.600852297015873,111,18,0.0,15,49157358851947,567,19.8,258.32366943359375,2.1735000610351562,0,0.0,0.0,,,,,0,,1,,
Raw,258827557,35581440000000,,,-1221709575998527744,0.0,61.56572635518387,-0.543097168570692,14.600852297015873,111,20,0.0,15,49157360542548,42,23.5,686.4749145507812,2.6465001106262207,0,0.0,0.0,,,,,0,,1,,
Raw,258827557,35581440000000,,,-1221709575998527744,0.0,61.56572635518387,-0.543097168570692,14.600852297015873,111,22,0.0,15,49157356769973,31,23.1,-593.687744140625,0.750499963760376,0,0.0,0.0,,,,,0,,1,,
Raw,258827558,35581440000000,,,-1221709575998527744,0.0,61.56572635518387,-0.543097168570692,14.600852297015873,111,25,0.0,15,49157366033675,27,24.5,204.5561981201172,0.6255000233650208,0,0.0,0.0,,,,,0,,1,,
Raw,258827558,35581440000000,,,-1221709575998527744,0.0,61.56572635518387,-0.543097168570692,14.600852297015873,111,26,0.0,15,49157360645791,28,26.0,-689.7860107421875,2.0315001010894775,0,0.0,0.0,,,,,0,,1,,
Raw,258827559,35581440000000,,,-1221709575998527744,0.0,61.56572635518387,-0.543097168570692,14.600852297015873,111,31,0.0,15,49157370186376,70,17.9,-108.89555358886719,1.091499924659729,0,0.0,0.0,,,,,0,,1,,
Raw,258827559,35581440000000,,,-1221709575998527744,0.0,61.56572635518387,-0.543097168570692,14.600852297015873,111,32,0.0,15,49157368626645,24,25.1,1.6435987949371338,0.3937999904155731,0,0.0,0.0,,,,,0,,1,,
Raw,258827560,35581440000000,,,-1221709575998527744,0.0,61.56572635518387,-0.543097168570692,14.600852297015873,111,5,0.0,783,49143309331879,26,36.4,5.300290107727051,2.930000066757202,0,0.0,0.0,,,,,0,,5,,
Raw,258827560,35581440000000,,,-1221709575998527744,0.0,61.56572635518387,-0.543097168570692,14.600852297015873,111,21,0.0,3,16111845,28,24.8,-546.0546875,0.859499990940094,0,0.0,0.0,,,,,0,,5,,
Raw,258827561,35581440000000,,,-1221709575998527744,0.0,61.56572635518387,-0.543097168570692,14.600852297015873,111,22,0.0,1,527921,161,29.1,-128.73367309570312,68.45850372314453,0,0.0,0.0,,,,,0,,5,,
Raw,258828551,35582440000000,,,-1221709575998527744,0.0,65.41406764881685,-1.5633809877602034,15.314430493947366,111,14,0.0,207,59940363987419,73,20.7,-686.784912109375,4.076000213623047,0,0.0,0.0,,,,,0,,3,,
Raw,258828552,35582440000000,,,-1221709575998527744,0.0,65.41406764881685,-1.5633809877602034,15.314430493947366,111,2,0.0,207,59940373440389,81,16.8,91.91011810302734,1.4760000705718994,0,0.0,0.0,,,,,0,,3,,
Raw,258828552,35582440000000,,,-1221709575998527744,0.0,65.41406764881685,-1.5633809877602034,15.314430493947366,111,13,0.0,207,59940374078292,71,22.7,-153.4379425048828,4.547500133514404,0,0.0,0.0,,,,,0,,3,,
Raw,258828553,35582440000000,,,-1221709575998527744,0.0,65.41406764881685,-1.5633809877602034,15.314430493947366,111,12,0.0,207,59940368146518,35,22.3,634.0816040039062,0.9984999895095825,0,0.0,0.0,,,,,0,,3,,
Raw,258828553,35582440000000,,,-1221709575998527744,0.0,65.41406764881685,-1.5633809877602034,15.314430493947366,111,1,0.0,207,59940360175230,110,14.9,637.1066284179688,2.426500082015991,0,0.0,0.0,,,,,0,,3,,
Raw,258828554,35582440000000,,,-1221709575998527744,0.0,65.41406764881685,-1.5633809877602034,15.314430493947366,111,3,0.0,207,59940369794760,35,22.7,-534.3748168945312,1.0,0,0.0,0.0,,,,,0,,3,,
Raw,258828554,35582440000000,,,-1221709575998527744,0.0,65.41406764881685,-1.5633809877602034,15.314430493947366,111,10,0.0,15,49158367850685,110,14.1,475.0681457519531,2.236999988555908,0,0.0,0.0,,,,,0,,1,,
Raw,258828554,35582440000000,,,-1221709575998527744,0.0,65.41406764881685,-1.5633809877602034,15.314430493947366,111,14,0.0,15,49158367476309,46,20.5,-182.30133056640625,0.8569999933242798,0,0.0,0.0,,,,,0,,1,,
Raw,258828555,35582440000000,,,-1221709575998527744,0.0,65.41406764881685,-1.5633809877602034,15.314430493947366,111,18,0.0,15,49158358851059,759,18.3,258.2665710449219,3.0835001468658447,0,0.0,0.0,,,,,0,,1,,
Raw,258828555,35582440000000,,,-1221709575998527744,0.0,65.41406764881685,-1.5633809877602034,15.314430493947366,111,20,0.0,15,49158360540258,63,23.5,686.4749145507812,4.146500110626221,0,0.0,0.0,,,,,0,,1,,
Raw,258828556,35582440000000,,,-1221709575998527744,0.0,65.41406764881685,-1.5633809877602034,15.314430493947366,111,22,0.0,15,49158356772025,31,23.1,-592.4984130859375,0.750499963760376,0,0.0,0.0,,,,,0,,1,,
Raw,258828556,35582440000000,,,-1221709575998527744,0.0,65.41406764881685,-1.5633809877602034,15.314430493947366,111,25,0.0,15,49158366032975,27,24.2,206.66844177246094,0.6754999756813049,0,0.0,0.0,,,,,0,,1,,
Raw,258828556,35582440000000,,,-1221709575998527744,0.0,65.41406764881685,-1.5633809877602034,15.314430493947366,111,26,0.0,15,49158360648204,84,16.7,-689.4054565429688,1.9164999723434448,0,0.0,0.0,,,,,0,,1,,
Raw,258828557,35582440000000,,,-1221709575998527744,0.0,65.41406764881685,-1.5633809877602034,15.314430493947366,111,31,0.0,15,49158370186739,79,17.9,-108.89555358886719,2.5915000438690186,0,0.0,0.0,,,,,0,,1,,
Raw,258828557,35582440000000,,,-1221709575998527744,0.0,65.41406764881685,-1.5633809877602034,15.314430493947366,111,32,0.0,15,49158368626569,27,24.2,2.607023239135742,0.6784999966621399,0,0.0,0.0,,,,,0,,1,,
Raw,258828557,35582440000000,,,-1221709575998527744,0.0,65.41406764881685,-1.5633809877602034,15.314430493947366,111,5,0.0,783,49144309331866,47,21.0,1.3538784980773926,2.1500000953674316,0,0.0,0.0,,,,,0,,5,,
Raw,258828558,35582440000000,,,-1221709575998527744,0.0,65.41406764881685,-1.5633809877602034,15.314430493947366,111,21,0.0,3,16113661,21,26.4,-545.0610961914062,0.13520000874996185,0,0.0,0.0,,,,,0,,5,,
Raw,258828558,35582440000000,,,-1221709575998527744,0.0,65.41406764881685,-1.5633809877602034,15.314430493947366,111,22,0.0,1,528350,398,29.1,-128.73367309570312,69.95850372314453,0,0.0,0.0,,,,,0,,5,,
Raw,258829568,35583440000000,,,-1221709575998527744,0.0,65.21568866446614,0.9460561763866645,14.023118848956127,111,14,0.0,207,59941363989710,101,20.7,-686.784912109375,5.576000213623047,0,0.0,0.0,,,,,0,,3,,
Raw,258829569,35583440000000,,,-1221709575998527744,0.0,65.21568866446614,0.9460561763866645,14.023118848956127,111,2,0.0,207,59941373440083,91,16.8,91.91011810302734,2.9760000705718994,0,0.0,0.0,,,,,0,,3,,
Raw,258829570,35583440000000,,,-1221709575998527744,0.0,65.21568866446614,0.9460561763866645,14.023118848956127,111,13,0.0,207,59941374078804,103,22.7,-153.4379425048828,6.047500133514404,0,0.0,0.0,,,,,0,,3,,
Raw,258829571,35583440000000,,,-1221709575998527744,0.0,65.21568866446614,0.9460561763866645,14.023118848956127,111,12,0.0,207,59941368144458,31,23.1,633.9130859375,0.9384999871253967,0,0.0,0.0,,,,,0,,3,,
Raw,258829572,35583440000000,,,-1221709575998527744,0.0,65.21568866446614,0.9460561763866645,14.023118848956127,111,1,0.0,207,59941360173105,126,14.9,637.1066284179688,3.926500082015991,0,0.0,0.0,,,,,0,,3,,
Raw,258829573,35583440000000,,,-1221709575998527744,0.0,65.21568866446614,0.9460561763866645,14.023118848956127,111,3,0.0,207,59941369796551,31,23.0,-533.0391235351562,0.9399999976158142,0,0.0,0.0,,,,,0,,3,,
Raw,258829574,35583440000000,,,-1221709575998527744,0.0,65.21568866446614,0.9460561763866645,14.023118848956127,111,10,0.0,15,49159367849100,125,14.1,475.0681457519531,3.7370002269744873,0,0.0,0.0,,,,,0,,1,,
Raw,258829575,35583440000000,,,-1221709575998527744,0.0,65.21568866446614,0.9460561763866645,14.023118848956127,111,18,0.0,15,49159358850220,883,17.2,258.1238708496094,3.9235000610351562,0,0.0,0.0,,,,,0,,1,,
Raw,258829576,35583440000000,,,-1221709575998527744,0.0,65.21568866446614,0.9460561763866645,14.023118848956127,111,20,0.0,15,49159360537983,150,12.7,686.884033203125,3.126500129699707,0,0.0,0.0,,,,,0,,1,,
Raw,258829577,35583440000000,,,-1221709575998527744,0.0,65.21568866446614,0.9460561763866645,14.023118848956127,111,22,0.0,15,49159356773963,31,23.2,-592.2890625,0.750499963760376,0,0.0,0.0,,,,,0,,1,,
Raw,258829578,35583440000000,,,-1221709575998527744,0.0,65.21568866446614,0.9460561763866645,14.023118848956127,111,25,0.0,15,49159366032294,35,22.6,206.18319702148438,0.7354999780654907,0,0.0,0.0,,,,,0,,1,,
Raw,258829579,35583440000000,,,-1221709575998527744,0.0,65.21568866446614,0.9460561763866645,14.023118848956127,111,26,0.0,15,49159360650471,46,20.5,-688.3778076171875,0.8464999794960022,0,0.0,0.0,,,,,0,,1,,
Raw,258829580,35583440000000,,,-1221709575998527744,0.0,65.21568866446614,0.9460561763866645,14.023118848956127,111,31,0.0,15,49159370187220,73,17.9,-108.50545501708984,1.841499924659729,0,0.0,0.0,,,,,0,,1,,
Raw,258829581,35583440000000,,,-1221709575998527744,0.0,65.21568866446614,0.9460561763866645,14.023118848956127,111,32,0.0,15,49159368626661,35,22.7,3.491888999938965,0.7384999990463257,0,0.0,0.0,,,,,0,,1,,
Raw,258829581,35583440000000,,,-1221709575998527744,0.0,65.21568866446614,0.9460561763866645,14.023118848956127,111,5,0.0,783,49145309331862,64,21.0,1.3538784980773926,3.6500000953674316,0,0.0,0.0,,,,,0,,5,,
Raw,258829582,35583440000000,,,-1221709575998527744,0.0,65.21568866446614,0.9460561763866645,14.023118848956127,111,21,0.0,3,16115473,31,23.3,-544.59521484375,0.6004999876022339,0,0.0,0.0,,,,,0,,5,,
Raw,258829583,35583440000000,,,-1221709575998527744,0.0,65.21568866446614,0.9460561763866645,14.023118848956127,111,22,0.0,1,528780,645,29.1,-128.73367309570312,71.45850372314453,0,0.0,0.0,,,,,0,,5,,
Raw,258830575,35584440000000,,,-1221709575998527744,0.0,64.36495459638536,1.5192350628953166,13.511999541745466,111,14,0.0,207,59942363992001,140,20.7,-686.784912109375,7.076000213623047,0,0.0,0.0,,,,,0,,3,,
Raw,258830575,35584440000000,,,-1221709575998527744,0.0,64.36495459638536,1.5192350628953166,13.511999541745466,111,2,0.0,207,59942373439888,97,15.7,93.296875,2.326000213623047,0,0.0,0.0,,,,,0,,3,,
Raw,258830575,35584440000000,,,-1221709575998527744,0.0,64.36495459638536,1.5192350628953166,13.511999541745466,111,13,0.0,207,59942374079316,145,22.7,-153.4379425048828,7.547500133514404,0,0.0,0.0,,,,,0,,3,,
Raw,258830576,35584440000000,,,-1221709575998527744,0.0,64.36495459638536,1.5192350628953166,13.511999541745466,111,12,0.0,207,59942368142176,46,20.6,633.7633056640625,1.128499984741211,0,0.0,0.0,,,,,0,,3,,
Raw,258830576,35584440000000,,,-1221709575998527744,0.0,64.36495459638536,1.5192350628953166,13.511999541745466,111,1,0.0,207,59942360170980,152,14.9,637.1066284179688,5.42650032043457,0,0.0,0.0,,,,,0,,3,,
Raw,258830577,35584440000000,,,-1221709575998527744,0.0,64.36495459638536,1.5192350628953166,13.511999541745466,111,3,0.0,207,59942369798173,35,22.3,-533.0391235351562,1.0,0,0.0,0.0,,,,,0,,3,,
Raw,258830577,35584440000000,,,-1221709575998527744,0.0,64.36495459638536,1.5192350628953166,13.511999541745466,111,10,0.0,15,49160367847516,150,14.1,475.0681457519531,5.236999988555908,0,0.0,0.0,,,,,0,,1,,
Raw,258830578,35584440000000,,,-1221709575998527744,0.0,64.36495459638536,1.5192350628953166,13.511999541745466,111,20,0.0,15,49160360535502,61,18.2,688.4158935546875,1.0764999389648438,0,0.0,0.0,,,,,0,,1,,
Raw,258830579,35584440000000,,,-1221709575998527744,0.0,64.36495459638536,1.5192350628953166,13.511999541745466,111,22,0.0,15,49160356775848,46,20.7,-591.8132934570312,0.8704999685287476,0,0.0,0.0,,,,,0,,1,,
Raw,258830579,35584440000000,,,-1221709575998527744,0.0,64.36495459638536,1.5192350628953166,13.511999541745466,111,25,0.0,15,49160366031576,27,24.4,206.6018524169922,0.6754999756813049,0,0.0,0.0,,,,,0,,1,,
Raw,258830580,35584440000000,,,-1221709575998527744,0.0,64.36495459638536,1.5192350628953166,13.511999541745466,111,26,0.0,15,49160360652750,61,18.2,-687.5595703125,1.0764999389648438,0,0.0,0.0,,,,,0,,1,,
Raw,258830580,35584440000000,,,-1221709575998527744,0.0,64.36495459638536,1.5192350628953166,13.511999541745466,111,31,0.0,15,49160370187701,40,21.3,-108.7908935546875,0.8614999651908875,0,0.0,0.0,,,,,0,,1,,
Raw,258830580,35584440000000,,,-1221709575998527744,0.0,64.36495459638536,1.5192350628953166,13.511999541745466,111,32,0.0,15,49160368626529,61,18.2,3.5489768981933594,1.088499903678894,0,0.0,0.0,,,,,0,,1,,
Raw,258830581,35584440000000,,,-1221709575998527744,0.0,64.36495459638536,1.5192350628953166,13.511999541745466,111,5,0.0,783,49146309331857,91,21.0,1.3538784980773926,5.150000095367432,0,0.0,0.0,,,,,0,,5,,
Raw,258830581,35584440000000,,,-1221709575998527744,0.0,64.36495459638536,1.5192350628953166,13.511999541745466,111,21,0.0,3,16117300,35,22.0,-544.5279541015625,0.640500009059906,0,0.0,0.0,,,,,0,,5,,
Raw,258830582,35584440000000,,,-1221709575998527744,0.0,64.36495459638536,1.5192350628953166,13.511999541745466,111,22,0.0,1,529209,901,29.1,-128.73367309570312,72.95850372314453,0,0.0,0.0,,,,,0,,5,,
Raw,258831561,35585440000000,,,-1221709575998527744,0.0,66.21142529183999,2.76282670079174,12.54844931988997,111,14,0.0,207,59943363994292,188,20.7,-686.784912109375,8.576000213623047,0,0.0,0.0,,,,,0,,3,,
Raw,258831561,35585440000000,,,-1221709575998527744,0.0,66.21142529183999,2.76282670079174,12.54844931988997,111,2,0.0,207,59943373439569,93,15.7,94.31820678710938,1.5760000944137573,0,0.0,0.0,,,,,0,,3,,
Raw,258831562,35585440000000,,,-1221709575998527744,0.0,66.21142529183999,2.76282670079174,12.54844931988997,111,13,0.0,207,59943374079828,197,22.7,-153.4379425048828,9.047500610351562,0,0.0,0.0,,,,,0,,3,,
Raw,258831562,35585440000000,,,-1221709575998527744,0.0,66.21142529183999,2.76282670079174,12.54844931988997,111,12,0.0,207,59943368140233,46,20.7,634.2032470703125,1.128499984741211,0,0.0,0.0,,,,,0,,3,,
Raw,258831563,35585440000000,,,-1221709575998527744,0.0,66.21142529183999,2.76282670079174,12.54844931988997,111,1,0.0,207,59943360168905,151,12.0,638.434814453125,3.426500082015991,0,0.0,0.0,,,,,0,,3,,
Raw,258831563,35585440000000,,,-1221709575998527744,0.0,66.21142529183999,2.76282670079174,12.54844931988997,111,3,0.0,207,59943369800128,31,23.4,-532.7682495117188,0.9399999976158142,0,0.0,0.0,,,,,0,,3,,
Raw,258831564,35585440000000,,,-1221709575998527744,0.0,66.21142529183999,2.76282670079174,12.54844931988997,111,10,0.0,15,49161367845810,90,16.4,477.6466369628906,2.767000198364258,0,0.0,0.0,,,,,0,,1,,
Raw,258831564,35585440000000,,,-1221709575998527744,0.0,66.21142529183999,2.76282670079174,12.54844931988997,111,20,0.0,15,49161360533404,46,20.0,689.2151489257812,0.9164999723434448,0,0.0,0.0,,,,,0,,1,,
Raw,258831565,35585440000000,,,-1221709575998527744,0.0,66.21142529183999,2.76282670079174,12.54844931988997,111,22,0.0,15,49161356778039,70,17.9,-590.89990234375,1.1004999876022339,0,0.0,0.0,,,,,0,,1,,
Raw,258831565,35585440000000,,,-1221709575998527744,0.0,66.21142529183999,2.76282670079174,12.54844931988997,111,25,0.0,15,49161366030921,27,24.4,207.04904174804688,0.6754999756813049,0,0.0,0.0,,,,,0,,1,,
Raw,258831566,35585440000000,,,-1221709575998527744,0.0,66.21142529183999,2.76282670079174,12.54844931988997,111,26,0.0,15,49161360654878,53,19.2,-688.0447998046875,0.9965000152587891,0,0.0,0.0,,,,,0,,1,,
Raw,258831566,35585440000000,,,-1221709575998527744,0.0,66.21142529183999,2.76282670079174,12.54844931988997,111,31,0.0,15,49161370188064,48,21.3,-108.7908935546875,2.3615000247955322,0,0.0,0.0,,,,,0,,1,,
Raw,258831566,35585440000000,,,-1221709575998527744,0.0,66.21142529183999,2.76282670079174,12.54844931988997,111,32,0.0,15,49161368626624,53,19.5,4.452871799468994,0.9284999966621399,0,0.0,0.0,,,,,0,,1,,
Raw,258831567,35585440000000,,,-1221709575998527744,0.0,66.21142529183999,2.76282670079174,12.54844931988997,111,5,0.0,783,49147309331853,129,21.0,1.3538784980773926,6.650000095367432,0,0.0,0.0,,,,,0,,5,,
Raw,258831567,35585440000000,,,-1221709575998527744,0.0,66.21142529183999,2.76282670079174,12.54844931988997,111,21,0.0,3,16119130,40,21.0,-543.6830444335938,0.6904999613761902,0,0.0,0.0,,,,,0,,5,,
Raw,258831568,35585440000000,,,-1221709575998527744,0.0,66.21142529183999,2.76282670079174,12.54844931988997,111,22,0.0,1,529638,1168,29.1,-128.73367309570312,74.45850372314453,0,0.0,0.0,,,,,0,,5,,
Raw,258832583,35586440000000,,,-1221709575998527744,0.0,69.30932431714609,4.243770581762445,13.578033129087949,111,14,0.0,207,59944363996583,247,20.7,-686.784912109375,10.076000213623047,0,0.0,0.0,,,,,0,,3,,
Raw,258832583,35586440000000,,,-1221709575998527744,0.0,69.30932431714609,4.243770581762445,13.578033129087949,111,2,0.0,207,59944373439255,103,15.7,94.31820678710938,3.076000213623047,0,0.0,0.0,,,,,0,,3,,
Raw,258832584,35586440000000,,,-1221709575998527744,0.0,69.30932431714609,4.243770581762445,13.578033129087949,111,13,0.0,207,59944374080339,260,22.7,-153.4379425048828,10.547500610351562,0,0.0,0.0,,,,,0,,3,,
Raw,258832584,35586440000000,,,-1221709575998527744,0.0,69.30932431714609,4.243770581762445,13.578033129087949,111,12,0.0,207,59944368138111,40,21.2,633.7540283203125,1.0584999322891235,0,0.0,0.0,,,,,0,,3,,
Raw,258832585,35586440000000,,,-1221709575998527744,0.0,69.30932431714609,4.243770581762445,13.578033129087949,111,1,0.0,207,59944360166959,40,21.0,637.8642578125,1.0464999675750732,0,0.0,0.0,,,,,0,,3,,
Raw,258832585,35586440000000,,,-1221709575998527744,0.0,69.30932431714609,4.243770581762445,13.578033129087949,111,3,0.0,207,59944369801827,46,20.1,-532.7962646484375,1.1299999952316284,0,0.0,0.0,,,,,0,,3,,
Raw,258832586,35586440000000,,,-1221709575998527744,0.0,69.30932431714609,4.243770581762445,13.578033129087949,111,10,0.0,15,49162367844211,46,20.0,477.8940124511719,0.9269999861717224,0,0.0,0.0,,,,,0,,1,,
Raw,258832586,35586440000000,,,-1221709575998527744,0.0,69.30932431714609,4.243770581762445,13.578033129087949,111,14,0.0,15,49162367478733,652,19.2,-181.24520874023438,2.057000160217285,0,0.0,0.0,,,,,0,,1,,
Raw,258832587,35586440000000,,,-1221709575998527744,0.0,69.30932431714609,4.243770581762445,13.578033129087949,111,20,0.0,15,49162360531130,27,24.5,688.5396118164062,0.6165000200271606,0,0.0,0.0,,,,,0,,1,,
Raw,258832587,35586440000000,,,-1221709575998527744,0.0,69.30932431714609,4.243770581762445,13.578033129087949,111,22,0.0,15,49162356779654,40,21.4,-592.0416259765625,0.8704999685287476,0,0.0,0.0,,,,,0,,1,,
Raw,258832587,35586440000000,,,-1221709575998527744,0.0,69.30932431714609,4.243770581762445,13.578033129087949,111,25,0.0,15,49162366030160,46,20.7,206.08804321289062,0.8554999828338623,0,0.0,0.0,,,,,0,,1,,
Raw,258832588,35586440000000,,,-1221709575998527744,0.0,69.30932431714609,4.243770581762445,13.578033129087949,111,26,0.0,15,49162360657498,61,18.4,-687.4454345703125,1.0764999389648438,0,0.0,0.0,,,,,0,,1,,
Raw,258832588,35586440000000,,,-1221709575998527744,0.0,69.30932431714609,4.243770581762445,13.578033129087949,111,31,0.0,15,49162370188371,73,17.2,-107.8965072631836,1.93149995803833,0,0.0,0.0,,,,,0,,1,,
Raw,258832589,35586440000000,,,-1221709575998527744,0.0,69.30932431714609,4.243770581762445,13.578033129087949,111,32,0.0,15,49162368626609,61,19.5,4.452871799468994,2.428499937057495,0,0.0,0.0,,,,,0,,1,,
Raw,258832589,35586440000000,,,-1221709575998527744,0.0,69.30932431714609,4.243770581762445,13.578033129087949,111,5,0.0,783,49148309331848,176,21.0,1.3538784980773926,8.15000057220459,0,0.0,0.0,,,,,0,,5,,
Raw,258832590,35586440000000,,,-1221709575998527744,0.0,69.30932431714609,4.243770581762445,13.578033129087949,111,21,0.0,3,16120901,53,19.6,-544.8928833007812,0.8104999661445618,0,0.0,0.0,,,,,0,,5,,
Raw,258832590,35586440000000,,,-1221709575998527744,0.0,69.30932431714609,4.243770581762445,13.578033129087949,111,22,0.0,1,530068,1444,29.1,-128.73367309570312,75.95850372314453,0,0.0,0.0,,,,,0,,5,,
Raw,258833546,35587440000000,,,-1221709575998527744,0.0,65.83930371562019,2.065216906406851,13.063240429210184,111,14,0.0,207,59945363998904,249,10.1,-686.156494140625,6.7310004234313965,0,0.0,0.0,,,,,0,,3,,
Raw,258833547,35587440000000,,,-1221709575998527744,0.0,65.83930371562019,2.065216906406851,13.063240429210184,111,2,0.0,207,59945373438833,74,17.3,93.12821960449219,2.136000156402588,0,0.0,0.0,,,,,0,,3,,
Raw,258833547,35587440000000,,,-1221709575998527744,0.0,65.83930371562019,2.065216906406851,13.063240429210184,111,13,0.0,207,59945374080851,332,22.7,-153.4379425048828,12.047500610351562,0,0.0,0.0,,,,,0,,3,,
Raw,258833547,35587440000000,,,-1221709575998527744,0.0,65.83930371562019,2.065216906406851,13.063240429210184,111,12,0.0,207,59945368136034,61,18.3,634.9240112304688,1.2884999513626099,0,0.0,0.0,,,,,0,,3,,
Raw,258833548,35587440000000,,,-1221709575998527744,0.0,65.83930371562019,2.065216906406851,13.063240429210184,111,1,0.0,207,59945360164721,46,20.8,639.0615234375,1.1165000200271606,0,0.0,0.0,,,,,0,,3,,
Raw,258833548,35587440000000,,,-1221709575998527744,0.0,65.83930371562019,2.065216906406851,13.063240429210184,111,3,0.0,207,59945369803520,70,17.9,-532.23583984375,1.3799999952316284,0,0.0,0.0,,,,,0,,3,,
Raw,258833549,35587440000000,,,-1221709575998527744,0.0,65.83930371562019,2.065216906406851,13.063240429210184,111,10,0.0,15,49163367842608,40,21.4,477.6466369628906,0.8569999933242798,0,0.0,0.0,,,,,0,,1,,
Raw,258833549,35587440000000,,,-1221709575998527744,0.0,65.83930371562019,2.065216906406851,13.063240429210184,111,14,0.0,15,49163367479346,658,18.5,-181.42599487304688,2.807000160217285,0,0.0,0.0,,,,,0,,1,,
Raw,258833549,35587440000000,,,-1221709575998527744,0.0,65.83930371562019,2.065216906406851,13.063240429210184,111,20,0.0,15,49163360528825,24,25.4,688.83203125,0.38179999589920044,0,0.0,0.0,,,,,0,,1,,
Raw,258833552,35587440000000,,,-1221709575998527744,0.0,65.83930371562019,2.065216906406851,13.063240429210184,111,22,0.0,15,49163356781530,46,20.8,-591.251953125,0.8704999685287476,0,0.0,0.0,,,,,0,,1,,
Raw,258833553,35587440000000,,,-1221709575998527744,0.0,65.83930371562019,2.065216906406851,13.063240429210184,111,25,0.0,15,49163366029688,53,19.0,206.5352325439453,1.005500078201294,0,0.0,0.0,,,,,0,,1,,
Raw,258833554,35587440000000,,,-1221709575998527744,0.0,65.83930371562019,2.065216906406851,13.063240429210184,111,26,0.0,15,49163360659873,27,24.8,-687.9496459960938,0.6165000200271606,0,0.0,0.0,,,,,0,,1,,
Raw,258833555,35587440000000,,,-1221709575998527744,0.0,65.83930371562019,2.065216906406851,13.063240429210184,111,31,0.0,15,49163370188597,70,17.8,-105.93648529052734,1.091499924659729,0,0.0,0.0,,,,,0,,1,,
Raw,258833555,35587440000000,,,-1221709575998527744,0.0,65.83930371562019,2.065216906406851,13.063240429210184,111,5,0.0,783,49149309331844,233,21.0,1.3538784980773926,9.65000057220459,0,0.0,0.0,,,,,0,,5,,
Raw,258833556,35587440000000,,,-1221709575998527744,0.0,65.83930371562019,2.065216906406851,13.063240429210184,111,21,0.0,3,16122738,80,16.7,-543.0205078125,1.0205000638961792,0,0.0,0.0,,,,,0,,5,,
Raw,258833556,35587440000000,,,-1221709575998527744,0.0,65.83930371562019,2.065216906406851,13.063240429210184,111,22,0.0,1,530497,1731,29.1,-128.73367309570312,77.45850372314453,0,0.0,0.0,,,,,0,,5,,
Raw,258834569,35588440000000,,,-1221709575998527744,0.0,67.15748168062419,3.432111448645369,12.893092125607359,111,14,0.0,207,59946364001240,46,20.8,-685.1058959960938,1.1225000619888306,0,0.0,0.0,,,,,0,,3,,
Raw,258834569,35588440000000,,,-1221709575998527744,0.0,67.15748168062419,3.432111448645369,12.893092125607359,111,2,0.0,207,59946373438685,70,17.1,92.5191650390625,1.3860000371932983,0,0.0,0.0,,,,,0,,3,,
Raw,258834570,35588440000000,,,-1221709575998527744,0.0,67.15748168062419,3.432111448645369,12.893092125607359,111,13,0.0,207,59946374081363,414,22.7,-153.4379425048828,13.547500610351562,0,0.0,0.0,,,,,0,,3,,
Raw,258834570,35588440000000,,,-1221709575998527744,0.0,67.15748168062419,3.432111448645369,12.893092125607359,111,12,0.0,207,59946368133852,53,19.7,634.3436889648438,1.2085000276565552,0,0.0,0.0,,,,,0,,3,,
Raw,258834570,35588440000000,,,-1221709575998527744,0.0,67.15748168062419,3.432111448645369,12.893092125607359,111,1,0.0,207,59946360162584,46,20.9,638.7902221679688,1.1165000200271606,0,0.0,0.0,,,,,0,,3,,
Raw,258834571,35588440000000,,,-1221709575998527744,0.0,67.15748168062419,3.432111448645369,12.893092125607359,111,3,0.0,207,59946369805296,80,17.9,-532.23583984375,2.880000114440918,0,0.0,0.0,,,,,0,,3,,
Raw,258834571,35588440000000,,,-1221709575998527744,0.0,67.15748168062419,3.432111448645369,12.893092125607359,111,10,0.0,15,49164367841051,53,19.7,478.217529296875,0.9269999861717224,0,0.0,0.0,,,,,0,,1,,
Raw,258834572,35588440000000,,,-1221709575998527744,0.0,67.15748168062419,3.432111448645369,12.893092125607359,111,14,0.0,15,49164367479948,667,18.7,-180.9217071533203,3.557000160217285,0,0.0,0.0,,,,,0,,1,,
Raw,258834572,35588440000000,,,-1221709575998527744,0.0,67.15748168062419,3.432111448645369,12.893092125607359,111,20,0.0,15,49164360526508,46,20.3,688.4444580078125,0.9164999723434448,0,0.0,0.0,,,,,0,,1,,
Raw,258834573,35588440000000,,,-1221709575998527744,0.0,67.15748168062419,3.432111448645369,12.893092125607359,111,22,0.0,15,49164356783514,27,24.0,-591.4613037109375,0.6904999613761902,0,0.0,0.0,,,,,0,,1,,
Raw,258834573,35588440000000,,,-1221709575998527744,0.0,67.15748168062419,3.432111448645369,12.893092125607359,111,25,0.0,15,49164366028865,53,19.3,206.97291564941406,1.005500078201294,0,0.0,0.0,,,,,0,,1,,
Raw,258834574,35588440000000,,,-1221709575998527744,0.0,67.15748168062419,3.432111448645369,12.893092125607359,111,26,0.0,15,49164360662134,24,25.3,-687.83837890625,0.38179999589920044,0,0.0,0.0,,,,,0,,1,,
Raw,258834574,35588440000000,,,-1221709575998527744,0.0,67.15748168062419,3.432111448645369,12.893092125607359,111,31,0.0,15,49164370188950,79,17.8,-105.93648529052734,2.5915000438690186,0,0.0,0.0,,,,,0,,1,,
Raw,258834574,35588440000000,,,-1221709575998527744,0.0,67.15748168062419,3.432111448645369,12.893092125607359,111,5,0.0,783,49150309331839,300,21.0,1.3538784980773926,11.15000057220459,0,0.0,0.0,,,,,0,,5,,
Raw,258834575,35588440000000,,,-1221709575998527744,0.0,67.15748168062419,3.432111448645369,12.893092125607359,111,16,0.0,15,49150318396680,184,15.3,-48.43235778808594,6.968500137329102,0,0.0,0.0,,,,,0,,5,,
Raw,258834575,35588440000000,,,-1221709575998527744,0.0,67.15748168062419,3.432111448645369,12.893092125607359,111,21,0.0,3,16124555,70,17.6,-544.8160400390625,0.9404999613761902,0,0.0,0.0,,,,,0,,5,,
Raw,258834576,35588440000000,,,-1221709575998527744,0.0,67.15748168062419,3.432111448645369,12.893092125607359,111,22,0.0,1,530927,2028,29.1,-128.73367309570312,78.95850372314453,0,0.0,0.0,,,,,0,,5,,
Raw,258835580,35589440000000,,,-1221709575998527744,0.0,71.15912740118802,2.7860450634815543,13.714205532815477,111,14,0.0,207,59947364003422,31,23.4,-683.2205200195312,0.9324999451637268,0,0.0,0.0,,,,,0,,3,,
Raw,258835581,35589440000000,,,-1221709575998527744,0.0,71.15912740118802,2.7860450634815543,13.714205532815477,111,2,0.0,207,59947373438151,53,19.4,96.07975769042969,1.2160000801086426,0,0.0,0.0,,,,,0,,3,,
Raw,258835581,35589440000000,,,-1221709575998527744,0.0,71.15912740118802,2.7860450634815543,13.714205532815477,111,13,0.0,207,59947374081875,506,22.7,-153.4379425048828,15.047500610351562,0,0.0,0.0,,,,,0,,3,,
Raw,258835581,35589440000000,,,-1221709575998527744,0.0,71.15912740118802,2.7860450634815543,13.714205532815477,111,12,0.0,207,59947368131736,62,19.7,634.3436889648438,2.7085001468658447,0,0.0,0.0,,,,,0,,3,,
Raw,258835582,35589440000000,,,-1221709575998527744,0.0,71.15912740118802,2.7860450634815543,13.714205532815477,111,1,0.0,207,59947360160641,40,21.1,641.7179565429688,1.0464999675750732,0,0.0,0.0,,,,,0,,3,,
Raw,258835582,35589440000000,,,-1221709575998527744,0.0,71.15912740118802,2.7860450634815543,13.714205532815477,111,3,0.0,207,59947369806957,110,14.2,-531.880859375,2.440000057220459,0,0.0,0.0,,,,,0,,3,,
Raw,258835582,35589440000000,,,-1221709575998527744,0.0,71.15912740118802,2.7860450634815543,13.714205532815477,111,10,0.0,15,49165367839495,35,22.1,480.0633544921875,0.796999990940094,0,0.0,0.0,,,,,0,,1,,
Raw,258835583,35589440000000,,,-1221709575998527744,0.0,71.15912740118802,2.7860450634815543,13.714205532815477,111,14,0.0,15,49165367480560,778,18.3,-180.71238708496094,4.38700008392334,0,0.0,0.0,,,,,0,,1,,
Raw,258835583,35589440000000,,,-1221709575998527744,0.0,71.15912740118802,2.7860450634815543,13.714205532815477,111,20,0.0,15,49165360524212,54,20.3,688.4444580078125,2.4165000915527344,0,0.0,0.0,,,,,0,,1,,
Raw,258835583,35589440000000,,,-1221709575998527744,0.0,71.15912740118802,2.7860450634815543,13.714205532815477,111,22,0.0,15,49165356785490,31,23.1,-589.3299560546875,0.750499963760376,0,0.0,0.0,,,,,0,,1,,
Raw,258835584,35589440000000,,,-1221709575998527744,0.0,71.15912740118802,2.7860450634815543,13.714205532815477,111,25,0.0,15,49165366028061,70,17.9,210.2269287109375,1.0855000019073486,0,0.0,0.0,,,,,0,,1,,
Raw,258835584,35589440000000,,,-1221709575998527744,0.0,71.15912740118802,2.7860450634815543,13.714205532815477,111,26,0.0,15,49165360664460,27,24.4,-685.3426513671875,0.6664999723434448,0,0.0,0.0,,,,,0,,1,,
Raw,258835584,35589440000000,,,-1221709575998527744,0.0,71.15912740118802,2.7860450634815543,13.714205532815477,111,31,0.0,15,49165370189469,49,20.0,-104.7186050415039,1.68149995803833,0,0.0,0.0,,,,,0,,1,,
Raw,258835585,35589440000000,,,-1221709575998527744,0.0,71.15912740118802,2.7860450634815543,13.714205532815477,111,5,0.0,783,49151309331835,378,21.0,1.3538784980773926,12.65000057220459,0,0.0,0.0,,,,,0,,5,,
Raw,258835585,35589440000000,,,-1221709575998527744,0.0,71.15912740118802,2.7860450634815543,13.714205532815477,111,9,0.0,15,49151317590460,1237,12.3,-87.24354553222656,7.247000217437744,0,0.0,0.0,,,,,0,,5,,
Raw,258835585,35589440000000,,,-1221709575998527744,0.0,71.15912740118802,2.7860450634815543,13.714205532815477,111,16,0.0,15,49151318396820,72,17.0,-47.06888198852539,1.4234999418258667,0,0.0,0.0,,,,,0,,5,,
Raw,258835586,35589440000000,,,-1221709575998527744,0.0,71.15912740118802,2.7860450634815543,13.714205532815477,111,21,0.0,3,16126372,78,17.6,-544.8160400390625,2.440500020980835,0,0.0,0.0,,,,,0,,5,,
Raw,258835586,35589440000000,,,-1221709575998527744,0.0,71.15912740118802,2.7860450634815543,13.714205532815477,111,22,0.0,1,531356,2334,29.1,-128.73367309570312,80.45850372314453,0,0.0,0.0,,,,,0,,5,,
Raw,258836550,35590440000000,,,-1221709575998527744,0.0,75.57135540992022,10.612173744938373,15.045580141434776,111,14,0.0,207,59948364005701,39,23.4,-683.2205200195312,2.432500123977661,0,0.0,0.0,,,,,0,,3,,
Raw,258836551,35590440000000,,,-1221709575998527744,0.0,75.57135540992022,10.612173744938373,15.045580141434776,111,2,0.0,207,59948373437507,70,17.9,97.05423736572266,1.3860000371932983,0,0.0,0.0,,,,,0,,3,,
Raw,258836551,35590440000000,,,-1221709575998527744,0.0,75.57135540992022,10.612173744938373,15.045580141434776,111,13,0.0,207,59948374082387,608,22.7,-153.4379425048828,16.547500610351562,0,0.0,0.0,,,,,0,,3,,
Raw,258836552,35590440000000,,,-1221709575998527744,0.0,75.57135540992022,10.612173744938373,15.045580141434776,111,12,0.0,207,59948368129620,81,19.7,634.3436889648438,4.208500385284424,0,0.0,0.0,,,,,0,,3,,
Raw,258836553,35590440000000,,,-1221709575998527744,0.0,75.57135540992022,10.612173744938373,15.045580141434776,111,1,0.0,207,59948360158384,40,21.9,641.99853515625,1.0464999675750732,0,0.0,0.0,,,,,0,,3,,
Raw,258836553,35590440000000,,,-1221709575998527744,0.0,75.57135540992022,10.612173744938373,15.045580141434776,111,3,0.0,207,59948369808731,126,14.2,-531.880859375,3.940000295639038,0,0.0,0.0,,,,,0,,3,,
Raw,258836554,35590440000000,,,-1221709575998527744,0.0,75.57135540992022,10.612173744938373,15.045580141434776,111,10,0.0,15,49166367837965,80,16.6,480.7293701171875,1.1769999265670776,0,0.0,0.0,,,,,0,,1,,
Raw,258836554,35590440000000,,,-1221709575998527744,0.0,75.57135540992022,10.612173744938373,15.045580141434776,111,14,0.0,15,49166367481175,907,17.4,-180.56015014648438,5.2270002365112305,0,0.0,0.0,,,,,0,,1,,
Raw,258836554,35590440000000,,,-1221709575998527744,0.0,75.57135540992022,10.612173744938373,15.045580141434776,111,20,0.0,15,49166360521916,72,20.3,688.4444580078125,3.9165000915527344,0,0.0,0.0,,,,,0,,1,,
Raw,258836555,35590440000000,,,-1221709575998527744,0.0,75.57135540992022,10.612173744938373,15.045580141434776,111,22,0.0,15,49166356787456,38,23.1,-589.3299560546875,2.250499963760376,0,0.0,0.0,,,,,0,,1,,
Raw,258836555,35590440000000,,,-1221709575998527744,0.0,75.57135540992022,10.612173744938373,15.045580141434776,111,25,0.0,15,49166366027490,70,17.3,210.43624877929688,1.1755000352859497,0,0.0,0.0,,,,,0,,1,,
Raw,258836555,35590440000000,,,-1221709575998527744,0.0,75.57135540992022,10.612173744938373,15.045580141434776,111,26,0.0,15,49166360666730,61,18.2,-684.7146606445312,1.0764999389648438,0,0.0,0.0,,,,,0,,1,,
Raw,258836556,35590440000000,,,-1221709575998527744,0.0,75.57135540992022,10.612173744938373,15.045580141434776,111,31,0.0,15,49166370189771,27,24.4,-104.54734802246094,0.6814999580383301,0,0.0,0.0,,,,,0,,1,,
Raw,258836556,35590440000000,,,-1221709575998527744,0.0,75.57135540992022,10.612173744938373,15.045580141434776,111,5,0.0,783,49152309331830,465,21.0,1.3538784980773926,14.15000057220459,0,0.0,0.0,,,,,0,,5,,
Raw,258836556,35590440000000,,,-1221709575998527744,0.0,75.57135540992022,10.612173744938373,15.045580141434776,111,9,0.0,15,49152317590751,1286,12.3,-87.24354553222656,8.747000694274902,0,0.0,0.0,,,,,0,,5,,
Raw,258836557,35590440000000,,,-1221709575998527744,0.0,75.57135540992022,10.612173744938373,15.045580141434776,111,16,0.0,15,49152318396977,83,17.0,-47.06888198852539,2.9235000610351562,0,0.0,0.0,,,,,0,,5,,
Raw,258836557,35590440000000,,,-1221709575998527744,0.0,75.57135540992022,10.612173744938373,15.045580141434776,111,21,0.0,3,16128071,73,17.3,-538.7955932617188,1.690500020980835,0,0.0,0.0,,,,,0,,5,,
Raw,258836557,35590440000000,,,-1221709575998527744,0.0,75.57135540992022,10.612173744938373,15.045580141434776,111,22,0.0,1,531785,2651,29.1,-128.73367309570312,81.95850372314453,0,0.0,0.0,,,,,0,,5,,
Raw,258837582,35591440000000,,,-1221709575998527744,0.0,85.56583634344861,12.37470078926745,16.520205134889466,111,14,0.0,207,59949364008012,64,18.3,-681.8229370117188,2.0325000286102295,0,0.0,0.0,,,,,0,,3,,
Raw,258837583,35591440000000,,,-1221709575998527744,0.0,85.56583634344861,12.37470078926745,16.520205134889466,111,2,0.0,207,59949373437597,61,18.7,95.13339233398438,1.2960000038146973,0,0.0,0.0,,,,,0,,3,,
Raw,258837583,35591440000000,,,-1221709575998527744,0.0,85.56583634344861,12.37470078926745,16.520205134889466,111,13,0.0,207,59949374082899,720,22.7,-153.4379425048828,18.047500610351562,0,0.0,0.0,,,,,0,,3,,
Raw,258837584,35591440000000,,,-1221709575998527744,0.0,85.56583634344861,12.37470078926745,16.520205134889466,111,12,0.0,207,59949368127504,110,19.7,634.3436889648438,5.708500385284424,0,0.0,0.0,,,,,0,,3,,
Raw,258837584,35591440000000,,,-1221709575998527744,0.0,85.56583634344861,12.37470078926745,16.520205134889466,111,1,0.0,207,59949360156251,46,20.7,640.2213745117188,1.1165000200271606,0,0.0,0.0,,,,,0,,3,,
Raw,258837585,35591440000000,,,-1221709575998527744,0.0,85.56583634344861,12.37470078926745,16.520205134889466,111,3,0.0,207,59949369810505,152,14.2,-531.880859375,5.440000057220459,0,0.0,0.0,,,,,0,,3,,
Raw,258837594,35591440000000,,,-1221709575998527744,0.0,85.56583634344861,12.37470078926745,16.520205134889466,111,10,0.0,15,49167367836362,89,16.6,480.7293701171875,2.677000045776367,0,0.0,0.0,,,,,0,,1,,
Raw,258837595,35591440000000,,,-1221709575998527744,0.0,85.56583634344861,12.37470078926745,16.520205134889466,111,14,0.0,15,49167367481765,923,17.0,-180.38888549804688,5.9770002365112305,0,0.0,0.0,,,,,0,,1,,
Raw,258837595,35591440000000,,,-1221709575998527744,0.0,85.56583634344861,12.37470078926745,16.520205134889466,111,20,0.0,15,49167360519619,100,20.3,688.4444580078125,5.416500091552734,0,0.0,0.0,,,,,0,,1,,
Raw,258837596,35591440000000,,,-1221709575998527744,0.0,85.56583634344861,12.37470078926745,16.520205134889466,111,22,0.0,15,49167356789591,96,15.3,-589.1777954101562,2.130500078201294,0,0.0,0.0,,,,,0,,1,,
Raw,258837596,35591440000000,,,-1221709575998527744,0.0,85.56583634344861,12.37470078926745,16.520205134889466,111,25,0.0,15,49167366026788,79,17.3,210.43624877929688,2.6755001544952393,0,0.0,0.0,,,,,0,,1,,
Raw,258837597,35591440000000,,,-1221709575998527744,0.0,85.56583634344861,12.37470078926745,16.520205134889466,111,26,0.0,15,49167360669014,69,18.2,-684.7146606445312,2.5764999389648438,0,0.0,0.0,,,,,0,,1,,
Raw,258837597,35591440000000,,,-1221709575998527744,0.0,85.56583634344861,12.37470078926745,16.520205134889466,111,31,0.0,15,49167370190142,35,22.0,-104.26190948486328,0.8014999628067017,0,0.0,0.0,,,,,0,,1,,
Raw,258837598,35591440000000,,,-1221709575998527744,0.0,85.56583634344861,12.37470078926745,16.520205134889466,111,32,0.0,15,49167368626509,649,18.8,7.031351089477539,1.5635000467300415,0,0.0,0.0,,,,,0,,1,,
Raw,258837598,35591440000000,,,-1221709575998527744,0.0,85.56583634344861,12.37470078926745,16.520205134889466,111,5,0.0,783,49153309331826,562,21.0,1.3538784980773926,15.65000057220459,0,0.0,0.0,,,,,0,,5,,
Raw,258837599,35591440000000,,,-1221709575998527744,0.0,85.56583634344861,12.37470078926745,16.520205134889466,111,9,0.0,15,49153317591042,1345,12.3,-87.24354553222656,10.247000694274902,0,0.0,0.0,,,,,0,,5,,
Raw,258837599,35591440000000,,,-1221709575998527744,0.0,85.56583634344861,12.37470078926745,16.520205134889466,111,16,0.0,15,49153318397134,105,17.0,-47.06888198852539,4.423500061035156,0,0.0,0.0,,,,,0,,5,,
Raw,258837600,35591440000000,,,-1221709575998527744,0.0,85.56583634344861,12.37470078926745,16.520205134889466,111,21,0.0,3,16129954,53,19.5,-542.4059448242188,0.8104999661445618,0,0.0,0.0,,,,,0,,5,,
Raw,258837600,35591440000000,,,-1221709575998527744,0.0,85.56583634344861,12.37470078926745,16.520205134889466,111,22,0.0,1,532215,2977,29.1,-128.73367309570312,83.45850372314453,0,0.0,0.0,,,,,0,,5,,
Raw,258838565,35592440000000,,,-1221709575998527744,0.0,83.38072075275704,10.589432748333952,16.74535332809427,111,14,0.0,207,59950364010266,31,23.2,-682.0668334960938,0.9324999451637268,0,0.0,0.0,,,,,0,,3,,
Raw,258838565,35592440000000,,,-1221709575998527744,0.0,83.38072075275704,10.589432748333952,16.74535332809427,111,2,0.0,207,59950373437280,70,18.7,95.13339233398438,2.7960000038146973,0,0.0,0.0,,,,,0,,3,,
Raw,258838566,35592440000000,,,-1221709575998527744,0.0,83.38072075275704,10.589432748333952,16.74535332809427,111,13,0.0,207,59950374083410,842,22.7,-153.4379425048828,19.547500610351562,0,0.0,0.0,,,,,0,,3,,
Raw,258838566,35592440000000,,,-1221709575998527744,0.0,83.38072075275704,10.589432748333952,16.74535332809427,111,12,0.0,207,59950368125388,149,19.7,634.3436889648438,7.208500385284424,0,0.0,0.0,,,,,0,,3,,
Raw,258838566,35592440000000,,,-1221709575998527744,0.0,83.38072075275704,10.589432748333952,16.74535332809427,111,1,0.0,207,59950360154068,46,20.8,642.0452880859375,1.1165000200271606,0,0.0,0.0,,,,,0,,3,,
Raw,258838567,35592440000000,,,-1221709575998527744,0.0,83.38072075275704,10.589432748333952,16.74535332809427,111,3,0.0,207,59950369812279,188,14.2,-531.880859375,6.940000534057617,0,0.0,0.0,,,,,0,,3,,
Raw,258838567,35592440000000,,,-1221709575998527744,0.0,83.38072075275704,10.589432748333952,16.74535332809427,111,10,0.0,15,49168367834586,126,13.8,480.1204528808594,2.236999988555908,0,0.0,0.0,,,,,0,,1,,
Raw,258838568,35592440000000,,,-1221709575998527744,0.0,83.38072075275704,10.589432748333952,16.74535332809427,111,20,0.0,15,49168360517345,111,15.1,691.61279296875,3.6065001487731934,0,0.0,0.0,,,,,0,,1,,
Raw,258838568,35592440000000,,,-1221709575998527744,0.0,83.38072075275704,10.589432748333952,16.74535332809427,111,22,0.0,15,49168356791632,24,25.2,-588.61669921875,0.4058000147342682,0,0.0,0.0,,,,,0,,1,,
Raw,258838569,35592440000000,,,-1221709575998527744,0.0,83.38072075275704,10.589432748333952,16.74535332809427,111,25,0.0,15,49168366026086,98,17.3,210.43624877929688,4.17549991607666,0,0.0,0.0,,,,,0,,1,,
Raw,258838569,35592440000000,,,-1221709575998527744,0.0,83.38072075275704,10.589432748333952,16.74535332809427,111,26,0.0,15,49168360671360,96,15.3,-684.476806640625,2.1065001487731934,0,0.0,0.0,,,,,0,,1,,
Raw,258838569,35592440000000,,,-1221709575998527744,0.0,83.38072075275704,10.589432748333952,16.74535332809427,111,31,0.0,15,49168370190407,53,19.2,-104.06210327148438,1.0115000009536743,0,0.0,0.0,,,,,0,,1,,
Raw,258838570,35592440000000,,,-1221709575998527744,0.0,83.38072075275704,10.589432748333952,16.74535332809427,111,5,0.0,783,49154309331821,669,21.0,1.3538784980773926,17.150001525878906,0,0.0,0.0,,,,,0,,5,,
Raw,258838570,35592440000000,,,-1221709575998527744,0.0,83.38072075275704,10.589432748333952,16.74535332809427,111,9,0.0,15,49154317591333,1414,12.3,-87.24354553222656,11.747000694274902,0,0.0,0.0,,,,,0,,5,,
Raw,258838571,35592440000000,,,-1221709575998527744,0.0,83.38072075275704,10.589432748333952,16.74535332809427,111,16,0.0,15,49154318397291,136,17.0,-47.06888198852539,5.923500061035156,0,0.0,0.0,,,,,0,,5,,
Raw,258838571,35592440000000,,,-1221709575998527744,0.0,83.38072075275704,10.589432748333952,16.74535332809427,111,21,0.0,3,16131778,24,25.6,-541.0437622070312,0.4058000147342682,0,0.0,0.0,,,,,0,,5,,
Raw,258838571,35592440000000,,,-1221709575998527744,0.0,83.38072075275704,10.589432748333952,16.74535332809427,111,22,0.0,1,532644,3314,29.1,-128.73367309570312,84.95850372314453,0,0.0,0.0,,,,,0,,5,,
Raw,258839550,35593440000000,,,-1221709575998527744,0.0,73.87497316813096,12.36600918752275,13.992394048717792,111,14,0.0,207,59951364012565,53,19.0,-684.2991943359375,1.2025001049041748,0,0.0,0.0,,,,,0,,3,,
Raw,258839550,35593440000000,,,-1221709575998527744,0.0,73.87497316813096,12.36600918752275,13.992394048717792,111,2,0.0,207,59951373436895,97,15.1,96.75439453125,2.326000213623047,0,0.0,0.0,,,,,0,,3,,
Raw,258839550,35593440000000,,,-1221709575998527744,0.0,73.87497316813096,12.36600918752275,13.992394048717792,111,13,0.0,207,59951374083922,975,22.7,-153.4379425048828,21.047500610351562,0,0.0,0.0,,,,,0,,3,,
Raw,258839551,35593440000000,,,-1221709575998527744,0.0,73.87497316813096,12.36600918752275,13.992394048717792,111,12,0.0,207,59951368123272,199,19.7,634.3436889648438,8.708500862121582,0,0.0,0.0,,,,,0,,3,,
Raw,258839551,35593440000000,,,-1221709575998527744,0.0,73.87497316813096,12.36600918752275,13.992394048717792,111,1,0.0,207,59951360151959,70,17.4,639.9220581054688,1.3665000200271606,0,0.0,0.0,,,,,0,,3,,
Raw,258839552,35593440000000,,,-1221709575998527744,0.0,73.87497316813096,12.36600918752275,13.992394048717792,111,3,0.0,207,59951369814105,142,13.1,-531.0682983398438,4.060000419616699,0,0.0,0.0,,,,,0,,3,,
Raw,258839552,35593440000000,,,-1221709575998527744,0.0,73.87497316813096,12.36600918752275,13.992394048717792,111,10,0.0,15,49169367833126,46,20.2,478.3221740722656,0.9269999861717224,0,0.0,0.0,,,,,0,,1,,
Raw,258839552,35593440000000,,,-1221709575998527744,0.0,73.87497316813096,12.36600918752275,13.992394048717792,111,20,0.0,15,49169360514893,70,17.9,689.3578491210938,1.0764999389648438,0,0.0,0.0,,,,,0,,1,,
Raw,258839553,35593440000000,,,-1221709575998527744,0.0,73.87497316813096,12.36600918752275,13.992394048717792,111,22,0.0,15,49169356793631,21,26.3,-590.6069946289062,0.13520000874996185,0,0.0,0.0,,,,,0,,1,,
Raw,258839553,35593440000000,,,-1221709575998527744,0.0,73.87497316813096,12.36600918752275,13.992394048717792,111,25,0.0,15,49169366025384,127,17.3,210.43624877929688,5.675500392913818,0,0.0,0.0,,,,,0,,1,,
Raw,258839554,35593440000000,,,-1221709575998527744,0.0,73.87497316813096,12.36600918752275,13.992394048717792,111,26,0.0,15,49169360673565,53,19.0,-686.6842041015625,0.9965000152587891,0,0.0,0.0,,,,,0,,1,,
Raw,258839554,35593440000000,,,-1221709575998527744,0.0,73.87497316813096,12.36600918752275,13.992394048717792,111,31,0.0,15,49169370190754,61,19.2,-104.06210327148438,2.511500120162964,0,0.0,0.0,,,,,0,,1,,
Raw,258839554,35593440000000,,,-1221709575998527744,0.0,73.87497316813096,12.36600918752275,13.992394048717792,111,5,0.0,783,49155309331817,786,21.0,1.3538784980773926,18.650001525878906,0,0.0,0.0,,,,,0,,5,,
Raw,258839555,35593440000000,,,-1221709575998527744,0.0,73.87497316813096,12.36600918752275,13.992394048717792,111,9,0.0,15,49155317591624,1492,12.3,-87.24354553222656,13.247000694274902,0,0.0,0.0,,,,,0,,5,,
Raw,258839555,35593440000000,,,-1221709575998527744,0.0,73.87497316813096,12.36600918752275,13.992394048717792,111,16,0.0,15,49155318397448,178,17.0,-47.06888198852539,7.423500061035156,0,0.0,0.0,,,,,0,,5,,
Raw,258839556,35593440000000,,,-1221709575998527744,0.0,73.87497316813096,12.36600918752275,13.992394048717792,111,21,0.0,3,16133592,21,26.3,-542.5481567382812,0.13520000874996185,0,0.0,0.0,,,,,0,,5,,
Raw,258839557,35593440000000,,,-1221709575998527744,0.0,73.87497316813096,12.36600918752275,13.992394048717792,111,22,0.0,1,533074,3661,29.1,-128.73367309570312,86.45850372314453,0,0.0,0.0,,,,,0,,5,,
Raw,258840576,35594440000000,,,-1221709575998527744,0.0,71.21259841369465,6.972216188142434,16.83398396658269,111,14,0.0,207,59952364014973,40,21.6,-681.6822509765625,1.0525000095367432,0,0.0,0.0,,,,,0,,3,,
Raw,258840577,35594440000000,,,-1221709575998527744,0.0,71.21259841369465,6.972216188142434,16.83398396658269,111,2,0.0,207,59952373436290,70,17.8,96.59510803222656,1.3860000371932983,0,0.0,0.0,,,,,0,,3,,
Raw,258840577,35594440000000,,,-1221709575998527744,0.0,71.21259841369465,6.972216188142434,16.83398396658269,111,13,0.0,207,59952374084434,1117,22.7,-153.4379425048828,22.547500610351562,0,0.0,0.0,,,,,0,,3,,
Raw,258840577,35594440000000,,,-1221709575998527744,0.0,71.21259841369465,6.972216188142434,16.83398396658269,111,12,0.0,207,59952368121156,258,19.7,634.3436889648438,10.208500862121582,0,0.0,0.0,,,,,0,,3,,
Raw,258840577,35594440000000,,,-1221709575998527744,0.0,71.21259841369465,6.972216188142434,16.83398396658269,111,1,0.0,207,59952360149854,80,16.5,642.0359497070312,1.4565000534057617,0,0.0,0.0,,,,,0,,3,,
Raw,258840578,35594440000000,,,-1221709575998527744,0.0,71.21259841369465,6.972216188142434,16.83398396658269,111,3,0.0,207,59952369815600,80,16.1,-529.9007568359375,1.4700000286102295,0,0.0,0.0,,,,,0,,3,,
Raw,258840578,35594440000000,,,-1221709575998527744,0.0,71.21259841369465,6.972216188142434,16.83398396658269,111,10,0.0,15,49170367831450,70,17.5,482.22320556640625,1.0869998931884766,0,0.0,0.0,,,,,0,,1,,
Raw,258840578,35594440000000,,,-1221709575998527744,0.0,71.21259841369465,6.972216188142434,16.83398396658269,111,20,0.0,15,49170360512593,79,17.9,689.3578491210938,2.5764999389648438,0,0.0,0.0,,,,,0,,1,,
Raw,258840579,35594440000000,,,-1221709575998527744,0.0,71.21259841369465,6.972216188142434,16.83398396658269,111,22,0.0,15,49170356795589,17,28.5,-589.0989990234375,0.05730000138282776,0,0.0,0.0,,,,,0,,1,,
Raw,258840579,35594440000000,,,-1221709575998527744,0.0,71.21259841369465,6.972216188142434,16.83398396658269,111,25,0.0,15,49170366024682,166,17.3,210.43624877929688,7.175500392913818,0,0.0,0.0,,,,,0,,1,,
Raw,258840579,35594440000000,,,-1221709575998527744,0.0,71.21259841369465,6.972216188142434,16.83398396658269,111,26,0.0,15,49170360675769,40,21.7,-684.476806640625,0.7864999771118164,0,0.0,0.0,,,,,0,,1,,
Raw,258840580,35594440000000,,,-1221709575998527744,0.0,71.21259841369465,6.972216188142434,16.83398396658269,111,31,0.0,15,49170370191101,80,19.2,-104.06210327148438,4.011500358581543,0,0.0,0.0,,,,,0,,1,,
Raw,258840580,35594440000000,,,-1221709575998527744,0.0,71.21259841369465,6.972216188142434,16.83398396658269,111,32,0.0,15,49170368626425,566,20.3,6.175029754638672,1.9785000085830688,0,0.0,0.0,,,,,0,,1,,
Raw,258840580,35594440000000,,,-1221709575998527744,0.0,71.21259841369465,6.972216188142434,16.83398396658269,111,5,0.0,783,49156309331812,914,21.0,1.3538784980773926,20.150001525878906,0,0.0,0.0,,,,,0,,5,,
Raw,258840580,35594440000000,,,-1221709575998527744,0.0,71.21259841369465,6.972216188142434,16.83398396658269,111,9,0.0,15,49156317591915,1581,12.3,-87.24354553222656,14.747000694274902,0,0.0,0.0,,,,,0,,5,,
Raw,258840581,35594440000000,,,-1221709575998527744,0.0,71.21259841369465,6.972216188142434,16.83398396658269,111,16,0.0,15,49156318397589,135,14.2,-45.51335906982422,4.19350004196167,0,0.0,0.0,,,,,0,,5,,
Raw,258840581,35594440000000,,,-1221709575998527744,0.0,71.21259841369465,6.972216188142434,16.83398396658269,111,21,0.0,3,16135407,19,27.2,-541.6010131835938,0.06530000269412994,0,0.0,0.0,,,,,0,,5,,
Raw,258840581,35594440000000,,,-1221709575998527744,0.0,71.21259841369465,6.972216188142434,16.83398396658269,111,22,0.0,1,533503,4017,29.1,-128.73367309570312,87.95850372314453,0,0.0,0.0,,,,,0,,5,,
Raw,258841545,35595440000000,,,-1221709575998527744,0.0,76.38606621185318,9.323671024584545,20.595146780538744,111,14,0.0,207,59953364017245,53,19.7,-682.0856323242188,1.2025001049041748,0,0.0,0.0,,,,,0,,3,,
Raw,258841546,35595440000000,,,-1221709575998527744,0.0,76.38606621185318,9.323671024584545,20.595146780538744,111,2,0.0,207,59953373436083,61,18.6,96.1734619140625,1.2960000038146973,0,0.0,0.0,,,,,0,,3,,
Raw,258841546,35595440000000,,,-1221709575998527744,0.0,76.38606621185318,9.323671024584545,20.595146780538744,111,13,0.0,207,59953374084946,1269,22.7,-153.4379425048828,24.047500610351562,0,0.0,0.0,,,,,0,,3,,
Raw,258841546,35595440000000,,,-1221709575998527744,0.0,76.38606621185318,9.323671024584545,20.595146780538744,111,12,0.0,207,59953368118870,204,12.3,636.1688842773438,6.43850040435791,0,0.0,0.0,,,,,0,,3,,
Raw,258841547,35595440000000,,,-1221709575998527744,0.0,76.38606621185318,9.323671024584545,20.595146780538744,111,1,0.0,207,59953360147280,70,17.3,642.1949462890625,1.3665000200271606,0,0.0,0.0,,,,,0,,3,,
Raw,258841547,35595440000000,,,-1221709575998527744,0.0,76.38606621185318,9.323671024584545,20.595146780538744,111,3,0.0,207,59953369817368,91,16.1,-529.9007568359375,2.9700000286102295,0,0.0,0.0,,,,,0,,3,,
Raw,258841548,35595440000000,,,-1221709575998527744,0.0,76.38606621185318,9.323671024584545,20.595146780538744,111,10,0.0,15,49171367829842,79,17.5,482.22320556640625,2.5870001316070557,0,0.0,0.0,,,,,0,,1,,
Raw,258841548,35595440000000,,,-1221709575998527744,0.0,76.38606621185318,9.323671024584545,20.595146780538744,111,20,0.0,15,49171360510462,110,14.9,691.1370849609375,2.1065001487731934,0,0.0,0.0,,,,,0,,1,,
Raw,258841548,35595440000000,,,-1221709575998527744,0.0,76.38606621185318,9.323671024584545,20.595146780538744,111,22,0.0,15,49171356797544,19,27.4,-588.9285888671875,0.06530000269412994,0,0.0,0.0,,,,,0,,1,,
Raw,258841549,35595440000000,,,-1221709575998527744,0.0,76.38606621185318,9.323671024584545,20.595146780538744,111,25,0.0,15,49171366023980,215,17.3,210.43624877929688,8.67549991607666,0,0.0,0.0,,,,,0,,1,,
Raw,258841549,35595440000000,,,-1221709575998527744,0.0,76.38606621185318,9.323671024584545,20.595146780538744,111,26,0.0,15,49171360678070,53,19.0,-684.6575927734375,0.9965000152587891,0,0.0,0.0,,,,,0,,1,,
Raw,258841549,35595440000000,,,-1221709575998527744,0.0,76.38606621185318,9.323671024584545,20.595146780538744,111,31,0.0,15,49171370191574,116,14.7,-105.61298370361328,2.871500015258789,0,0.0,0.0,,,,,0,,1,,
Raw,258841550,35595440000000,,,-1221709575998527744,0.0,76.38606621185318,9.323671024584545,20.595146780538744,111,32,0.0,15,49171368626391,497,20.7,6.650763988494873,2.6584999561309814,0,0.0,0.0,,,,,0,,1,,
Raw,258841550,35595440000000,,,-1221709575998527744,0.0,76.38606621185318,9.323671024584545,20.595146780538744,111,5,0.0,783,49157309331808,1051,21.0,1.3538784980773926,21.650001525878906,0,0.0,0.0,,,,,0,,5,,
Raw,258841550,35595440000000,,,-1221709575998527744,0.0,76.38606621185318,9.323671024584545,20.595146780538744,111,9,0.0,15,49157317592206,1680,12.3,-87.24354553222656,16.24700164794922,0,0.0,0.0,,,,,0,,5,,
Raw,258841551,35595440000000,,,-1221709575998527744,0.0,76.38606621185318,9.323671024584545,20.595146780538744,111,16,0.0,15,49157318397741,164,14.2,-45.51335906982422,5.69350004196167,0,0.0,0.0,,,,,0,,5,,
Raw,258841551,35595440000000,,,-1221709575998527744,0.0,76.38606621185318,9.323671024584545,20.595146780538744,111,21,0.0,3,16137205,21,26.9,-540.5167846679688,0.13520000874996185,0,0.0,0.0,,,,,0,,5,,
Raw,258841552,35595440000000,,,-1221709575998527744,0.0,76.38606621185318,9.323671024584545,20.595146780538744,111,22,0.0,1,533932,4384,29.1,-128.73367309570312,89.45850372314453,0,0.0,0.0,,,,,0,,5,,
Raw,258842579,35596440000000,,,-1221709575998527744,0.0,85.23398719262332,10.406261754771435,21.333878054602767,111,14,0.0,207,59954364019491,70,17.1,-686.3721923828125,1.3725000619888306,0,0.0,0.0,,,,,0,,3,,
Raw,258842579,35596440000000,,,-1221709575998527744,0.0,85.23398719262332,10.406261754771435,21.333878054602767,111,2,0.0,207,59954373435763,70,18.6,96.1734619140625,2.7960000038146973,0,0.0,0.0,,,,,0,,3,,
Raw,258842579,35596440000000,,,-1221709575998527744,0.0,85.23398719262332,10.406261754771435,21.333878054602767,111,13,0.0,207,59954374085458,1431,22.7,-153.4379425048828,25.547500610351562,0,0.0,0.0,,,,,0,,3,,
Raw,258842580,35596440000000,,,-1221709575998527744,0.0,85.23398719262332,10.406261754771435,21.333878054602767,111,12,0.0,207,59954368116845,40,21.7,634.8678588867188,1.0584999322891235,0,0.0,0.0,,,,,0,,3,,
Raw,258842580,35596440000000,,,-1221709575998527744,0.0,85.23398719262332,10.406261754771435,21.333878054602767,111,1,0.0,207,59954360145535,70,17.0,640.2587890625,1.3665000200271606,0,0.0,0.0,,,,,0,,3,,
Raw,258842580,35596440000000,,,-1221709575998527744,0.0,85.23398719262332,10.406261754771435,21.333878054602767,111,3,0.0,207,59954369819135,111,16.1,-529.9007568359375,4.470000267028809,0,0.0,0.0,,,,,0,,3,,
Raw,258842581,35596440000000,,,-1221709575998527744,0.0,85.23398719262332,10.406261754771435,21.333878054602767,111,10,0.0,15,49172367828262,73,17.9,478.6076354980469,1.8370000123977661,0,0.0,0.0,,,,,0,,1,,
Raw,258842581,35596440000000,,,-1221709575998527744,0.0,85.23398719262332,10.406261754771435,21.333878054602767,111,20,0.0,15,49172360508032,70,17.9,687.8069458007812,1.0764999389648438,0,0.0,0.0,,,,,0,,1,,
Raw,258842581,35596440000000,,,-1221709575998527744,0.0,85.23398719262332,10.406261754771435,21.333878054602767,111,22,0.0,15,49172356799550,27,24.7,-591.623046875,0.640500009059906,0,0.0,0.0,,,,,0,,1,,
Raw,258842582,35596440000000,,,-1221709575998527744,0.0,85.23398719262332,10.406261754771435,21.333878054602767,111,25,0.0,15,49172366023278,274,17.3,210.43624877929688,10.175500869750977,0,0.0,0.0,,,,,0,,1,,
Raw,258842582,35596440000000,,,-1221709575998527744,0.0,85.23398719262332,10.406261754771435,21.333878054602767,111,26,0.0,15,49172360680279,53,19.2,-688.4539794921875,0.9965000152587891,0,0.0,0.0,,,,,0,,1,,
Raw,258842582,35596440000000,,,-1221709575998527744,0.0,85.23398719262332,10.406261754771435,21.333878054602767,111,31,0.0,15,49172370191884,35,22.4,-107.68719482421875,0.8014999628067017,0,0.0,0.0,,,,,0,,1,,
Raw,258842582,35596440000000,,,-1221709575998527744,0.0,85.23398719262332,10.406261754771435,21.333878054602767,111,32,0.0,15,49172368626308,46,20.9,3.9961671829223633,0.8614999651908875,0,0.0,0.0,,,,,0,,1,,
Raw,258842583,35596440000000,,,-1221709575998527744,0.0,85.23398719262332,10.406261754771435,21.333878054602767,111,5,0.0,783,49158309331803,1198,21.0,1.3538784980773926,23.150001525878906,0,0.0,0.0,,,,,0,,5,,
Raw,258842583,35596440000000,,,-1221709575998527744,0.0,85.23398719262332,10.406261754771435,21.333878054602767,111,9,0.0,15,49158317592498,1789,12.3,-87.24354553222656,17.74700164794922,0,0.0,0.0,,,,,0,,5,,
Raw,258842584,35596440000000,,,-1221709575998527744,0.0,85.23398719262332,10.406261754771435,21.333878054602767,111,16,0.0,15,49158318397893,203,14.2,-45.51335906982422,7.19350004196167,0,0.0,0.0,,,,,0,,5,,
Raw,258842584,35596440000000,,,-1221709575998527744,0.0,85.23398719262332,10.406261754771435,21.333878054602767,111,21,0.0,3,16139025,24,25.5,-544.6624145507812,0.5205000042915344,0,0.0,0.0,,,,,0,,5,,
Raw,258842584,35596440000000,,,-1221709575998527744,0.0,85.23398719262332,10.406261754771435,21.333878054602767,111,22,0.0,1,534362,4761,29.1,-128.73367309570312,90.95850372314453,0,0.0,0.0,,,,,0,,5,,
Raw,258843548,35597440000000,,,-1221709575998527744,0.0,73.32095265155658,2.4334554345933435,13.171821431077463,111,14,0.0,207,59955364021644,61,18.0,-681.9073486328125,1.2825000286102295,0,0.0,0.0,,,,,0,,3,,
Raw,258843552,35597440000000,,,-1221709575998527744,0.0,73.32095265155658,2.4334554345933435,13.171821431077463,111,2,0.0,207,59955373435442,90,18.6,96.1734619140625,4.296000003814697,0,0.0,0.0,,,,,0,,3,,
Raw,258843552,35597440000000,,,-1221709575998527744,0.0,73.32095265155658,2.4334554345933435,13.171821431077463,111,13,0.0,207,59955374085969,1603,22.7,-153.4379425048828,27.047500610351562,0,0.0,0.0,,,,,0,,3,,
Raw,258843552,35597440000000,,,-1221709575998527744,0.0,73.32095265155658,2.4334554345933435,13.171821431077463,111,12,0.0,207,59955368114649,61,18.5,636.56201171875,1.2884999513626099,0,0.0,0.0,,,,,0,,3,,
Raw,258843553,35597440000000,,,-1221709575998527744,0.0,73.32095265155658,2.4334554345933435,13.171821431077463,111,1,0.0,207,59955360143400,80,17.0,640.2587890625,2.86650013923645,0,0.0,0.0,,,,,0,,3,,
Raw,258843553,35597440000000,,,-1221709575998527744,0.0,73.32095265155658,2.4334554345933435,13.171821431077463,111,3,0.0,207,59955369820903,141,16.1,-529.9007568359375,5.970000267028809,0,0.0,0.0,,,,,0,,3,,
Raw,258843554,35597440000000,,,-1221709575998527744,0.0,73.32095265155658,2.4334554345933435,13.171821431077463,111,10,0.0,15,49173367826568,35,22.0,480.37738037109375,0.796999990940094,0,0.0,0.0,,,,,0,,1,,
Raw,258843554,35597440000000,,,-1221709575998527744,0.0,73.32095265155658,2.4334554345933435,13.171821431077463,111,20,0.0,15,49173360505738,79,17.9,687.8069458007812,2.5764999389648438,0,0.0,0.0,,,,,0,,1,,
Raw,258843554,35597440000000,,,-1221709575998527744,0.0,73.32095265155658,2.4334554345933435,13.171821431077463,111,22,0.0,15,49173356801490,24,25.1,-589.2591552734375,0.4058000147342682,0,0.0,0.0,,,,,0,,1,,
