# 
# Header Description:
# 
# Version: v2.0.0.1 Platform: 8.0.0 Manufacturer: Xiaomi Model: MIX 2
# 
# Raw,ElapsedRealtimeMillis,TimeNanos,LeapSecond,TimeUncertaintyNanos,FullBiasNanos,BiasNanos,BiasUncertaintyNanos,DriftNanosPerSecond,DriftUncertaintyNanosPerSecond,HardwareClockDiscontinuityCount,Svid,TimeOffsetNanos,State,ReceivedSvTimeNanos,ReceivedSvTimeUncertaintyNanos,Cn0DbHz,PseudorangeRateMetersPerSecond,PseudorangeRateUncertaintyMetersPerSecond,AccumulatedDeltaRangeState,AccumulatedDeltaRangeMeters,AccumulatedDeltaRangeUncertaintyMeters,CarrierFrequencyHz,CarrierCycles,CarrierPhase,CarrierPhaseUncertainty,MultipathIndicator,SnrInDb,ConstellationType,AgcDb,CarrierFrequencyHz
# 
# Fix,Provider,Latitude,Longitude,Altitude,Speed,Accuracy,(UTC)TimeInMs
# 
# Nav,Svid,Type,Status,MessageId,Sub-messageId,Data(Bytes)
# 
Raw,330564,149600000000,,,-1221746075834508544,0.0,39.41690374631435,0.7734448944140585,10.001657315167577,6,14,0.0,207,61007362263479,10,34.5,-598.544189453125,0.22510001063346863,0,0.0,0.0,,,,,0,,3,,
Raw,330565,149600000000,,,-1221746075834508544,0.0,39.41690374631435,0.7734448944140585,10.001657315167577,6,2,0.0,207,61007368862271,16,29.0,225.12353515625,0.2387000024318695,0,0.0,0.0,,,,,0,,3,,
Raw,330565,149600000000,,,-1221746075834508544,0.0,39.41690374631435,0.7734448944140585,10.001657315167577,6,13,0.0,207,61007370326700,133,13.2,1.2640581130981445,3.311500072479248,0,0.0,0.0,,,,,0,,3,,
Raw,330565,149600000000,,,-1221746075834508544,0.0,39.41690374631435,0.7734448944140585,10.001657315167577,6,12,0.0,207,61007361768741,13,31.1,688.9552001953125,0.22670000791549683,0,0.0,0.0,,,,,0,,3,,
Raw,330566,149600000000,,,-1221746075834508544,0.0,39.41690374631435,0.7734448944140585,10.001657315167577,6,1,0.0,207,61007353787570,1363,14.4,691.4974365234375,5.4760003089904785,0,0.0,0.0,,,,,0,,3,,
Raw,330566,149600000000,,,-1221746075834508544,0.0,39.41690374631435,0.7734448944140585,10.001657315167577,6,3,0.0,207,61007367559718,11,33.6,-461.95294189453125,0.23340000212192535,0,0.0,0.0,,,,,0,,3,,
Raw,330566,149600000000,,,-1221746075834508544,0.0,39.41690374631435,0.7734448944140585,10.001657315167577,6,1,0.0,15,50225352473277,678,19.0,102.19721221923828,4.2845001220703125,0,0.0,0.0,,,,,0,,1,,
Raw,330567,149600000000,,,-1221746075834508544,0.0,39.41690374631435,0.7734448944140585,10.001657315167577,6,10,0.0,15,50225361972055,12,32.9,567.449951171875,0.02540000155568123,0,0.0,0.0,,,,,0,,1,,
Raw,330567,149600000000,,,-1221746075834508544,0.0,39.41690374631435,0.7734448944140585,10.001657315167577,6,14,0.0,15,50225364060958,8,36.4,-153.9356689453125,0.0272000003606081,0,0.0,0.0,,,,,0,,1,,
Raw,330567,149600000000,,,-1221746075834508544,0.0,39.41690374631435,0.7734448944140585,10.001657315167577,6,16,0.0,15,50225350279189,73,17.8,-755.3327026367188,1.841499924659729,0,0.0,0.0,,,,,0,,1,,
Raw,330567,149600000000,,,-1221746075834508544,0.0,39.41690374631435,0.7734448944140585,10.001657315167577,6,20,0.0,15,50225354028659,31,23.5,711.1845703125,0.6875,0,0.0,0.0,,,,,0,,1,,
Raw,330568,149600000000,,,-1221746075834508544,0.0,39.41690374631435,0.7734448944140585,10.001657315167577,6,22,0.0,15,50225354780885,8,36.6,-541.907470703125,0.0422000028192997,0,0.0,0.0,,,,,0,,1,,
Raw,330568,149600000000,,,-1221746075834508544,0.0,39.41690374631435,0.7734448944140585,10.001657315167577,6,25,0.0,15,50225361044217,19,27.7,338.8970947265625,0.04280000180006027,0,0.0,0.0,,,,,0,,1,,
Raw,330568,149600000000,,,-1221746075834508544,0.0,39.41690374631435,0.7734448944140585,10.001657315167577,6,26,0.0,15,50225359020376,12,32.2,-649.1827392578125,0.052400000393390656,0,0.0,0.0,,,,,0,,1,,
Raw,330568,149600000000,,,-1221746075834508544,0.0,39.41690374631435,0.7734448944140585,10.001657315167577,6,31,0.0,15,50225366396446,16,29.4,-19.398948669433594,0.0357000008225441,0,0.0,0.0,,,,,0,,1,,
Raw,330569,149600000000,,,-1221746075834508544,0.0,39.41690374631435,0.7734448944140585,10.001657315167577,6,32,0.0,15,50225364510526,5,40.6,54.7325553894043,0.02540000155568123,0,0.0,0.0,,,,,0,,1,,
Raw,330569,149600000000,,,-1221746075834508544,0.0,39.41690374631435,0.7734448944140585,10.001657315167577,6,2,0.0,783,50211310400109,265,23.3,4.839395523071289,3.678500175476074,0,0.0,0.0,,,,,0,,5,,
Raw,330569,149600000000,,,-1221746075834508544,0.0,39.41690374631435,0.7734448944140585,10.001657315167577,6,3,0.0,783,50211310955199,124,22.7,-4.484122276306152,6.643500328063965,0,0.0,0.0,,,,,0,,5,,
Raw,330570,149600000000,,,-1221746075834508544,0.0,39.41690374631435,0.7734448944140585,10.001657315167577,6,4,0.0,783,50211302269021,6,38.0,-0.9794013500213623,0.2135000079870224,0,0.0,0.0,,,,,0,,5,,
Raw,330570,149600000000,,,-1221746075834508544,0.0,39.41690374631435,0.7734448944140585,10.001657315167577,6,6,0.0,15,50211313367588,12,32.2,-41.23921585083008,0.04340000078082085,0,0.0,0.0,,,,,0,,5,,
Raw,330570,149600000000,,,-1221746075834508544,0.0,39.41690374631435,0.7734448944140585,10.001657315167577,6,7,0.0,15,50211313473173,9,35.3,-106.42131042480469,0.04110000282526016,0,0.0,0.0,,,,,0,,5,,
Raw,330570,149600000000,,,-1221746075834508544,0.0,39.41690374631435,0.7734448944140585,10.001657315167577,6,9,0.0,15,50211313887312,16,29.0,-88.39529418945312,0.04620000347495079,0,0.0,0.0,,,,,0,,5,,
Raw,330571,149600000000,,,-1221746075834508544,0.0,39.41690374631435,0.7734448944140585,10.001657315167577,6,10,0.0,15,50211310946426,13,31.4,-164.94143676757812,0.04020000249147415,0,0.0,0.0,,,,,0,,5,,
Raw,330571,149600000000,,,-1221746075834508544,0.0,39.41690374631435,0.7734448944140585,10.001657315167577,6,16,0.0,15,50211314539696,11,33.7,-40.13377380371094,0.013900000602006912,0,0.0,0.0,,,,,0,,5,,
Raw,331574,150600000000,,,-1221746075834508544,0.0,39.02068056049757,6.308313887045885,10.003321038367314,6,14,0.0,207,61008362265467,10,34.1,-598.0458984375,0.22510001063346863,0,0.0,0.0,,,,,0,,3,,
Raw,331574,150600000000,,,-1221746075834508544,0.0,39.02068056049757,6.308313887045885,10.003321038367314,6,2,0.0,207,61008368861460,19,27.9,225.7099151611328,0.2533000111579895,0,0.0,0.0,,,,,0,,3,,
Raw,331574,150600000000,,,-1221746075834508544,0.0,39.02068056049757,6.308313887045885,10.003321038367314,6,13,0.0,207,61008370326696,154,13.2,1.2640581130981445,4.811500072479248,0,0.0,0.0,,,,,0,,3,,
Raw,331575,150600000000,,,-1221746075834508544,0.0,39.02068056049757,6.308313887045885,10.003321038367314,6,12,0.0,207,61008361766442,12,32.0,689.4481811523438,0.22540001571178436,0,0.0,0.0,,,,,0,,3,,
Raw,331575,150600000000,,,-1221746075834508544,0.0,39.02068056049757,6.308313887045885,10.003321038367314,6,1,0.0,207,61008353785239,1204,15.3,692.1896362304688,6.1060004234313965,0,0.0,0.0,,,,,0,,3,,
Raw,331575,150600000000,,,-1221746075834508544,0.0,39.02068056049757,6.308313887045885,10.003321038367314,6,3,0.0,207,61008367561268,12,32.7,-461.4340515136719,0.23440000414848328,0,0.0,0.0,,,,,0,,3,,
Raw,331576,150600000000,,,-1221746075834508544,0.0,39.02068056049757,6.308313887045885,10.003321038367314,6,1,0.0,15,50226352472926,692,18.8,102.58732604980469,5.0345001220703125,0,0.0,0.0,,,,,0,,1,,
Raw,331576,150600000000,,,-1221746075834508544,0.0,39.02068056049757,6.308313887045885,10.003321038367314,6,10,0.0,15,50226361970160,13,31.8,567.9529418945312,0.02670000120997429,0,0.0,0.0,,,,,0,,1,,
Raw,331576,150600000000,,,-1221746075834508544,0.0,39.02068056049757,6.308313887045885,10.003321038367314,6,14,0.0,15,50226364061466,9,35.6,-153.4829559326172,0.0276000015437603,0,0.0,0.0,,,,,0,,1,,
Raw,331577,150600000000,,,-1221746075834508544,0.0,39.02068056049757,6.308313887045885,10.003321038367314,6,16,0.0,15,50226350281937,53,19.0,-753.1062622070312,1.0115000009536743,0,0.0,0.0,,,,,0,,1,,
Raw,331577,150600000000,,,-1221746075834508544,0.0,39.02068056049757,6.308313887045885,10.003321038367314,6,20,0.0,15,50226354026252,27,24.5,712.0123291015625,0.6375000476837158,0,0.0,0.0,,,,,0,,1,,
Raw,331577,150600000000,,,-1221746075834508544,0.0,39.02068056049757,6.308313887045885,10.003321038367314,6,22,0.0,15,50226354782692,9,35.9,-541.3894653320312,0.04260000213980675,0,0.0,0.0,,,,,0,,1,,
Raw,331577,150600000000,,,-1221746075834508544,0.0,39.02068056049757,6.308313887045885,10.003321038367314,6,25,0.0,15,50226361043065,19,27.3,339.4323425292969,0.04280000180006027,0,0.0,0.0,,,,,0,,1,,
Raw,331578,150600000000,,,-1221746075834508544,0.0,39.02068056049757,6.308313887045885,10.003321038367314,6,26,0.0,15,50226359022528,12,32.0,-648.67822265625,0.052400000393390656,0,0.0,0.0,,,,,0,,1,,
Raw,331578,150600000000,,,-1221746075834508544,0.0,39.02068056049757,6.308313887045885,10.003321038367314,6,31,0.0,15,50226366396498,21,26.5,-18.749841690063477,0.12020000070333481,0,0.0,0.0,,,,,0,,1,,
Raw,331579,150600000000,,,-1221746075834508544,0.0,39.02068056049757,6.308313887045885,10.003321038367314,6,32,0.0,15,50226364510348,5,40.0,55.22060012817383,0.02540000155568123,0,0.0,0.0,,,,,0,,1,,
Raw,331579,150600000000,,,-1221746075834508544,0.0,39.02068056049757,6.308313887045885,10.003321038367314,6,2,0.0,783,50212310400103,69,23.6,3.3606910705566406,4.428500175476074,0,0.0,0.0,,,,,0,,5,,
Raw,331579,150600000000,,,-1221746075834508544,0.0,39.02068056049757,6.308313887045885,10.003321038367314,6,4,0.0,783,50212302269026,6,38.6,-0.2976612150669098,0.2135000079870224,0,0.0,0.0,,,,,0,,5,,
Raw,331580,150600000000,,,-1221746075834508544,0.0,39.02068056049757,6.308313887045885,10.003321038367314,6,6,0.0,15,50212313367728,12,32.3,-40.778873443603516,0.04340000078082085,0,0.0,0.0,,,,,0,,5,,
Raw,331580,150600000000,,,-1221746075834508544,0.0,39.02068056049757,6.308313887045885,10.003321038367314,6,7,0.0,15,50212313473529,9,35.1,-105.92163848876953,0.04110000282526016,0,0.0,0.0,,,,,0,,5,,
Raw,331580,150600000000,,,-1221746075834508544,0.0,39.02068056049757,6.308313887045885,10.003321038367314,6,9,0.0,15,50212313887614,17,28.9,-87.9164810180664,0.052799999713897705,0,0.0,0.0,,,,,0,,5,,
Raw,331581,150600000000,,,-1221746075834508544,0.0,39.02068056049757,6.308313887045885,10.003321038367314,6,10,0.0,15,50212310946975,14,30.5,-164.4571533203125,0.040800001472234726,0,0.0,0.0,,,,,0,,5,,
Raw,331581,150600000000,,,-1221746075834508544,0.0,39.02068056049757,6.308313887045885,10.003321038367314,6,16,0.0,15,50212314539821,11,33.1,-39.756622314453125,0.04390000179409981,0,0.0,0.0,,,,,0,,5,,
Raw,332572,151600000000,,,-1221746075834508544,0.0,39.806149288779125,7.82929766856014,10.986146431920705,6,14,0.0,207,61009362267453,9,35.1,-597.6806640625,0.22460000216960907,0,0.0,0.0,,,,,0,,3,,
Raw,332572,151600000000,,,-1221746075834508544,0.0,39.806149288779125,7.82929766856014,10.986146431920705,6,2,0.0,207,61009368860728,10,34.0,226.1025390625,0.23410001397132874,0,0.0,0.0,,,,,0,,3,,
Raw,332573,151600000000,,,-1221746075834508544,0.0,39.806149288779125,7.82929766856014,10.986146431920705,6,13,0.0,207,61009370326615,56,19.8,2.9213788509368896,1.9615000486373901,0,0.0,0.0,,,,,0,,3,,
Raw,332573,151600000000,,,-1221746075834508544,0.0,39.806149288779125,7.82929766856014,10.986146431920705,6,12,0.0,207,61009361764148,12,32.0,689.7504272460938,0.22540001571178436,0,0.0,0.0,,,,,0,,3,,
Raw,332574,151600000000,,,-1221746075834508544,0.0,39.806149288779125,7.82929766856014,10.986146431920705,6,1,0.0,207,61009353783031,1070,16.0,692.6759643554688,6.756000518798828,0,0.0,0.0,,,,,0,,3,,
Raw,332575,151600000000,,,-1221746075834508544,0.0,39.806149288779125,7.82929766856014,10.986146431920705,6,3,0.0,207,61009367562795,21,26.1,-461.0290222167969,0.32170000672340393,0,0.0,0.0,,,,,0,,3,,
Raw,332575,151600000000,,,-1221746075834508544,0.0,39.806149288779125,7.82929766856014,10.986146431920705,6,1,0.0,15,50227352472560,709,18.6,102.73004150390625,5.7845001220703125,0,0.0,0.0,,,,,0,,1,,
Raw,332576,151600000000,,,-1221746075834508544,0.0,39.806149288779125,7.82929766856014,10.986146431920705,6,10,0.0,15,50227361968297,17,28.8,568.289794921875,0.03480000048875809,0,0.0,0.0,,,,,0,,1,,
Raw,332576,151600000000,,,-1221746075834508544,0.0,39.806149288779125,7.82929766856014,10.986146431920705,6,14,0.0,15,50227364061975,11,33.1,-153.15634155273438,0.02890000119805336,0,0.0,0.0,,,,,0,,1,,
Raw,332577,151600000000,,,-1221746075834508544,0.0,39.806149288779125,7.82929766856014,10.986146431920705,6,16,0.0,15,50227350284449,61,19.0,-753.1062622070312,2.511500120162964,0,0.0,0.0,,,,,0,,1,,
Raw,332577,151600000000,,,-1221746075834508544,0.0,39.806149288779125,7.82929766856014,10.986146431920705,6,20,0.0,15,50227354023835,21,26.4,712.2184448242188,0.13220000267028809,0,0.0,0.0,,,,,0,,1,,
Raw,332578,151600000000,,,-1221746075834508544,0.0,39.806149288779125,7.82929766856014,10.986146431920705,6,22,0.0,15,50227354784508,9,35.0,-541.0827026367188,0.04260000213980675,0,0.0,0.0,,,,,0,,1,,
Raw,332578,151600000000,,,-1221746075834508544,0.0,39.806149288779125,7.82929766856014,10.986146431920705,6,25,0.0,15,50227361041934,12,32.8,339.8506164550781,0.02540000155568123,0,0.0,0.0,,,,,0,,1,,
Raw,332579,151600000000,,,-1221746075834508544,0.0,39.806149288779125,7.82929766856014,10.986146431920705,6,26,0.0,15,50227359024728,16,29.0,-648.3898315429688,0.0552000030875206,0,0.0,0.0,,,,,0,,1,,
Raw,332579,151600000000,,,-1221746075834508544,0.0,39.806149288779125,7.82929766856014,10.986146431920705,6,31,0.0,15,50227366396572,11,33.0,-18.366798400878906,0.03189999982714653,0,0.0,0.0,,,,,0,,1,,
Raw,332580,151600000000,,,-1221746075834508544,0.0,39.806149288779125,7.82929766856014,10.986146431920705,6,32,0.0,15,50227364510170,6,38.9,55.56752395629883,0.026100000366568565,0,0.0,0.0,,,,,0,,1,,
Raw,332581,151600000000,,,-1221746075834508544,0.0,39.806149288779125,7.82929766856014,10.986146431920705,6,2,0.0,783,50213310400092,101,23.6,3.3606910705566406,5.928500175476074,0,0.0,0.0,,,,,0,,5,,
Raw,332581,151600000000,,,-1221746075834508544,0.0,39.806149288779125,7.82929766856014,10.986146431920705,6,4,0.0,783,50213302269006,5,41.0,-0.48970067501068115,0.17350000143051147,0,0.0,0.0,,,,,0,,5,,
Raw,332581,151600000000,,,-1221746075834508544,0.0,39.806149288779125,7.82929766856014,10.986146431920705,6,6,0.0,15,50213313367871,12,32.6,-40.489864349365234,0.04340000078082085,0,0.0,0.0,,,,,0,,5,,
Raw,332582,151600000000,,,-1221746075834508544,0.0,39.806149288779125,7.82929766856014,10.986146431920705,6,7,0.0,15,50213313473884,10,34.0,-105.63330078125,0.041600000113248825,0,0.0,0.0,,,,,0,,5,,
Raw,332582,151600000000,,,-1221746075834508544,0.0,39.806149288779125,7.82929766856014,10.986146431920705,6,9,0.0,15,50213313887896,19,27.5,-87.64950561523438,0.06080000102519989,0,0.0,0.0,,,,,0,,5,,
Raw,332582,151600000000,,,-1221746075834508544,0.0,39.806149288779125,7.82929766856014,10.986146431920705,6,10,0.0,15,50213310947518,16,29.8,-164.18362426757812,0.04170000180602074,0,0.0,0.0,,,,,0,,5,,
Raw,332582,151600000000,,,-1221746075834508544,0.0,39.806149288779125,7.82929766856014,10.986146431920705,6,16,0.0,15,50213314539967,13,31.9,-39.45439529418945,0.04620000347495079,0,0.0,0.0,,,,,0,,5,,
Raw,333560,152600000000,,,-1221746075834508544,0.0,38.98720387951471,8.514484413182565,11.117478769016497,6,14,0.0,207,61010362269402,13,31.4,-597.29296875,0.2282000035047531,0,0.0,0.0,,,,,0,,3,,
Raw,333561,152600000000,,,-1221746075834508544,0.0,38.98720387951471,8.514484413182565,11.117478769016497,6,2,0.0,207,61010368859954,9,35.5,226.54319763183594,0.23360000550746918,0,0.0,0.0,,,,,0,,3,,
Raw,333561,152600000000,,,-1221746075834508544,0.0,38.98720387951471,8.514484413182565,11.117478769016497,6,13,0.0,207,61010370326809,27,24.3,3.4176385402679443,0.8814999461174011,0,0.0,0.0,,,,,0,,3,,
Raw,333561,152600000000,,,-1221746075834508544,0.0,38.98720387951471,8.514484413182565,11.117478769016497,6,12,0.0,207,61010361761782,16,29.7,690.0687255859375,0.2282000035047531,0,0.0,0.0,,,,,0,,3,,
Raw,333561,152600000000,,,-1221746075834508544,0.0,38.98720387951471,8.514484413182565,11.117478769016497,6,1,0.0,207,61010353780706,1092,16.8,693.2652587890625,7.506000518798828,0,0.0,0.0,,,,,0,,3,,
Raw,333562,152600000000,,,-1221746075834508544,0.0,38.98720387951471,8.514484413182565,11.117478769016497,6,3,0.0,207,61010367564274,16,29.7,-460.6659851074219,0.23719999194145203,0,0.0,0.0,,,,,0,,3,,
Raw,333562,152600000000,,,-1221746075834508544,0.0,38.98720387951471,8.514484413182565,11.117478769016497,6,10,0.0,15,50228361966253,40,21.1,567.8078002929688,0.8479999899864197,0,0.0,0.0,,,,,0,,1,,
Raw,333562,152600000000,,,-1221746075834508544,0.0,38.98720387951471,8.514484413182565,11.117478769016497,6,14,0.0,15,50228364062482,17,28.6,-152.79617309570312,0.03930000215768814,0,0.0,0.0,,,,,0,,1,,
Raw,333563,152600000000,,,-1221746075834508544,0.0,38.98720387951471,8.514484413182565,11.117478769016497,6,16,0.0,15,50228350286961,80,19.0,-753.1062622070312,4.011500358581543,0,0.0,0.0,,,,,0,,1,,
Raw,333563,152600000000,,,-1221746075834508544,0.0,38.98720387951471,8.514484413182565,11.117478769016497,6,20,0.0,15,50228354021527,31,23.1,713.23974609375,0.7475000023841858,0,0.0,0.0,,,,,0,,1,,
Raw,333563,152600000000,,,-1221746075834508544,0.0,38.98720387951471,8.514484413182565,11.117478769016497,6,22,0.0,15,50228354786293,14,30.1,-540.7001342773438,0.046800002455711365,0,0.0,0.0,,,,,0,,1,,
Raw,333564,152600000000,,,-1221746075834508544,0.0,38.98720387951471,8.514484413182565,11.117478769016497,6,25,0.0,15,50228361040764,8,36.1,340.24774169921875,0.022700000554323196,0,0.0,0.0,,,,,0,,1,,
Raw,333564,152600000000,,,-1221746075834508544,0.0,38.98720387951471,8.514484413182565,11.117478769016497,6,26,0.0,15,50228359026760,14,30.8,-647.9889526367188,0.05430000275373459,0,0.0,0.0,,,,,0,,1,,
Raw,333564,152600000000,,,-1221746075834508544,0.0,38.98720387951471,8.514484413182565,11.117478769016497,6,31,0.0,15,50228366396657,6,39.5,-18.126195907592773,0.028600001707673073,0,0.0,0.0,,,,,0,,1,,
Raw,333564,152600000000,,,-1221746075834508544,0.0,38.98720387951471,8.514484413182565,11.117478769016497,6,32,0.0,15,50228364509994,10,34.9,55.937477111816406,0.02810000069439411,0,0.0,0.0,,,,,0,,1,,
Raw,333565,152600000000,,,-1221746075834508544,0.0,38.98720387951471,8.514484413182565,11.117478769016497,6,2,0.0,783,50214310400081,144,23.6,3.3606910705566406,7.428500175476074,0,0.0,0.0,,,,,0,,5,,
Raw,333565,152600000000,,,-1221746075834508544,0.0,38.98720387951471,8.514484413182565,11.117478769016497,6,3,0.0,783,50214310955184,183,25.4,-1.5267139673233032,1.4835000038146973,0,0.0,0.0,,,,,0,,5,,
Raw,333565,152600000000,,,-1221746075834508544,0.0,38.98720387951471,8.514484413182565,11.117478769016497,6,4,0.0,783,50214302269024,5,41.3,-0.4032829701900482,0.17350000143051147,0,0.0,0.0,,,,,0,,5,,
Raw,333566,152600000000,,,-1221746075834508544,0.0,38.98720387951471,8.514484413182565,11.117478769016497,6,6,0.0,15,50214313367992,10,34.5,-40.157432556152344,0.041600000113248825,0,0.0,0.0,,,,,0,,5,,
Raw,333566,152600000000,,,-1221746075834508544,0.0,38.98720387951471,8.514484413182565,11.117478769016497,6,7,0.0,15,50214313474233,12,32.6,-105.30261993408203,0.04340000078082085,0,0.0,0.0,,,,,0,,5,,
Raw,333567,152600000000,,,-1221746075834508544,0.0,38.98720387951471,8.514484413182565,11.117478769016497,6,9,0.0,15,50214313888189,35,22.8,-86.90747833251953,0.6360000371932983,0,0.0,0.0,,,,,0,,5,,
Raw,333567,152600000000,,,-1221746075834508544,0.0,38.98720387951471,8.514484413182565,11.117478769016497,6,10,0.0,15,50214310948080,17,28.5,-163.8336944580078,0.04830000177025795,0,0.0,0.0,,,,,0,,5,,
Raw,333567,152600000000,,,-1221746075834508544,0.0,38.98720387951471,8.514484413182565,11.117478769016497,6,16,0.0,15,50214314540109,12,32.5,-39.15106964111328,0.04490000009536743,0,0.0,0.0,,,,,0,,5,,
Raw,334569,153600000000,,,-1221746075834508544,0.0,46.36946687242016,9.593998209784473,12.568877645813306,6,14,0.0,207,61011362271452,24,25.7,-598.360595703125,0.5848000049591064,0,0.0,0.0,,,,,0,,3,,
Raw,334569,153600000000,,,-1221746075834508544,0.0,46.36946687242016,9.593998209784473,12.568877645813306,6,2,0.0,207,61011368859186,8,36.0,225.4901580810547,0.23320001363754272,0,0.0,0.0,,,,,0,,3,,
Raw,334570,153600000000,,,-1221746075834508544,0.0,46.36946687242016,9.593998209784473,12.568877645813306,6,13,0.0,207,61011370326815,21,26.5,2.4345693588256836,0.326200008392334,0,0.0,0.0,,,,,0,,3,,
Raw,334570,153600000000,,,-1221746075834508544,0.0,46.36946687242016,9.593998209784473,12.568877645813306,6,12,0.0,207,61011361759520,21,26.2,688.9603881835938,0.3127000033855438,0,0.0,0.0,,,,,0,,3,,
Raw,334570,153600000000,,,-1221746075834508544,0.0,46.36946687242016,9.593998209784473,12.568877645813306,6,1,0.0,207,61011353778396,983,17.4,693.1062622070312,8.166000366210938,0,0.0,0.0,,,,,0,,3,,
Raw,334571,153600000000,,,-1221746075834508544,0.0,46.36946687242016,9.593998209784473,12.568877645813306,6,3,0.0,207,61011367565866,13,31.3,-461.79052734375,0.23569999635219574,0,0.0,0.0,,,,,0,,3,,
Raw,334571,153600000000,,,-1221746075834508544,0.0,46.36946687242016,9.593998209784473,12.568877645813306,6,10,0.0,15,50229361964430,16,29.2,567.6002807617188,0.028200000524520874,0,0.0,0.0,,,,,0,,1,,
Raw,334571,153600000000,,,-1221746075834508544,0.0,46.36946687242016,9.593998209784473,12.568877645813306,6,14,0.0,15,50229364062970,13,31.8,-153.9643096923828,0.031200001016259193,0,0.0,0.0,,,,,0,,1,,
Raw,334572,153600000000,,,-1221746075834508544,0.0,46.36946687242016,9.593998209784473,12.568877645813306,6,16,0.0,15,50229350289473,108,19.0,-753.1062622070312,5.511500358581543,0,0.0,0.0,,,,,0,,1,,
Raw,334572,153600000000,,,-1221746075834508544,0.0,46.36946687242016,9.593998209784473,12.568877645813306,6,22,0.0,15,50229354788070,14,30.0,-541.8291015625,0.046800002455711365,0,0.0,0.0,,,,,0,,1,,
Raw,334572,153600000000,,,-1221746075834508544,0.0,46.36946687242016,9.593998209784473,12.568877645813306,6,25,0.0,15,50229361039626,9,35.1,339.20172119140625,0.023100001737475395,0,0.0,0.0,,,,,0,,1,,
Raw,334573,153600000000,,,-1221746075834508544,0.0,46.36946687242016,9.593998209784473,12.568877645813306,6,26,0.0,15,50229359028890,10,34.1,-649.1172485351562,0.05060000345110893,0,0.0,0.0,,,,,0,,1,,
Raw,334573,153600000000,,,-1221746075834508544,0.0,46.36946687242016,9.593998209784473,12.568877645813306,6,31,0.0,15,50229366396705,5,41.4,-19.224760055541992,0.02810000069439411,0,0.0,0.0,,,,,0,,1,,
Raw,334573,153600000000,,,-1221746075834508544,0.0,46.36946687242016,9.593998209784473,12.568877645813306,6,32,0.0,15,50229364509803,8,36.0,54.80181121826172,0.0272000003606081,0,0.0,0.0,,,,,0,,1,,
Raw,334574,153600000000,,,-1221746075834508544,0.0,46.36946687242016,9.593998209784473,12.568877645813306,6,2,0.0,783,50215310399974,31,25.6,5.309891700744629,2.0385000705718994,0,0.0,0.0,,,,,0,,5,,
Raw,334574,153600000000,,,-1221746075834508544,0.0,46.36946687242016,9.593998209784473,12.568877645813306,6,3,0.0,783,50215310955195,30,26.1,-1.6227335929870605,2.19350004196167,0,0.0,0.0,,,,,0,,5,,
Raw,334574,153600000000,,,-1221746075834508544,0.0,46.36946687242016,9.593998209784473,12.568877645813306,6,4,0.0,783,50215302269031,5,40.2,-0.5665165185928345,0.1835000067949295,0,0.0,0.0,,,,,0,,5,,
Raw,334575,153600000000,,,-1221746075834508544,0.0,46.36946687242016,9.593998209784473,12.568877645813306,6,6,0.0,15,50215313368127,9,35.6,-41.32268524169922,0.04110000282526016,0,0.0,0.0,,,,,0,,5,,
Raw,334575,153600000000,,,-1221746075834508544,0.0,46.36946687242016,9.593998209784473,12.568877645813306,6,7,0.0,15,50215313474587,13,31.2,-106.4456787109375,0.04470000043511391,0,0.0,0.0,,,,,0,,5,,
Raw,334575,153600000000,,,-1221746075834508544,0.0,46.36946687242016,9.593998209784473,12.568877645813306,6,9,0.0,15,50215313888439,93,15.6,-87.1955337524414,1.0959999561309814,0,0.0,0.0,,,,,0,,5,,
Raw,334575,153600000000,,,-1221746075834508544,0.0,46.36946687242016,9.593998209784473,12.568877645813306,6,10,0.0,15,50215310948659,17,28.7,-164.97068786621094,0.04830000177025795,0,0.0,0.0,,,,,0,,5,,
Raw,335569,154600000000,,,-1221746075834508544,0.0,51.97545760893263,5.79090034596127,11.723798512685473,6,14,0.0,207,61012362273448,21,26.1,-598.7481689453125,0.3141999840736389,0,0.0,0.0,,,,,0,,3,,
Raw,335569,154600000000,,,-1221746075834508544,0.0,51.97545760893263,5.79090034596127,11.723798512685473,6,2,0.0,207,61012368858460,9,35.7,225.1256866455078,0.23360000550746918,0,0.0,0.0,,,,,0,,3,,
Raw,335569,154600000000,,,-1221746075834508544,0.0,51.97545760893263,5.79090034596127,11.723798512685473,6,13,0.0,207,61012370326808,17,28.0,2.076510429382324,0.2483000010251999,0,0.0,0.0,,,,,0,,3,,
Raw,335570,154600000000,,,-1221746075834508544,0.0,51.97545760893263,5.79090034596127,11.723798512685473,6,12,0.0,207,61012361757102,40,21.5,688.5386962890625,1.0479999780654907,0,0.0,0.0,,,,,0,,3,,
Raw,335570,154600000000,,,-1221746075834508544,0.0,51.97545760893263,5.79090034596127,11.723798512685473,6,1,0.0,207,61012353776093,1009,17.4,693.13427734375,8.916000366210938,0,0.0,0.0,,,,,0,,3,,
Raw,335571,154600000000,,,-1221746075834508544,0.0,51.97545760893263,5.79090034596127,11.723798512685473,6,3,0.0,207,61012367567337,14,30.1,-462.1908264160156,0.23629999160766602,0,0.0,0.0,,,,,0,,3,,
Raw,335571,154600000000,,,-1221746075834508544,0.0,51.97545760893263,5.79090034596127,11.723798512685473,6,10,0.0,15,50230361962571,13,31.4,567.1791381835938,0.02670000120997429,0,0.0,0.0,,,,,0,,1,,
Raw,335571,154600000000,,,-1221746075834508544,0.0,51.97545760893263,5.79090034596127,11.723798512685473,6,14,0.0,15,50230364063504,11,33.1,-154.43765258789062,0.02890000119805336,0,0.0,0.0,,,,,0,,1,,
Raw,335572,154600000000,,,-1221746075834508544,0.0,51.97545760893263,5.79090034596127,11.723798512685473,6,16,0.0,15,50230350291985,147,19.0,-753.1062622070312,7.011500358581543,0,0.0,0.0,,,,,0,,1,,
Raw,335572,154600000000,,,-1221746075834508544,0.0,51.97545760893263,5.79090034596127,11.723798512685473,6,22,0.0,15,50230354789844,11,33.0,-542.2428588867188,0.04390000179409981,0,0.0,0.0,,,,,0,,1,,
Raw,335572,154600000000,,,-1221746075834508544,0.0,51.97545760893263,5.79090034596127,11.723798512685473,6,25,0.0,15,50230361038516,19,27.1,338.9756774902344,0.04280000180006027,0,0.0,0.0,,,,,0,,1,,
Raw,335573,154600000000,,,-1221746075834508544,0.0,51.97545760893263,5.79090034596127,11.723798512685473,6,26,0.0,15,50230359031078,11,33.1,-649.5385131835938,0.05140000209212303,0,0.0,0.0,,,,,0,,1,,
Raw,335573,154600000000,,,-1221746075834508544,0.0,51.97545760893263,5.79090034596127,11.723798512685473,6,31,0.0,15,50230366396766,5,40.6,-19.649993896484375,0.028400002047419548,0,0.0,0.0,,,,,0,,1,,
Raw,335573,154600000000,,,-1221746075834508544,0.0,51.97545760893263,5.79090034596127,11.723798512685473,6,32,0.0,15,50230364509614,8,36.0,54.35232925415039,0.0272000003606081,0,0.0,0.0,,,,,0,,1,,
Raw,335574,154600000000,,,-1221746075834508544,0.0,51.97545760893263,5.79090034596127,11.723798512685473,6,2,0.0,783,50216310399956,48,25.6,5.309891700744629,3.5385000705718994,0,0.0,0.0,,,,,0,,5,,
Raw,335574,154600000000,,,-1221746075834508544,0.0,51.97545760893263,5.79090034596127,11.723798512685473,6,3,0.0,783,50216310955191,15,30.4,-3.2550694942474365,0.6334999799728394,0,0.0,0.0,,,,,0,,5,,
Raw,335574,154600000000,,,-1221746075834508544,0.0,51.97545760893263,5.79090034596127,11.723798512685473,6,4,0.0,783,50216302269041,7,37.9,-0.5281085968017578,0.22350001335144043,0,0.0,0.0,,,,,0,,5,,
Raw,335575,154600000000,,,-1221746075834508544,0.0,51.97545760893263,5.79090034596127,11.723798512685473,6,6,0.0,15,50216313368279,11,33.2,-41.80987548828125,0.04240000247955322,0,0.0,0.0,,,,,0,,5,,
Raw,335575,154600000000,,,-1221746075834508544,0.0,51.97545760893263,5.79090034596127,11.723798512685473,6,7,0.0,15,50216313474944,14,30.0,-106.88825225830078,0.04530000314116478,0,0.0,0.0,,,,,0,,5,,
Raw,335575,154600000000,,,-1221746075834508544,0.0,51.97545760893263,5.79090034596127,11.723798512685473,6,10,0.0,15,50216310949206,17,28.9,-165.42767333984375,0.04830000177025795,0,0.0,0.0,,,,,0,,5,,
Raw,335576,154600000000,,,-1221746075834508544,0.0,51.97545760893263,5.79090034596127,11.723798512685473,6,16,0.0,15,50216314540347,16,32.5,-41.096092224121094,10.498499870300293,0,0.0,0.0,,,,,0,,5,,
Raw,336573,155600000000,,,-1221746075834508544,0.0,54.68544259201735,4.333474448959299,9.913184937155615,6,14,0.0,207,61013362275498,19,27.3,-599.8248291015625,0.2443000078201294,0,0.0,0.0,,,,,0,,3,,
Raw,336573,155600000000,,,-1221746075834508544,0.0,54.68544259201735,4.333474448959299,9.913184937155615,6,2,0.0,207,61013368857755,10,34.6,224.1100311279297,0.23410001397132874,0,0.0,0.0,,,,,0,,3,,
Raw,336573,155600000000,,,-1221746075834508544,0.0,54.68544259201735,4.333474448959299,9.913184937155615,6,13,0.0,207,61013370326836,17,28.8,1.0601164102554321,0.2483000010251999,0,0.0,0.0,,,,,0,,3,,
Raw,336574,155600000000,,,-1221746075834508544,0.0,54.68544259201735,4.333474448959299,9.913184937155615,6,12,0.0,207,61013361754861,61,18.9,687.7150268554688,1.277999997138977,0,0.0,0.0,,,,,0,,3,,
Raw,336574,155600000000,,,-1221746075834508544,0.0,54.68544259201735,4.333474448959299,9.913184937155615,6,1,0.0,207,61013353773770,264,17.8,693.0314331054688,10.041000366210938,0,0.0,0.0,,,,,0,,3,,
Raw,336574,155600000000,,,-1221746075834508544,0.0,54.68544259201735,4.333474448959299,9.913184937155615,6,3,0.0,207,61013367568897,16,29.8,-463.26873779296875,0.23719999194145203,0,0.0,0.0,,,,,0,,3,,
Raw,336575,155600000000,,,-1221746075834508544,0.0,54.68544259201735,4.333474448959299,9.913184937155615,6,1,0.0,15,50231352471543,871,17.4,104.14772033691406,2.9544999599456787,0,0.0,0.0,,,,,0,,1,,
Raw,336575,155600000000,,,-1221746075834508544,0.0,54.68544259201735,4.333474448959299,9.913184937155615,6,10,0.0,15,50231361960675,10,34.0,566.1193237304688,0.023600000888109207,0,0.0,0.0,,,,,0,,1,,
Raw,336575,155600000000,,,-1221746075834508544,0.0,54.68544259201735,4.333474448959299,9.913184937155615,6,14,0.0,15,50231364064026,11,33.6,-155.55563354492188,0.02890000119805336,0,0.0,0.0,,,,,0,,1,,
Raw,336576,155600000000,,,-1221746075834508544,0.0,54.68544259201735,4.333474448959299,9.913184937155615,6,16,0.0,15,50231350294498,195,19.0,-753.1062622070312,8.511500358581543,0,0.0,0.0,,,,,0,,1,,
Raw,336576,155600000000,,,-1221746075834508544,0.0,54.68544259201735,4.333474448959299,9.913184937155615,6,20,0.0,15,50231354014442,367,23.3,709.9000854492188,1.0475000143051147,0,0.0,0.0,,,,,0,,1,,
Raw,336576,155600000000,,,-1221746075834508544,0.0,54.68544259201735,4.333474448959299,9.913184937155615,6,22,0.0,15,50231354791678,11,33.2,-543.3641967773438,0.04390000179409981,0,0.0,0.0,,,,,0,,1,,
Raw,336577,155600000000,,,-1221746075834508544,0.0,54.68544259201735,4.333474448959299,9.913184937155615,6,25,0.0,15,50231361037425,14,30.7,337.80242919921875,0.027300000190734863,0,0.0,0.0,,,,,0,,1,,
Raw,336577,155600000000,,,-1221746075834508544,0.0,54.68544259201735,4.333474448959299,9.913184937155615,6,26,0.0,15,50231359033300,13,31.3,-650.6857299804688,0.053700003772974014,0,0.0,0.0,,,,,0,,1,,
Raw,336577,155600000000,,,-1221746075834508544,0.0,54.68544259201735,4.333474448959299,9.913184937155615,6,31,0.0,15,50231366396827,5,40.6,-20.71909523010254,0.028400002047419548,0,0.0,0.0,,,,,0,,1,,
Raw,336578,155600000000,,,-1221746075834508544,0.0,54.68544259201735,4.333474448959299,9.913184937155615,6,32,0.0,15,50231364509423,10,34.5,53.25559616088867,0.02810000069439411,0,0.0,0.0,,,,,0,,1,,
Raw,336578,155600000000,,,-1221746075834508544,0.0,54.68544259201735,4.333474448959299,9.913184937155615,6,1,0.0,783,50217307555464,16,29.7,-9.649984359741211,0.48500001430511475,0,0.0,0.0,,,,,0,,5,,
Raw,336578,155600000000,,,-1221746075834508544,0.0,54.68544259201735,4.333474448959299,9.913184937155615,6,2,0.0,783,50217310399908,21,27.5,5.463523864746094,1.19350004196167,0,0.0,0.0,,,,,0,,5,,
Raw,336579,155600000000,,,-1221746075834508544,0.0,54.68544259201735,4.333474448959299,9.913184937155615,6,3,0.0,783,50217310955197,11,33.5,-4.8297929763793945,0.29350000619888306,0,0.0,0.0,,,,,0,,5,,
Raw,336579,155600000000,,,-1221746075834508544,0.0,54.68544259201735,4.333474448959299,9.913184937155615,6,4,0.0,783,50217302269065,8,36.4,-4.244072914123535,0.2435000091791153,0,0.0,0.0,,,,,0,,5,,
Raw,336579,155600000000,,,-1221746075834508544,0.0,54.68544259201735,4.333474448959299,9.913184937155615,6,6,0.0,15,50217313368436,17,28.1,-43.27104187011719,0.052799999713897705,0,0.0,0.0,,,,,0,,5,,
Raw,336580,155600000000,,,-1221746075834508544,0.0,54.68544259201735,4.333474448959299,9.913184937155615,6,7,0.0,15,50217313475306,14,30.4,-108.03341674804688,0.04530000314116478,0,0.0,0.0,,,,,0,,5,,
Raw,336580,155600000000,,,-1221746075834508544,0.0,54.68544259201735,4.333474448959299,9.913184937155615,6,10,0.0,15,50217310949751,16,29.3,-166.5550537109375,0.04170000180602074,0,0.0,0.0,,,,,0,,5,,
Raw,336580,155600000000,,,-1221746075834508544,0.0,54.68544259201735,4.333474448959299,9.913184937155615,6,16,0.0,15,50217314540494,21,26.3,-41.992645263671875,0.10220000147819519,0,0.0,0.0,,,,,0,,5,,
Raw,336580,155600000000,,,-1221746075834508544,0.0,54.68544259201735,4.333474448959299,9.913184937155615,6,18,0.0,3,12645006,17,29.0,-92.99512481689453,0.9004999995231628,0,0.0,0.0,,,,,0,,5,,
Raw,337563,156600000000,,,-1221746075834508544,0.0,55.78748096013442,0.5003492940893787,11.500078640162661,6,14,0.0,207,61014362277417,17,28.9,-599.9846801757812,0.2363000065088272,0,0.0,0.0,,,,,0,,3,,
Raw,337563,156600000000,,,-1221746075834508544,0.0,55.78748096013442,0.5003492940893787,11.500078640162661,6,2,0.0,207,61014368856979,11,33.5,223.9779815673828,0.23490001261234283,0,0.0,0.0,,,,,0,,3,,
Raw,337563,156600000000,,,-1221746075834508544,0.0,55.78748096013442,0.5003492940893787,11.500078640162661,6,13,0.0,207,61014370326792,19,27.9,0.9563037753105164,0.2563000023365021,0,0.0,0.0,,,,,0,,3,,
Raw,337563,156600000000,,,-1221746075834508544,0.0,55.78748096013442,0.5003492940893787,11.500078640162661,6,12,0.0,207,61014361752611,40,21.9,686.8632202148438,1.0479999780654907,0,0.0,0.0,,,,,0,,3,,
Raw,337564,156600000000,,,-1221746075834508544,0.0,55.78748096013442,0.5003492940893787,11.500078640162661,6,1,0.0,207,61014353771605,55,19.1,691.4693603515625,1.7710001468658447,0,0.0,0.0,,,,,0,,3,,
Raw,337564,156600000000,,,-1221746075834508544,0.0,55.78748096013442,0.5003492940893787,11.500078640162661,6,3,0.0,207,61014367570468,19,27.7,-463.41949462890625,0.251800000667572,0,0.0,0.0,,,,,0,,3,,
Raw,337564,156600000000,,,-1221746075834508544,0.0,55.78748096013442,0.5003492940893787,11.500078640162661,6,1,0.0,15,50232352471161,32,23.2,101.26477813720703,1.125499963760376,0,0.0,0.0,,,,,0,,1,,
Raw,337565,156600000000,,,-1221746075834508544,0.0,55.78748096013442,0.5003492940893787,11.500078640162661,6,10,0.0,15,50232361958802,8,36.2,565.9531860351562,0.022700000554323196,0,0.0,0.0,,,,,0,,1,,
Raw,337565,156600000000,,,-1221746075834508544,0.0,55.78748096013442,0.5003492940893787,11.500078640162661,6,14,0.0,15,50232364064545,13,31.5,-155.78790283203125,0.031200001016259193,0,0.0,0.0,,,,,0,,1,,
Raw,337565,156600000000,,,-1221746075834508544,0.0,55.78748096013442,0.5003492940893787,11.500078640162661,6,16,0.0,15,50232350297010,254,19.0,-753.1062622070312,10.011500358581543,0,0.0,0.0,,,,,0,,1,,
Raw,337565,156600000000,,,-1221746075834508544,0.0,55.78748096013442,0.5003492940893787,11.500078640162661,6,20,0.0,15,50232354011998,24,25.2,709.5818481445312,0.387800008058548,0,0.0,0.0,,,,,0,,1,,
Raw,337566,156600000000,,,-1221746075834508544,0.0,55.78748096013442,0.5003492940893787,11.500078640162661,6,22,0.0,15,50232354793507,19,27.6,-543.5763549804688,0.062300004065036774,0,0.0,0.0,,,,,0,,1,,
Raw,337566,156600000000,,,-1221746075834508544,0.0,55.78748096013442,0.5003492940893787,11.500078640162661,6,25,0.0,15,50232361036272,10,34.7,337.6490173339844,0.023600000888109207,0,0.0,0.0,,,,,0,,1,,
Raw,337566,156600000000,,,-1221746075834508544,0.0,55.78748096013442,0.5003492940893787,11.500078640162661,6,26,0.0,15,50232359035508,13,31.9,-650.8423461914062,0.053700003772974014,0,0.0,0.0,,,,,0,,1,,
Raw,337566,156600000000,,,-1221746075834508544,0.0,55.78748096013442,0.5003492940893787,11.500078640162661,6,31,0.0,15,50232366396886,6,38.8,-20.882177352905273,0.029100000858306885,0,0.0,0.0,,,,,0,,1,,
Raw,337567,156600000000,,,-1221746075834508544,0.0,55.78748096013442,0.5003492940893787,11.500078640162661,6,32,0.0,15,50232364509295,11,33.4,53.082130432128906,0.02890000119805336,0,0.0,0.0,,,,,0,,1,,
Raw,337567,156600000000,,,-1221746075834508544,0.0,55.78748096013442,0.5003492940893787,11.500078640162661,6,1,0.0,783,50218307555466,16,29.6,-1.1618390083312988,0.5900000333786011,0,0.0,0.0,,,,,0,,5,,
Raw,337567,156600000000,,,-1221746075834508544,0.0,55.78748096013442,0.5003492940893787,11.500078640162661,6,2,0.0,783,50218310399898,16,29.9,7.067052841186523,0.3935000002384186,0,0.0,0.0,,,,,0,,5,,
Raw,337567,156600000000,,,-1221746075834508544,0.0,55.78748096013442,0.5003492940893787,11.500078640162661,6,3,0.0,783,50218310955214,10,34.4,-2.842184543609619,0.273499995470047,0,0.0,0.0,,,,,0,,5,,
Raw,337568,156600000000,,,-1221746075834508544,0.0,55.78748096013442,0.5003492940893787,11.500078640162661,6,4,0.0,783,50218302269115,11,33.1,-2.7941746711730957,0.29350000619888306,0,0.0,0.0,,,,,0,,5,,
Raw,337568,156600000000,,,-1221746075834508544,0.0,55.78748096013442,0.5003492940893787,11.500078640162661,6,6,0.0,15,50218313368560,31,23.6,-42.997642517089844,0.5960000157356262,0,0.0,0.0,,,,,0,,5,,
Raw,337568,156600000000,,,-1221746075834508544,0.0,55.78748096013442,0.5003492940893787,11.500078640162661,6,7,0.0,15,50218313475668,14,30.9,-108.23021697998047,0.04530000314116478,0,0.0,0.0,,,,,0,,5,,
Raw,337568,156600000000,,,-1221746075834508544,0.0,55.78748096013442,0.5003492940893787,11.500078640162661,6,10,0.0,15,50218310950284,16,29.9,-166.76046752929688,0.04170000180602074,0,0.0,0.0,,,,,0,,5,,
Raw,337569,156600000000,,,-1221746075834508544,0.0,55.78748096013442,0.5003492940893787,11.500078640162661,6,16,0.0,15,50218314540628,53,19.3,-41.89341735839844,0.8075000047683716,0,0.0,0.0,,,,,0,,5,,
Raw,337569,156600000000,,,-1221746075834508544,0.0,55.78748096013442,0.5003492940893787,11.500078640162661,6,18,0.0,3,12645294,16,29.1,-93.67259979248047,0.04470000043511391,0,0.0,0.0,,,,,0,,5,,
Raw,338552,157600000000,,,-1221746075834508544,0.0,52.09401570027694,-0.8398307902543832,10.536001943757345,6,14,0.0,207,61015362279479,14,30.5,-600.6320190429688,0.2287999987602234,0,0.0,0.0,,,,,0,,3,,
Raw,338552,157600000000,,,-1221746075834508544,0.0,52.09401570027694,-0.8398307902543832,10.536001943757345,6,2,0.0,207,61015368856222,11,33.1,223.3484649658203,0.23490001261234283,0,0.0,0.0,,,,,0,,3,,
Raw,338553,157600000000,,,-1221746075834508544,0.0,52.09401570027694,-0.8398307902543832,10.536001943757345,6,13,0.0,207,61015370326783,21,26.5,0.3402298390865326,0.326200008392334,0,0.0,0.0,,,,,0,,3,,
Raw,338553,157600000000,,,-1221746075834508544,0.0,52.09401570027694,-0.8398307902543832,10.536001943757345,6,12,0.0,207,61015361750419,24,25.2,686.476806640625,0.583299994468689,0,0.0,0.0,,,,,0,,3,,
Raw,338553,157600000000,,,-1221746075834508544,0.0,52.09401570027694,-0.8398307902543832,10.536001943757345,6,1,0.0,207,61015353768977,53,19.4,690.6369018554688,1.2160000801086426,0,0.0,0.0,,,,,0,,3,,
Raw,338553,157600000000,,,-1221746075834508544,0.0,52.09401570027694,-0.8398307902543832,10.536001943757345,6,3,0.0,207,61015367572100,31,23.2,-464.2282409667969,0.9369999766349792,0,0.0,0.0,,,,,0,,3,,
Raw,338554,157600000000,,,-1221746075834508544,0.0,52.09401570027694,-0.8398307902543832,10.536001943757345,6,1,0.0,15,50233352470895,35,22.0,102.26382446289062,0.8044999837875366,0,0.0,0.0,,,,,0,,1,,
Raw,338554,157600000000,,,-1221746075834508544,0.0,52.09401570027694,-0.8398307902543832,10.536001943757345,6,10,0.0,15,50233361956937,8,36.4,565.2598876953125,0.022700000554323196,0,0.0,0.0,,,,,0,,1,,
Raw,338554,157600000000,,,-1221746075834508544,0.0,52.09401570027694,-0.8398307902543832,10.536001943757345,6,14,0.0,15,50233364065065,17,28.9,-156.4977569580078,0.03930000215768814,0,0.0,0.0,,,,,0,,1,,
Raw,338554,157600000000,,,-1221746075834508544,0.0,52.09401570027694,-0.8398307902543832,10.536001943757345,6,16,0.0,15,50233350299522,322,19.0,-753.1062622070312,11.511500358581543,0,0.0,0.0,,,,,0,,1,,
Raw,338555,157600000000,,,-1221746075834508544,0.0,52.09401570027694,-0.8398307902543832,10.536001943757345,6,18,0.0,15,50233353754281,276,24.8,337.20037841796875,0.8760000467300415,0,0.0,0.0,,,,,0,,1,,
Raw,338555,157600000000,,,-1221746075834508544,0.0,52.09401570027694,-0.8398307902543832,10.536001943757345,6,20,0.0,15,50233354009685,24,25.9,708.8212890625,0.4027999937534332,0,0.0,0.0,,,,,0,,1,,
Raw,338555,157600000000,,,-1221746075834508544,0.0,52.09401570027694,-0.8398307902543832,10.536001943757345,6,22,0.0,15,50233354795472,27,24.9,-543.9735107421875,0.6375000476837158,0,0.0,0.0,,,,,0,,1,,
Raw,338555,157600000000,,,-1221746075834508544,0.0,52.09401570027694,-0.8398307902543832,10.536001943757345,6,25,0.0,15,50233361035144,9,35.2,336.9903564453125,0.023100001737475395,0,0.0,0.0,,,,,0,,1,,
Raw,338556,157600000000,,,-1221746075834508544,0.0,52.09401570027694,-0.8398307902543832,10.536001943757345,6,26,0.0,15,50233359037669,11,33.7,-651.5708618164062,0.05140000209212303,0,0.0,0.0,,,,,0,,1,,
Raw,338556,157600000000,,,-1221746075834508544,0.0,52.09401570027694,-0.8398307902543832,10.536001943757345,6,31,0.0,15,50233366396951,8,36.7,-21.565216064453125,0.03020000085234642,0,0.0,0.0,,,,,0,,1,,
Raw,338557,157600000000,,,-1221746075834508544,0.0,52.09401570027694,-0.8398307902543832,10.536001943757345,6,32,0.0,15,50233364509093,8,36.5,52.351707458496094,0.0272000003606081,0,0.0,0.0,,,,,0,,1,,
Raw,338557,157600000000,,,-1221746075834508544,0.0,52.09401570027694,-0.8398307902543832,10.536001943757345,6,1,0.0,783,50219307555503,16,29.1,-10.955852508544922,0.36500000953674316,0,0.0,0.0,,,,,0,,5,,
Raw,338557,157600000000,,,-1221746075834508544,0.0,52.09401570027694,-0.8398307902543832,10.536001943757345,6,2,0.0,783,50219310399870,13,31.8,4.244072914123535,0.3334999978542328,0,0.0,0.0,,,,,0,,5,,
Raw,338557,157600000000,,,-1221746075834508544,0.0,52.09401570027694,-0.8398307902543832,10.536001943757345,6,3,0.0,783,50219310955239,11,33.4,-4.906609058380127,0.29350000619888306,0,0.0,0.0,,,,,0,,5,,
Raw,338558,157600000000,,,-1221746075834508544,0.0,52.09401570027694,-0.8398307902543832,10.536001943757345,6,4,0.0,783,50219302269127,17,28.6,-3.235865592956543,0.41350001096725464,0,0.0,0.0,,,,,0,,5,,
Raw,338558,157600000000,,,-1221746075834508544,0.0,52.09401570027694,-0.8398307902543832,10.536001943757345,6,6,0.0,15,50219313368701,19,27.7,-43.931209564208984,0.06080000102519989,0,0.0,0.0,,,,,0,,5,,
Raw,338558,157600000000,,,-1221746075834508544,0.0,52.09401570027694,-0.8398307902543832,10.536001943757345,6,7,0.0,15,50219313476028,12,32.3,-108.95903015136719,0.04340000078082085,0,0.0,0.0,,,,,0,,5,,
Raw,338558,157600000000,,,-1221746075834508544,0.0,52.09401570027694,-0.8398307902543832,10.536001943757345,6,10,0.0,15,50219310950852,13,31.0,-167.49929809570312,0.04020000249147415,0,0.0,0.0,,,,,0,,5,,
Raw,338559,157600000000,,,-1221746075834508544,0.0,52.09401570027694,-0.8398307902543832,10.536001943757345,6,16,0.0,15,50219314540812,17,28.0,-42.92720031738281,0.05430000275373459,0,0.0,0.0,,,,,0,,5,,
Raw,338559,157600000000,,,-1221746075834508544,0.0,52.09401570027694,-0.8398307902543832,10.536001943757345,6,18,0.0,3,12645607,14,30.5,-94.42350006103516,0.043800000101327896,0,0.0,0.0,,,,,0,,5,,
Raw,339559,158600000000,,,-1221746075834508544,0.0,48.056652303785086,-3.141683592377886,10.448467994701257,6,14,0.0,207,61016362281501,14,30.0,-601.092041015625,0.2287999987602234,0,0.0,0.0,,,,,0,,3,,
Raw,339561,158600000000,,,-1221746075834508544,0.0,48.056652303785086,-3.141683592377886,10.448467994701257,6,2,0.0,207,61016368855496,12,32.2,222.9453125,0.23590001463890076,0,0.0,0.0,,,,,0,,3,,
Raw,339561,158600000000,,,-1221746075834508544,0.0,48.056652303785086,-3.141683592377886,10.448467994701257,6,13,0.0,207,61016370326836,27,24.5,-0.4307160973548889,0.8814999461174011,0,0.0,0.0,,,,,0,,3,,
Raw,339562,158600000000,,,-1221746075834508544,0.0,48.056652303785086,-3.141683592377886,10.448467994701257,6,12,0.0,207,61016361748069,16,29.0,685.9280395507812,0.2282000035047531,0,0.0,0.0,,,,,0,,3,,
Raw,339562,158600000000,,,-1221746075834508544,0.0,48.056652303785086,-3.141683592377886,10.448467994701257,6,1,0.0,207,61016353766673,62,19.4,690.6369018554688,2.7160000801086426,0,0.0,0.0,,,,,0,,3,,
Raw,339563,158600000000,,,-1221746075834508544,0.0,48.056652303785086,-3.141683592377886,10.448467994701257,6,3,0.0,207,61016367573965,70,17.1,-464.4244079589844,1.3769999742507935,0,0.0,0.0,,,,,0,,3,,
Raw,339564,158600000000,,,-1221746075834508544,0.0,48.056652303785086,-3.141683592377886,10.448467994701257,6,10,0.0,15,50234361955075,9,35.1,564.7904663085938,0.023100001737475395,0,0.0,0.0,,,,,0,,1,,
Raw,339564,158600000000,,,-1221746075834508544,0.0,48.056652303785086,-3.141683592377886,10.448467994701257,6,14,0.0,15,50234364065600,27,24.4,-156.91616821289062,0.67249995470047,0,0.0,0.0,,,,,0,,1,,
Raw,339564,158600000000,,,-1221746075834508544,0.0,48.056652303785086,-3.141683592377886,10.448467994701257,6,20,0.0,15,50234354007332,27,24.2,708.5014038085938,0.6875,0,0.0,0.0,,,,,0,,1,,
Raw,339565,158600000000,,,-1221746075834508544,0.0,48.056652303785086,-3.141683592377886,10.448467994701257,6,22,0.0,15,50234354797239,14,30.1,-544.7635498046875,0.046800002455711365,0,0.0,0.0,,,,,0,,1,,
Raw,339565,158600000000,,,-1221746075834508544,0.0,48.056652303785086,-3.141683592377886,10.448467994701257,6,25,0.0,15,50234361033972,13,31.3,336.56512451171875,0.02670000120997429,0,0.0,0.0,,,,,0,,1,,
Raw,339565,158600000000,,,-1221746075834508544,0.0,48.056652303785086,-3.141683592377886,10.448467994701257,6,26,0.0,15,50234359039828,11,33.7,-652.065673828125,0.05140000209212303,0,0.0,0.0,,,,,0,,1,,
Raw,339566,158600000000,,,-1221746075834508544,0.0,48.056652303785086,-3.141683592377886,10.448467994701257,6,31,0.0,15,50234366397033,10,34.9,-22.046754837036133,0.03110000118613243,0,0.0,0.0,,,,,0,,1,,
Raw,339566,158600000000,,,-1221746075834508544,0.0,48.056652303785086,-3.141683592377886,10.448467994701257,6,32,0.0,15,50234364508904,6,38.5,51.84720993041992,0.026100000366568565,0,0.0,0.0,,,,,0,,1,,
Raw,339566,158600000000,,,-1221746075834508544,0.0,48.056652303785086,-3.141683592377886,10.448467994701257,6,1,0.0,783,50220307555553,17,28.4,-6.95182991027832,0.3850000202655792,0,0.0,0.0,,,,,0,,5,,
Raw,339566,158600000000,,,-1221746075834508544,0.0,48.056652303785086,-3.141683592377886,10.448467994701257,6,2,0.0,783,50220310399840,12,32.2,6.020438194274902,0.3135000169277191,0,0.0,0.0,,,,,0,,5,,
Raw,339567,158600000000,,,-1221746075834508544,0.0,48.056652303785086,-3.141683592377886,10.448467994701257,6,3,0.0,783,50220310955248,12,32.3,-7.700784206390381,0.3135000169277191,0,0.0,0.0,,,,,0,,5,,
Raw,339567,158600000000,,,-1221746075834508544,0.0,48.056652303785086,-3.141683592377886,10.448467994701257,6,4,0.0,783,50220302269007,16,29.2,-6.923023223876953,0.3935000002384186,0,0.0,0.0,,,,,0,,5,,
Raw,339567,158600000000,,,-1221746075834508544,0.0,48.056652303785086,-3.141683592377886,10.448467994701257,6,5,0.0,783,50220305290644,252,24.2,1.6227335929870605,10.320000648498535,0,0.0,0.0,,,,,0,,5,,
Raw,339568,158600000000,,,-1221746075834508544,0.0,48.056652303785086,-3.141683592377886,10.448467994701257,6,6,0.0,15,50220313368853,14,30.9,-44.4698486328125,0.04530000314116478,0,0.0,0.0,,,,,0,,5,,
Raw,339568,158600000000,,,-1221746075834508544,0.0,48.056652303785086,-3.141683592377886,10.448467994701257,6,7,0.0,15,50220313476376,12,32.5,-109.48497772216797,0.04340000078082085,0,0.0,0.0,,,,,0,,5,,
Raw,339568,158600000000,,,-1221746075834508544,0.0,48.056652303785086,-3.141683592377886,10.448467994701257,6,10,0.0,15,50220310951403,12,32.0,-168.0231475830078,0.03890000283718109,0,0.0,0.0,,,,,0,,5,,
Raw,339569,158600000000,,,-1221746075834508544,0.0,48.056652303785086,-3.141683592377886,10.448467994701257,6,16,0.0,15,50220314540927,12,32.4,-43.47086715698242,0.04490000009536743,0,0.0,0.0,,,,,0,,5,,
Raw,339569,158600000000,,,-1221746075834508544,0.0,48.056652303785086,-3.141683592377886,10.448467994701257,6,18,0.0,3,12645930,14,30.6,-94.93834686279297,0.043800000101327896,0,0.0,0.0,,,,,0,,5,,
Raw,340548,159600000000,,,-1221746075834508544,0.0,45.30377918854356,-4.868827491037242,9.76266570430608,6,14,0.0,207,61017362283531,16,29.8,-601.1739501953125,0.2296999990940094,0,0.0,0.0,,,,,0,,3,,
Raw,340549,159600000000,,,-1221746075834508544,0.0,45.30377918854356,-4.868827491037242,9.76266570430608,6,2,0.0,207,61017368854739,13,31.1,222.8800048828125,0.23720000684261322,0,0.0,0.0,,,,,0,,3,,
Raw,340549,159600000000,,,-1221746075834508544,0.0,45.30377918854356,-4.868827491037242,9.76266570430608,6,13,0.0,207,61017370326791,31,23.6,-0.7865251302719116,0.9414999485015869,0,0.0,0.0,,,,,0,,3,,
Raw,340549,159600000000,,,-1221746075834508544,0.0,45.30377918854356,-4.868827491037242,9.76266570430608,6,12,0.0,207,61017361745741,14,30.5,685.7994995117188,0.2273000031709671,0,0.0,0.0,,,,,0,,3,,
Raw,340549,159600000000,,,-1221746075834508544,0.0,45.30377918854356,-4.868827491037242,9.76266570430608,6,1,0.0,207,61017353764369,81,19.4,690.6369018554688,4.216000080108643,0,0.0,0.0,,,,,0,,3,,
Raw,340561,159600000000,,,-1221746075834508544,0.0,45.30377918854356,-4.868827491037242,9.76266570430608,6,3,0.0,207,61017367575114,27,24.3,-464.20953369140625,0.8769999742507935,0,0.0,0.0,,,,,0,,3,,
Raw,340561,159600000000,,,-1221746075834508544,0.0,45.30377918854356,-4.868827491037242,9.76266570430608,6,10,0.0,15,50235361953194,13,31.4,564.6986694335938,0.02670000120997429,0,0.0,0.0,,,,,0,,1,,
Raw,340562,159600000000,,,-1221746075834508544,0.0,45.30377918854356,-4.868827491037242,9.76266570430608,6,14,0.0,15,50235364066047,35,22.4,-156.85906982421875,0.7924999594688416,0,0.0,0.0,,,,,0,,1,,
Raw,340562,159600000000,,,-1221746075834508544,0.0,45.30377918854356,-4.868827491037242,9.76266570430608,6,20,0.0,15,50235354004878,21,26.5,708.0897216796875,0.13220000267028809,0,0.0,0.0,,,,,0,,1,,
Raw,340562,159600000000,,,-1221746075834508544,0.0,45.30377918854356,-4.868827491037242,9.76266570430608,6,22,0.0,15,50235354799010,9,35.4,-544.8673095703125,0.04260000213980675,0,0.0,0.0,,,,,0,,1,,
Raw,340563,159600000000,,,-1221746075834508544,0.0,45.30377918854356,-4.868827491037242,9.76266570430608,6,25,0.0,15,50235361032961,24,25.3,336.4452209472656,0.3833000063896179,0,0.0,0.0,,,,,0,,1,,
Raw,340563,159600000000,,,-1221746075834508544,0.0,45.30377918854356,-4.868827491037242,9.76266570430608,6,26,0.0,15,50235359042034,14,30.0,-652.1765747070312,0.05430000275373459,0,0.0,0.0,,,,,0,,1,,
Raw,340563,159600000000,,,-1221746075834508544,0.0,45.30377918854356,-4.868827491037242,9.76266570430608,6,31,0.0,15,50235366397125,10,34.5,-22.143165588378906,0.03110000118613243,0,0.0,0.0,,,,,0,,1,,
Raw,340563,159600000000,,,-1221746075834508544,0.0,45.30377918854356,-4.868827491037242,9.76266570430608,6,32,0.0,15,50235364508719,7,37.7,51.717071533203125,0.026600001379847527,0,0.0,0.0,,,,,0,,1,,
Raw,340564,159600000000,,,-1221746075834508544,0.0,45.30377918854356,-4.868827491037242,9.76266570430608,6,1,0.0,783,50221307555585,16,29.4,-2.6117372512817383,0.36500000953674316,0,0.0,0.0,,,,,0,,5,,
Raw,340564,159600000000,,,-1221746075834508544,0.0,45.30377918854356,-4.868827491037242,9.76266570430608,6,2,0.0,783,50221310399827,13,31.3,1.5267139673233032,0.3334999978542328,0,0.0,0.0,,,,,0,,5,,
Raw,340564,159600000000,,,-1221746075834508544,0.0,45.30377918854356,-4.868827491037242,9.76266570430608,6,3,0.0,783,50221310955263,13,31.0,-4.820191383361816,0.3334999978542328,0,0.0,0.0,,,,,0,,5,,
Raw,340564,159600000000,,,-1221746075834508544,0.0,45.30377918854356,-4.868827491037242,9.76266570430608,6,4,0.0,783,50221302269004,16,29.2,-4.570539951324463,0.3935000002384186,0,0.0,0.0,,,,,0,,5,,
Raw,340565,159600000000,,,-1221746075834508544,0.0,45.30377918854356,-4.868827491037242,9.76266570430608,6,5,0.0,783,50221305290638,324,24.2,1.6227335929870605,11.820000648498535,0,0.0,0.0,,,,,0,,5,,
Raw,340565,159600000000,,,-1221746075834508544,0.0,45.30377918854356,-4.868827491037242,9.76266570430608,6,6,0.0,15,50221313368992,14,30.7,-44.64262771606445,0.04530000314116478,0,0.0,0.0,,,,,0,,5,,
Raw,340565,159600000000,,,-1221746075834508544,0.0,45.30377918854356,-4.868827491037242,9.76266570430608,6,7,0.0,15,50221313476732,16,29.9,-109.65203857421875,0.04620000347495079,0,0.0,0.0,,,,,0,,5,,
Raw,340566,159600000000,,,-1221746075834508544,0.0,45.30377918854356,-4.868827491037242,9.76266570430608,6,10,0.0,15,50221310951956,13,31.5,-168.19996643066406,0.04020000249147415,0,0.0,0.0,,,,,0,,5,,
Raw,340566,159600000000,,,-1221746075834508544,0.0,45.30377918854356,-4.868827491037242,9.76266570430608,6,16,0.0,15,50221314541064,11,33.6,-43.651084899902344,0.04390000179409981,0,0.0,0.0,,,,,0,,5,,
Raw,340566,159600000000,,,-1221746075834508544,0.0,45.30377918854356,-4.868827491037242,9.76266570430608,6,18,0.0,3,12646237,16,29.2,-95.09048461914062,0.04470000043511391,0,0.0,0.0,,,,,0,,5,,
Raw,341558,160600000000,,,-1221746075834508544,0.0,41.98169335722923,-5.274005326638714,9.851310657812471,6,14,0.0,207,61018362285509,14,30.4,-599.3578491210938,0.2287999987602234,0,0.0,0.0,,,,,0,,3,,
Raw,341558,160600000000,,,-1221746075834508544,0.0,41.98169335722923,-5.274005326638714,9.851310657812471,6,2,0.0,207,61018368854002,12,32.7,224.69363403320312,0.23590001463890076,0,0.0,0.0,,,,,0,,3,,
Raw,341559,160600000000,,,-1221746075834508544,0.0,41.98169335722923,-5.274005326638714,9.851310657812471,6,13,0.0,207,61018370326769,27,24.0,1.470052719116211,0.8814999461174011,0,0.0,0.0,,,,,0,,3,,
Raw,341559,160600000000,,,-1221746075834508544,0.0,41.98169335722923,-5.274005326638714,9.851310657812471,6,12,0.0,207,61018361743457,14,30.6,687.524658203125,0.2273000031709671,0,0.0,0.0,,,,,0,,3,,
Raw,341559,160600000000,,,-1221746075834508544,0.0,41.98169335722923,-5.274005326638714,9.851310657812471,6,1,0.0,207,61018353762036,103,15.8,691.4413452148438,3.076000213623047,0,0.0,0.0,,,,,0,,3,,
Raw,341560,160600000000,,,-1221746075834508544,0.0,41.98169335722923,-5.274005326638714,9.851310657812471,6,3,0.0,207,61018367576635,19,27.6,-462.8503112792969,0.251800000667572,0,0.0,0.0,,,,,0,,3,,
Raw,341560,160600000000,,,-1221746075834508544,0.0,41.98169335722923,-5.274005326638714,9.851310657812471,6,1,0.0,15,50236352469787,566,19.8,101.33138275146484,1.9845000505447388,0,0.0,0.0,,,,,0,,1,,
Raw,341560,160600000000,,,-1221746075834508544,0.0,41.98169335722923,-5.274005326638714,9.851310657812471,6,10,0.0,15,50236361951313,14,30.1,566.4827270507812,0.027300000190734863,0,0.0,0.0,,,,,0,,1,,
Raw,341560,160600000000,,,-1221746075834508544,0.0,41.98169335722923,-5.274005326638714,9.851310657812471,6,14,0.0,15,50236364066588,13,31.0,-155.45669555664062,0.031200001016259193,0,0.0,0.0,,,,,0,,1,,
Raw,341561,160600000000,,,-1221746075834508544,0.0,41.98169335722923,-5.274005326638714,9.851310657812471,6,20,0.0,15,50236354002452,21,26.0,709.7908325195312,0.13220000267028809,0,0.0,0.0,,,,,0,,1,,
Raw,341561,160600000000,,,-1221746075834508544,0.0,41.98169335722923,-5.274005326638714,9.851310657812471,6,22,0.0,15,50236354800817,6,38.3,-543.1220092773438,0.04110000282526016,0,0.0,0.0,,,,,0,,1,,
Raw,341561,160600000000,,,-1221746075834508544,0.0,41.98169335722923,-5.274005326638714,9.851310657812471,6,25,0.0,15,50236361031827,16,29.9,338.31964111328125,0.028200000524520874,0,0.0,0.0,,,,,0,,1,,
Raw,341561,160600000000,,,-1221746075834508544,0.0,41.98169335722923,-5.274005326638714,9.851310657812471,6,26,0.0,15,50236359044187,12,32.3,-650.4613647460938,0.052400000393390656,0,0.0,0.0,,,,,0,,1,,
Raw,341562,160600000000,,,-1221746075834508544,0.0,41.98169335722923,-5.274005326638714,9.851310657812471,6,31,0.0,15,50236366397196,9,35.5,-20.346826553344727,0.03060000203549862,0,0.0,0.0,,,,,0,,1,,
Raw,341562,160600000000,,,-1221746075834508544,0.0,41.98169335722923,-5.274005326638714,9.851310657812471,6,32,0.0,15,50236364508567,8,36.2,53.46663284301758,0.0272000003606081,0,0.0,0.0,,,,,0,,1,,
Raw,341562,160600000000,,,-1221746075834508544,0.0,41.98169335722923,-5.274005326638714,9.851310657812471,6,1,0.0,783,50222307555603,16,29.3,-9.755605697631836,0.36500000953674316,0,0.0,0.0,,,,,0,,5,,
Raw,341562,160600000000,,,-1221746075834508544,0.0,41.98169335722923,-5.274005326638714,9.851310657812471,6,2,0.0,783,50222310399827,13,31.8,8.152076721191406,0.3334999978542328,0,0.0,0.0,,,,,0,,5,,
Raw,341563,160600000000,,,-1221746075834508544,0.0,41.98169335722923,-5.274005326638714,9.851310657812471,6,3,0.0,783,50222310955260,19,27.9,-9.429139137268066,0.44350001215934753,0,0.0,0.0,,,,,0,,5,,
Raw,341563,160600000000,,,-1221746075834508544,0.0,41.98169335722923,-5.274005326638714,9.851310657812471,6,4,0.0,783,50222302269099,17,28.7,1.7763652801513672,0.41350001096725464,0,0.0,0.0,,,,,0,,5,,
Raw,341563,160600000000,,,-1221746075834508544,0.0,41.98169335722923,-5.274005326638714,9.851310657812471,6,5,0.0,783,50222305290633,406,24.2,1.6227335929870605,13.320000648498535,0,0.0,0.0,,,,,0,,5,,
Raw,341563,160600000000,,,-1221746075834508544,0.0,41.98169335722923,-5.274005326638714,9.851310657812471,6,6,0.0,15,50222313369143,14,30.9,-42.95650100708008,0.04530000314116478,0,0.0,0.0,,,,,0,,5,,
Raw,341564,160600000000,,,-1221746075834508544,0.0,41.98169335722923,-5.274005326638714,9.851310657812471,6,7,0.0,15,50222313477054,31,23.3,-107.78216552734375,0.5960000157356262,0,0.0,0.0,,,,,0,,5,,
Raw,341564,160600000000,,,-1221746075834508544,0.0,41.98169335722923,-5.274005326638714,9.851310657812471,6,10,0.0,15,50222310952505,14,30.0,-166.4640655517578,0.040800001472234726,0,0.0,0.0,,,,,0,,5,,
Raw,341564,160600000000,,,-1221746075834508544,0.0,41.98169335722923,-5.274005326638714,9.851310657812471,6,16,0.0,15,50222314541221,12,32.9,-41.96211624145508,0.04490000009536743,0,0.0,0.0,,,,,0,,5,,
Raw,341565,160600000000,,,-1221746075834508544,0.0,41.98169335722923,-5.274005326638714,9.851310657812471,6,18,0.0,3,12646567,16,29.7,-93.37783813476562,0.04470000043511391,0,0.0,0.0,,,,,0,,5,,
Raw,342568,161600000000,,,-1221746075834508544,0.0,40.6174804084003,0.22011442648614737,9.837180939796358,6,14,0.0,207,61019362287481,14,30.4,-598.249267578125,0.2287999987602234,0,0.0,0.0,,,,,0,,3,,
Raw,342568,161600000000,,,-1221746075834508544,0.0,40.6174804084003,0.22011442648614737,9.837180939796358,6,2,0.0,207,61019368853249,9,35.2,225.82553100585938,0.23360000550746918,0,0.0,0.0,,,,,0,,3,,
Raw,342568,161600000000,,,-1221746075834508544,0.0,40.6174804084003,0.22011442648614737,9.837180939796358,6,13,0.0,207,61019370326748,21,26.1,2.88455867767334,0.326200008392334,0,0.0,0.0,,,,,0,,3,,
Raw,342569,161600000000,,,-1221746075834508544,0.0,40.6174804084003,0.22011442648614737,9.837180939796358,6,12,0.0,207,61019361741164,17,28.3,688.6591796875,0.23480001091957092,0,0.0,0.0,,,,,0,,3,,
Raw,342569,161600000000,,,-1221746075834508544,0.0,40.6174804084003,0.22011442648614737,9.837180939796358,6,1,0.0,207,61019353759729,123,15.8,691.4413452148438,4.576000213623047,0,0.0,0.0,,,,,0,,3,,
Raw,342570,161600000000,,,-1221746075834508544,0.0,40.6174804084003,0.22011442648614737,9.837180939796358,6,3,0.0,207,61019367578204,14,30.6,-461.7760925292969,0.23629999160766602,0,0.0,0.0,,,,,0,,3,,
Raw,342571,161600000000,,,-1221746075834508544,0.0,40.6174804084003,0.22011442648614737,9.837180939796358,6,1,0.0,15,50237352469451,498,21.1,103.23431396484375,2.6644999980926514,0,0.0,0.0,,,,,0,,1,,
Raw,342571,161600000000,,,-1221746075834508544,0.0,40.6174804084003,0.22011442648614737,9.837180939796358,6,10,0.0,15,50237361949371,14,30.1,567.54443359375,0.027300000190734863,0,0.0,0.0,,,,,0,,1,,
Raw,342571,161600000000,,,-1221746075834508544,0.0,40.6174804084003,0.22011442648614737,9.837180939796358,6,14,0.0,15,50237364067135,10,34.7,-154.39785766601562,0.02810000069439411,0,0.0,0.0,,,,,0,,1,,
Raw,342572,161600000000,,,-1221746075834508544,0.0,40.6174804084003,0.22011442648614737,9.837180939796358,6,20,0.0,15,50237354000018,27,24.8,710.9752197265625,0.6375000476837158,0,0.0,0.0,,,,,0,,1,,
Raw,342572,161600000000,,,-1221746075834508544,0.0,40.6174804084003,0.22011442648614737,9.837180939796358,6,22,0.0,15,50237354802627,6,39.6,-542.03369140625,0.0406000018119812,0,0.0,0.0,,,,,0,,1,,
