# 
# Header Description:
# 
# Version: v2.0.0.1 Platform: 8.0.0 Manufacturer: HUAWEI Model: VKY-TL00
# 
# Raw,ElapsedRealtimeMillis,TimeNanos,LeapSecond,TimeUncertaintyNanos,FullBiasNanos,BiasNanos,BiasUncertaintyNanos,DriftNanosPerSecond,DriftUncertaintyNanosPerSecond,HardwareClockDiscontinuityCount,Svid,TimeOffsetNanos,State,ReceivedSvTimeNanos,ReceivedSvTimeUncertaintyNanos,Cn0DbHz,PseudorangeRateMetersPerSecond,PseudorangeRateUncertaintyMetersPerSecond,AccumulatedDeltaRangeState,AccumulatedDeltaRangeMeters,AccumulatedDeltaRangeUncertaintyMeters,CarrierFrequencyHz,CarrierCycles,CarrierPhase,CarrierPhaseUncertainty,MultipathIndicator,SnrInDb,ConstellationType,AgcDb,CarrierFrequencyHz
# 
# Fix,Provider,Latitude,Longitude,Altitude,Speed,Accuracy,(UTC)TimeInMs
# 
# Nav,Svid,Type,Status,MessageId,Sub-messageId,Data(Bytes)
# 
Raw,282247897,7541000000,,,-1222628376458742108,0.0,19.4409761888244,,,0,2,0.0,51,18216210,14,36.49684143066406,526.7994087273189,0.07667914503663759,4,2856.348046219092,3.4028234663852886E38,,,,,0,,1,,
Raw,282247897,7541000000,,,-1222628376458742108,0.0,19.4409761888244,,,0,5,0.0,51,11406574,19,33.723026275634766,-8.86757726587349,0.1017168864505848,4,-54.40692129611136,3.4028234663852886E38,,,,,0,,1,,
Raw,282247898,7541000000,,,-1222628376458742108,0.0,19.4409761888244,,,0,7,0.0,51,6794658,9,39.77000427246094,299.9011121144915,0.052707857500003424,4,1321.2902434623488,3.4028234663852886E38,,,,,0,,1,,
Raw,282247898,7541000000,,,-1222628376458742108,0.0,19.4409761888244,,,0,9,0.0,16,35522807,1000000000,15.823434829711914,578.2360045448704,2.99792458E8,4,2561.7706600535244,3.4028234663852886E38,,,,,1,,1,,
Raw,282247898,7541000000,,,-1222628376458742108,0.0,19.4409761888244,,,0,13,0.0,51,8229333,9,39.901771545410156,-549.2108392507407,0.05224493186860937,4,-2994.1683472248455,3.4028234663852886E38,,,,,0,,1,,
Raw,282247899,7541000000,,,-1222628376458742108,0.0,19.4409761888244,,,0,15,0.0,17,975135,74,20.267610549926758,-776.494403952102,4.206830892259434,4,-1896.0827954448123,3.4028234663852886E38,,,,,0,,1,,
Raw,282247899,7541000000,,,-1222628376458742108,0.0,19.4409761888244,,,0,28,0.0,51,967020,18,34.1306266784668,-664.1327245859616,0.09543506368272431,4,-3619.4258686596836,3.4028234663852886E38,,,,,0,,1,,
Raw,282247899,7541000000,,,-1222628376458742108,0.0,19.4409761888244,,,0,30,0.0,51,11065104,15,35.65279006958008,-73.71102338636575,0.08251663109104151,4,-410.0034612370397,3.4028234663852886E38,,,,,0,,1,,
Raw,282247900,7541000000,,,-1222628376458742108,0.0,19.4409761888244,,,0,2,0.0,99,1930093247,50,31.517032623291016,-679.2547697205673,0.12925760819089932,4,-3007.6127389051007,3.4028234663852886E38,,,,,0,,3,,
Raw,282247900,7541000000,,,-1222628376458742108,0.0,19.4409761888244,,,0,18,0.0,17,48566,100,25.486370086669922,-71.20966503877898,0.2524818560533354,4,-102.26975658009954,3.4028234663852886E38,,,,,0,,3,,
Raw,282247901,7541000000,,,-1222628376458742108,0.0,19.4409761888244,,,0,12,0.0,99,1924585183,54,30.727462768554688,-924.6054446246703,0.1400521695386454,4,-2241.8617901548014,3.4028234663852886E38,,,,,0,,3,,
Raw,282247901,7541000000,,,-1222628376458742108,0.0,19.4409761888244,,,0,11,0.0,99,1933430097,44,32.647769927978516,-466.19112161210955,0.11474092806037978,4,-2073.0432915301676,3.4028234663852886E38,,,,,0,,3,,
Raw,282247901,7541000000,,,-1222628376458742108,0.0,19.4409761888244,,,0,1,0.0,99,1935217450,69,28.659297943115234,114.4276641537977,0.1784279338647391,4,501.48796963664415,3.4028234663852886E38,,,,,0,,3,,
Raw,282247902,7541000000,,,-1222628376458742108,0.0,19.4409761888244,,,0,17,0.0,99,1923025067,53,30.973764419555664,513.2054846133699,0.13597956561153668,4,1757.1730211601116,3.4028234663852886E38,,,,,0,,3,,
Raw,282247902,7541000000,,,-1222628376458742108,0.0,19.4409761888244,,,0,8,0.0,99,1925788499,35,34.50291442871094,583.9234803946579,0.09245659314748506,4,2584.509832229661,3.4028234663852886E38,,,,,0,,3,,
Raw,282248835,8541000000,,,-1222628376458742411,0.0,18.36201033929927,,,0,2,0.0,51,18214469,15,35.464942932128906,527.1166141501767,0.0818869543784177,4,3383.3598196930993,3.4028234663852886E38,,,,,0,,1,,
Raw,282248836,8541000000,,,-1222628376458742411,0.0,18.36201033929927,,,0,5,0.0,51,11406688,166,29.332473754882812,-7.446458117470126,0.16131105186927497,4,-63.113498934463365,3.4028234663852886E38,,,,,1,,1,,
Raw,282248837,8541000000,,,-1222628376458742411,0.0,18.36201033929927,,,0,7,0.0,51,6793720,12,37.84056091308594,300.5200836074023,0.061021900823966024,4,1621.4453620927645,3.4028234663852886E38,,,,,0,,1,,
Raw,282248837,8541000000,,,-1222628376458742411,0.0,18.36201033929927,,,0,9,0.0,16,15520894,1000000000,18.776458740234375,578.7160218625377,2.99792458E8,4,3139.809200351395,3.4028234663852886E38,,,,,1,,1,,
Raw,282248838,8541000000,,,-1222628376458742411,0.0,18.36201033929927,,,0,13,0.0,51,8231161,8,40.902530670166016,-548.8930203436655,0.04351468483546356,4,-3543.116196199222,3.4028234663852886E38,,,,,0,,1,,
Raw,282248839,8541000000,,,-1222628376458742411,0.0,18.36201033929927,,,0,15,0.0,17,977593,167,20.502763748168945,-775.0222463250557,4.20323386175032,4,-2671.9151962987044,3.4028234663852886E38,,,,,1,,1,,
Raw,282248840,8541000000,,,-1222628376458742411,0.0,18.36201033929927,,,0,28,0.0,51,969300,24,31.756027221679688,-663.5218988001598,0.12425520888860214,4,-4283.344185746588,3.4028234663852886E38,,,,,0,,1,,
Raw,282248841,8541000000,,,-1222628376458742411,0.0,18.36201033929927,,,0,30,0.0,51,11065381,16,35.3824462890625,-73.01486365004496,0.08135117916038859,4,-483.43981289053534,3.4028234663852886E38,,,,,0,,1,,
Raw,282248842,8541000000,,,-1222628376458742411,0.0,18.36201033929927,,,0,2,0.0,99,930095387,73,28.169692993164062,-678.0521361597034,0.18388819968379022,4,-3686.8165151415865,3.4028234663852886E38,,,,,0,,3,,
Raw,282248842,8541000000,,,-1222628376458742411,0.0,18.36201033929927,,,0,18,0.0,17,48818,80,27.448684692382812,-70.63699030274739,0.19873916414251958,4,-173.16796611769178,3.4028234663852886E38,,,,,0,,3,,
Raw,282248843,8541000000,,,-1222628376458742411,0.0,18.36201033929927,,,0,12,0.0,99,924588225,62,29.64849090576172,-924.5132174973196,0.15439447663232608,4,-3166.499965378117,3.4028234663852886E38,,,,,0,,3,,
Raw,282248844,8541000000,,,-1222628376458742411,0.0,18.36201033929927,,,0,11,0.0,99,933431591,43,32.65367889404297,-465.4865349884135,0.1110697665441458,4,-2538.9815348606726,3.4028234663852886E38,,,,,0,,3,,
Raw,282248846,8541000000,,,-1222628376458742411,0.0,18.36201033929927,,,0,1,0.0,99,935216977,83,27.062519073486328,115.65295402763513,0.2095619250618369,4,615.9035787200614,3.4028234663852886E38,,,,,0,,3,,
Raw,282248846,8541000000,,,-1222628376458742411,0.0,18.36201033929927,,,0,17,0.0,99,923023380,56,30.52888298034668,513.5698260735987,0.13931026036176875,4,2270.7216381863846,3.4028234663852886E38,,,,,0,,3,,
Raw,282248847,8541000000,,,-1222628376458742411,0.0,18.36201033929927,,,0,8,0.0,99,925786584,33,37.27418899536133,584.5432357840687,0.06487005646439353,4,3168.727877164136,3.4028234663852886E38,,,,,0,,3,,
Raw,282249884,9541000000,,,-1222628376458742716,0.0,17.608467793307955,,,0,2,0.0,51,18212688,20,33.3316650390625,527.601846083692,0.10377115326365888,4,3910.709941185624,3.4028234663852886E38,,,,,0,,1,,
Raw,282249886,9541000000,,,-1222628376458742716,0.0,17.608467793307955,,,0,5,0.0,51,11406635,12,37.42316436767578,-7.394030778723913,0.06479546780710094,4,-70.67977079823464,3.4028234663852886E38,,,,,0,,1,,
Raw,282249888,9541000000,,,-1222628376458742716,0.0,17.608467793307955,,,0,7,0.0,51,6792629,11,38.456504821777344,300.76779490141007,0.0569279870406183,4,1922.0143065107618,3.4028234663852886E38,,,,,0,,1,,
Raw,282249889,9541000000,,,-1222628376458742716,0.0,17.608467793307955,,,0,9,0.0,16,15518998,1000000000,18.50187110900879,578.9036117032392,2.99792458E8,4,3718.853641469017,3.4028234663852886E38,,,,,1,,1,,
Raw,282249890,9541000000,,,-1222628376458742716,0.0,17.608467793307955,,,0,13,0.0,51,8233010,8,40.96247863769531,-548.4123213768678,0.043225911736734096,4,-4091.7265142844813,3.4028234663852886E38,,,,,0,,1,,
Raw,282249891,9541000000,,,-1222628376458742716,0.0,17.608467793307955,,,0,15,0.0,17,980023,167,17.715953826904297,-774.2556637129446,4.203234128019512,4,-3447.1111823228916,3.4028234663852886E38,,,,,1,,1,,
Raw,282249893,9541000000,,,-1222628376458742716,0.0,17.608467793307955,,,0,21,0.0,17,58894,98,13.538066864013672,-434.42610172056766,5.73688103320919,6,-67.77109900470596,3.4028234663852886E38,,,,,0,,1,,
Raw,282249894,9541000000,,,-1222628376458742716,0.0,17.608467793307955,,,0,28,0.0,51,971516,34,28.804218292236328,-663.6195791205541,0.17301785978830164,4,-4946.89125876632,3.4028234663852886E38,,,,,0,,1,,
Raw,282249895,9541000000,,,-1222628376458742716,0.0,17.608467793307955,,,0,30,0.0,51,11065623,10,39.44398880004883,-72.83161080193594,0.051710180122785415,4,-556.459640046361,3.4028234663852886E38,,,,,0,,1,,
Raw,282249896,9541000000,,,-1222628376458742716,0.0,17.608467793307955,,,0,2,0.0,99,1930097835,88,26.578012466430664,-678.9512995276882,0.22050578853785174,4,-4365.597778205808,3.4028234663852886E38,,,,,0,,3,,
Raw,282249898,9541000000,,,-1222628376458742716,0.0,17.608467793307955,,,0,18,0.0,99,1925049190,88,26.56804847717285,-70.18765997687186,0.21984871938214368,4,-243.55831917530932,3.4028234663852886E38,,,,,0,,3,,
Raw,282249899,9541000000,,,-1222628376458742716,0.0,17.608467793307955,,,0,12,0.0,99,1924591295,63,29.40748405456543,-924.0897088925672,0.15871575934255022,4,-4090.786664139636,3.4028234663852886E38,,,,,0,,3,,
Raw,282249900,9541000000,,,-1222628376458742716,0.0,17.608467793307955,,,0,11,0.0,99,1933433165,33,37.29936599731445,-465.2923331511465,0.06606073324049297,4,-3004.483696111332,3.4028234663852886E38,,,,,0,,3,,
Raw,282249901,9541000000,,,-1222628376458742716,0.0,17.608467793307955,,,0,1,0.0,99,1935216621,62,29.54499053955078,116.02650627173927,0.15814712484209714,4,731.6533538178484,3.4028234663852886E38,,,,,0,,3,,
Raw,282249903,9541000000,,,-1222628376458742716,0.0,17.608467793307955,,,0,17,0.0,99,1923021604,58,30.162538528442383,514.1490915046604,0.145287870578244,4,2784.6624384279526,3.4028234663852886E38,,,,,0,,3,,
Raw,282249903,9541000000,,,-1222628376458742716,0.0,17.608467793307955,,,0,8,0.0,99,1925784608,33,38.670475006103516,584.6685910591596,0.05539119775956414,4,3753.28959927944,3.4028234663852886E38,,,,,0,,3,,
Raw,282250825,10541000000,,,-1222628376458743019,0.0,17.00290754087022,,,0,2,0.0,51,18210953,21,32.8140983581543,527.7553193854142,0.10994110136649271,4,4438.335953606588,3.4028234663852886E38,,,,,0,,1,,
Raw,282250825,10541000000,,,-1222628376458743019,0.0,17.00290754087022,,,0,5,0.0,51,11406665,11,38.110843658447266,-7.069188222913091,0.060019488847685154,4,-77.91057429739506,3.4028234663852886E38,,,,,0,,1,,
Raw,282250825,10541000000,,,-1222628376458743019,0.0,17.00290754087022,,,0,7,0.0,51,6791657,11,37.985687255859375,300.95944055443783,0.060030688795556175,4,2222.8681084229797,3.4028234663852886E38,,,,,0,,1,,
Raw,282250826,10541000000,,,-1222628376458743019,0.0,17.00290754087022,,,0,9,0.0,16,15517056,1000000000,16.19375991821289,578.6213407983173,2.99792458E8,4,4298.291915844392,3.4028234663852886E38,,,,,1,,1,,
Raw,282250826,10541000000,,,-1222628376458743019,0.0,17.00290754087022,,,0,13,0.0,51,8234817,9,39.90191650390625,-548.1247336087283,0.048647622608935015,4,-4640.024284769969,3.4028234663852886E38,,,,,0,,1,,
Raw,282250826,10541000000,,,-1222628376458743019,0.0,17.00290754087022,,,0,15,0.0,17,982410,167,17.281295776367188,-774.3897440969054,4.203234660557895,4,-4222.377868564165,3.4028234663852886E38,,,,,1,,1,,
Raw,282250826,10541000000,,,-1222628376458743019,0.0,17.00290754087022,,,0,21,0.0,16,16060392,1000000000,7.020166397094727,-434.42610172056766,2.99792458E8,4,-6.938868814993981,3.4028234663852886E38,,,,,0,,1,,
Raw,282250826,10541000000,,,-1222628376458743019,0.0,17.00290754087022,,,0,28,0.0,51,973719,32,29.200759887695312,-663.1958660210626,0.1654653505127267,4,-5610.201126109534,3.4028234663852886E38,,,,,0,,1,,
Raw,282250827,10541000000,,,-1222628376458743019,0.0,17.00290754087022,,,0,30,0.0,51,11065871,10,39.10990905761719,-72.53228162752436,0.053659823945847396,4,-629.1448898385473,3.4028234663852886E38,,,,,0,,1,,
Raw,282250827,10541000000,,,-1222628376458743019,0.0,17.00290754087022,,,0,2,0.0,99,930100060,89,26.474769592285156,-678.2120510457084,0.22312111782124322,4,-5043.990206716058,3.4028234663852886E38,,,,,0,,3,,
Raw,282250827,10541000000,,,-1222628376458743019,0.0,17.00290754087022,,,0,18,0.0,99,925049380,89,26.50045394897461,-69.7642152767254,0.2215592493107067,4,-313.53506645419657,3.4028234663852886E38,,,,,0,,3,,
Raw,282250827,10541000000,,,-1222628376458743019,0.0,17.00290754087022,,,0,12,0.0,99,924594370,60,29.918916702270508,-923.8974156728655,0.14968801889465055,4,-5014.862381243444,3.4028234663852886E38,,,,,0,,3,,
Raw,282250827,10541000000,,,-1222628376458743019,0.0,17.00290754087022,,,0,11,0.0,99,933434733,33,36.93108367919922,-464.94561232094,0.06881755963647487,4,-3469.6126007015273,3.4028234663852886E38,,,,,0,,3,,
Raw,282250828,10541000000,,,-1222628376458743019,0.0,17.00290754087022,,,0,1,0.0,99,935216209,61,29.720752716064453,116.24949074353975,0.15503385552861826,4,847.7266332320154,3.4028234663852886E38,,,,,0,,3,,
Raw,282250828,10541000000,,,-1222628376458743019,0.0,17.00290754087022,,,0,17,0.0,99,923019870,76,27.897390365600586,514.4808160539969,0.18841387728220438,4,3298.9653054828627,3.4028234663852886E38,,,,,0,,3,,
Raw,282250828,10541000000,,,-1222628376458743019,0.0,17.00290754087022,,,0,8,0.0,99,925782711,33,37.8519287109375,584.9749923432996,0.06076190560020828,4,4338.111956438833,3.4028234663852886E38,,,,,0,,3,,
Raw,282251866,11541000000,,,-1222628376458743320,0.0,16.492206550295823,,,0,2,0.0,51,18209167,16,35.32567596435547,528.0280472025097,0.08315657580936581,4,4966.20956609022,3.4028234663852886E38,,,,,0,,1,,
Raw,282251867,11541000000,,,-1222628376458743320,0.0,16.492206550295823,,,0,5,0.0,51,11406696,11,38.1580696105957,-6.682767188779682,0.05970517470884418,4,-84.78250782304319,3.4028234663852886E38,,,,,0,,1,,
Raw,282251868,11541000000,,,-1222628376458743320,0.0,16.492206550295823,,,0,7,0.0,51,6790610,11,38.03786849975586,301.366828157255,0.05967825239730132,4,2524.011471682872,3.4028234663852886E38,,,,,0,,1,,
Raw,282251868,11541000000,,,-1222628376458743320,0.0,16.492206550295823,,,0,9,0.0,17,515181,166,16.92880630493164,578.9359218720228,4.2027907898155235,4,4877.706488121971,3.4028234663852886E38,,,,,1,,1,,
Raw,282251869,11541000000,,,-1222628376458743320,0.0,16.492206550295823,,,0,13,0.0,51,8236663,10,39.31903839111328,-547.8040858577617,0.051921730995499266,4,-5188.000457071872,3.4028234663852886E38,,,,,0,,1,,
Raw,282251869,11541000000,,,-1222628376458743320,0.0,16.492206550295823,,,0,15,0.0,17,984973,167,13.432941436767578,-774.8153658139622,4.203235193096278,4,-4997.315455023224,3.4028234663852886E38,,,,,1,,1,,
Raw,282251870,11541000000,,,-1222628376458743320,0.0,16.492206550295823,,,0,21,0.0,16,16061740,1000000000,7.465473175048828,-431.5896233589133,2.99792458E8,4,-437.20031606440693,3.4028234663852886E38,,,,,0,,1,,
Raw,282251870,11541000000,,,-1222628376458743320,0.0,16.492206550295823,,,0,28,0.0,51,975989,41,27.183082580566406,-662.9717397869686,0.20774676798280567,4,-6273.271403303389,3.4028234663852886E38,,,,,0,,1,,
Raw,282251871,11541000000,,,-1222628376458743320,0.0,16.492206550295823,,,0,30,0.0,51,11066107,10,38.8469123840332,-72.13868037837068,0.05524826945006894,1,-701.5012392243157,0.0010375764686614275,,,,,0,,1,,
Raw,282251871,11541000000,,,-1222628376458743320,0.0,16.492206550295823,,,0,2,0.0,99,1930102296,97,25.780963897705078,-677.9596363727005,0.24152393023564,4,-5722.120874441253,3.4028234663852886E38,,,,,0,,3,,
Raw,282251872,11541000000,,,-1222628376458743320,0.0,16.492206550295823,,,0,18,0.0,99,1925049597,101,25.37847137451172,-69.47525568971088,0.2519841490087906,1,-383.1687669546358,0.00454001734033227,,,,,0,,3,,
Raw,282251872,11541000000,,,-1222628376458743320,0.0,16.492206550295823,,,0,12,0.0,99,1924597463,54,30.822153091430664,-923.6110548731608,0.13498631495962876,4,-5938.598537696242,3.4028234663852886E38,,,,,0,,3,,
Raw,282251873,11541000000,,,-1222628376458743320,0.0,16.492206550295823,,,0,11,0.0,99,1933436267,33,36.27340316772461,-464.5155939669917,0.07404084171455971,4,-3934.3739223093553,3.4028234663852886E38,,,,,0,,3,,
Raw,282251874,11541000000,,,-1222628376458743320,0.0,16.492206550295823,,,0,1,0.0,99,1935215800,62,29.636266708374023,116.6625104722973,0.1565224001605222,4,964.1387826912761,3.4028234663852886E38,,,,,0,,3,,
Raw,282251876,11541000000,,,-1222628376458743320,0.0,16.492206550295823,,,0,17,0.0,99,1923018256,88,26.574161529541016,515.1832214004755,0.2193293613239582,4,3813.6099685555387,3.4028234663852886E38,,,,,0,,3,,
Raw,282251877,11541000000,,,-1222628376458743320,0.0,16.492206550295823,,,0,8,0.0,99,1925780714,33,37.23021697998047,585.3171802067886,0.06519297026603146,4,4923.200478429332,3.4028234663852886E38,,,,,0,,3,,
Raw,282252842,12541000000,,,-1222628376458743620,0.0,15.86291040750468,,,0,2,0.0,51,18207415,16,34.99971008300781,528.2845858527569,0.08621103291515347,4,5494.376921615092,3.4028234663852886E38,,,,,0,,1,,
Raw,282252843,12541000000,,,-1222628376458743620,0.0,15.86291040750468,,,0,5,0.0,51,11406717,10,38.958438873291016,-6.341766885885132,0.054630079756788325,4,-91.27023905562424,3.4028234663852886E38,,,,,0,,1,,
Raw,282252843,12541000000,,,-1222628376458743620,0.0,15.86291040750468,,,0,7,0.0,51,6789608,11,38.18031311035156,301.66709459922095,0.058727209572715655,4,2825.524007519357,3.4028234663852886E38,,,,,0,,1,,
Raw,282252844,12541000000,,,-1222628376458743620,0.0,15.86291040750468,,,0,9,0.0,16,15513234,1000000000,16.13065528869629,579.4841722676488,2.99792458E8,4,5455.858757050643,3.4028234663852886E38,,,,,1,,1,,
Raw,282252845,12541000000,,,-1222628376458743620,0.0,15.86291040750468,,,0,13,0.0,51,8238494,9,39.59607696533203,-547.4973096665999,0.05033863583784612,4,-5735.656561706672,3.4028234663852886E38,,,,,0,,1,,
Raw,282252845,12541000000,,,-1222628376458743620,0.0,15.86291040750468,,,0,15,0.0,17,987416,167,17.12482452392578,-774.6530651560006,4.2032354593654695,4,-5773.147617483608,3.4028234663852886E38,,,,,1,,1,,
Raw,282252846,12541000000,,,-1222628376458743620,0.0,15.86291040750468,,,0,21,0.0,16,16063264,1000000000,7.0,-430.612786072513,2.99792458E8,4,-868.2566922796503,3.4028234663852886E38,,,,,0,,1,,
Raw,282252846,12541000000,,,-1222628376458743620,0.0,15.86291040750468,,,0,28,0.0,51,978200,46,26.217180252075195,-662.6694283976112,0.22814157350309472,4,-6935.994221116838,3.4028234663852886E38,,,,,0,,1,,
Raw,282252847,12541000000,,,-1222628376458743620,0.0,15.86291040750468,,,0,30,0.0,51,11066358,10,38.98759841918945,-71.79163576482716,0.05439264252610512,1,-773.4609761508613,0.001020906143821776,,,,,0,,1,,
Raw,282252848,12541000000,,,-1222628376458743620,0.0,15.86291040750468,,,0,2,0.0,99,930104473,102,25.333404541015625,-677.7916098620431,0.25419947539912435,4,-6399.927235770599,3.4028234663852886E38,,,,,0,,3,,
Raw,282252849,12541000000,,,-1222628376458743620,0.0,15.86291040750468,,,0,18,0.0,99,925049763,103,25.226308822631836,-68.87851873937419,0.2564213753101253,1,-452.293918229671,0.0046202512457966805,,,,,0,,3,,
Raw,282252850,12541000000,,,-1222628376458743620,0.0,15.86291040750468,,,0,12,0.0,99,924600521,54,30.854520797729492,-923.3028131363685,0.13448787567480713,1,-6862.024344746318,0.00241518160328269,,,,,0,,3,,
Raw,282252850,12541000000,,,-1222628376458743620,0.0,15.86291040750468,,,0,11,0.0,99,933437822,33,36.645084381103516,-464.1447768400235,0.07104089490483673,4,-4398.703423680695,3.4028234663852886E38,,,,,0,,3,,
Raw,282252850,12541000000,,,-1222628376458743620,0.0,15.86291040750468,,,0,1,0.0,99,935215499,61,29.744218826293945,116.97895756049746,0.15462285238958318,4,1080.945091174285,3.4028234663852886E38,,,,,0,,3,,
Raw,282252851,12541000000,,,-1222628376458743620,0.0,15.86291040750468,,,0,17,0.0,99,923016469,93,26.058717727661133,515.1000261241034,0.23270537752137888,4,4328.584975451097,3.4028234663852886E38,,,,,0,,3,,
Raw,282252851,12541000000,,,-1222628376458743620,0.0,15.86291040750468,,,0,8,0.0,99,925778735,33,37.566017150878906,585.5386480092739,0.06275975246785928,4,5508.622477143503,3.4028234663852886E38,,,,,0,,3,,
Raw,282253869,13541000000,,,-1222628376458743919,0.0,15.035591440006149,,,0,2,0.0,16431,327589918205631,23,32.17024230957031,528.6151856810282,0.11814729318649525,4,6022.800426733383,3.4028234663852886E38,,,,,0,,1,,
Raw,282253870,13541000000,,,-1222628376458743919,0.0,15.035591440006149,,,0,5,0.0,16431,327589931406744,11,38.173831939697266,-5.908486201801541,0.05960066405114728,1,-97.41478792536758,0.0011211767559871078,,,,,0,,1,,
Raw,282253870,13541000000,,,-1222628376458743919,0.0,15.035591440006149,,,0,7,0.0,16431,327589926788612,12,37.728759765625,301.9957517274704,0.061795679094710454,4,3127.375056568175,3.4028234663852886E38,,,,,0,,1,,
Raw,282253871,13541000000,,,-1222628376458743919,0.0,15.035591440006149,,,0,9,0.0,16,15511301,1000000000,13.86927604675293,579.4826726395618,2.99792458E8,4,6034.348441012422,3.4028234663852886E38,,,,,1,,1,,
Raw,282253871,13541000000,,,-1222628376458743919,0.0,15.035591440006149,,,0,13,0.0,16431,327589928240309,10,38.73939895629883,-547.2078814458082,0.05540328804504452,4,-6283.043970708472,3.4028234663852886E38,,,,,0,,1,,
Raw,282253872,13541000000,,,-1222628376458743919,0.0,15.035591440006149,,,0,15,0.0,17,990162,167,19.73373794555664,-774.5209615545182,4.203235991903853,4,-6547.600574887667,3.4028234663852886E38,,,,,1,,1,,
Raw,282253872,13541000000,,,-1222628376458743919,0.0,15.035591440006149,,,0,21,0.0,17,64605,167,10.237276077270508,-430.6674202503191,4.202889575685601,4,-1299.1368888047057,3.4028234663852886E38,,,,,1,,1,,
Raw,282253873,13541000000,,,-1222628376458743919,0.0,15.035591440006149,,,0,27,0.0,17,799269,85,13.114723205566406,-327.3048045395485,5.722623915614992,6,-24.8755205499635,3.4028234663852886E38,,,,,0,,1,,
Raw,282253874,13541000000,,,-1222628376458743919,0.0,15.035591440006149,,,0,28,0.0,16431,327589920980395,29,30.02617073059082,-662.2422388875543,0.14721104973993615,4,-7598.418419254217,3.4028234663852886E38,,,,,0,,1,,
Raw,282253874,13541000000,,,-1222628376458743919,0.0,15.035591440006149,,,0,30,0.0,16431,327589931066609,12,37.277862548828125,-71.44846803071312,0.06579274578053157,1,-845.064538774661,0.0012430042261257768,,,,,0,,1,,
Raw,282253875,13541000000,,,-1222628376458743919,0.0,15.035591440006149,,,0,2,0.0,32995,79171930106808,81,27.324268341064453,-677.3749177485952,0.2025030455838106,4,-7077.413716782629,3.4028234663852886E38,,,,,0,,3,,
Raw,282253875,13541000000,,,-1222628376458743919,0.0,15.035591440006149,,,0,18,0.0,32995,79171925049983,103,25.198368072509766,-68.36507079216511,0.25724467965050446,1,-521.0067862913924,0.004635137040168047,,,,,0,,3,,
Raw,282253876,13541000000,,,-1222628376458743919,0.0,15.035591440006149,,,0,12,0.0,32995,79171924603630,46,32.232933044433594,-923.0086815365767,0.11487456191090623,1,-7785.20123608496,0.0020607684273272753,,,,,0,,3,,
Raw,282253876,13541000000,,,-1222628376458743919,0.0,15.035591440006149,,,0,11,0.0,32995,79171933439386,33,35.279930114746094,-463.717485082597,0.08272047679902389,4,-4862.6471142414475,3.4028234663852886E38,,,,,0,,3,,
Raw,282253877,13541000000,,,-1222628376458743919,0.0,15.035591440006149,,,0,1,0.0,32995,79171935215087,64,29.303003311157227,117.34421072643829,0.16253742119841508,1,1198.114130316411,0.0028854976408183575,,,,,0,,3,,
Raw,282253878,13541000000,,,-1222628376458743919,0.0,15.035591440006149,,,0,17,0.0,32995,79171923014851,91,26.274452209472656,515.0377574760362,0.22700977966244051,4,4843.899704802057,3.4028234663852886E38,,,,,0,,3,,
Raw,282253878,13541000000,,,-1222628376458743919,0.0,15.035591440006149,,,0,8,0.0,32995,79171925776828,33,38.61719512939453,585.8669983954146,0.05572422979048228,4,6094.347458932183,3.4028234663852886E38,,,,,0,,3,,
Raw,282254835,14541000000,,,-1222628376458744218,0.0,14.40954162517931,,,0,2,0.0,16431,327590918203907,25,31.357818603515625,528.7824282951856,0.129409997377608,4,6551.4860914656665,3.4028234663852886E38,,,,,0,,1,,
Raw,282254836,14541000000,,,-1222628376458744218,0.0,14.40954162517931,,,0,5,0.0,16431,327590931406753,12,37.885887145996094,-5.616935815552907,0.06154043511184004,1,-103.2204434961839,0.001158967730589211,,,,,0,,1,,
Raw,282254836,14541000000,,,-1222628376458744218,0.0,14.40954162517931,,,0,7,0.0,16431,327590926787672,14,36.25163269042969,302.2938368922189,0.07302462534487764,4,3429.5325427137027,3.4028234663852886E38,,,,,0,,1,,
Raw,282254837,14541000000,,,-1222628376458744218,0.0,14.40954162517931,,,0,9,0.0,16,15509916,1000000000,13.333744049072266,579.2236459699884,2.99792458E8,4,6614.467534877344,3.4028234663852886E38,,,,,1,,1,,
Raw,282254838,14541000000,,,-1222628376458744218,0.0,14.40954162517931,,,0,13,0.0,16431,327590928242115,11,38.55244827270508,-546.9409476463215,0.05657676133509393,4,-6830.117544807707,3.4028234663852886E38,,,,,0,,1,,
Raw,282254839,14541000000,,,-1222628376458744218,0.0,14.40954162517931,,,0,15,0.0,17,992909,72,20.57037353515625,-774.4640438521251,4.203236524442236,4,-7321.840440252488,3.4028234663852886E38,,,,,0,,1,,
Raw,282254839,14541000000,,,-1222628376458744218,0.0,14.40954162517931,,,0,21,0.0,17,66037,115,12.187942504882812,-430.412517557985,4.202889841954793,4,-1728.8171676329187,3.4028234663852886E38,,,,,0,,1,,
Raw,282254840,14541000000,,,-1222628376458744218,0.0,14.40954162517931,,,0,27,0.0,16,16800355,1000000000,7.0,-327.27944719189554,2.99792458E8,4,-266.8338422330443,3.4028234663852886E38,,,,,0,,1,,
Raw,282254840,14541000000,,,-1222628376458744218,0.0,14.40954162517931,,,0,28,0.0,16431,327590920982550,23,32.225643157958984,-662.019135127156,0.11431894963810407,1,-8260.592470496307,0.0020965603180229664,,,,,0,,1,,
Raw,282254840,14541000000,,,-1222628376458744218,0.0,14.40954162517931,,,0,30,0.0,16431,327590931066850,14,36.39840316772461,-71.0885871119817,0.07259122231010051,1,-916.3188018155788,0.0013754523824900389,,,,,0,,1,,
Raw,282254841,14541000000,,,-1222628376458744218,0.0,14.40954162517931,,,0,2,0.0,32995,79172930109101,63,29.429506301879883,-677.0974865524995,0.15930847456301722,1,-7754.617204470511,0.0028487762901932,,,,,0,,3,,
Raw,282254841,14541000000,,,-1222628376458744218,0.0,14.40954162517931,,,0,18,0.0,32995,79172925050313,117,24.142322540283203,-68.3302385215988,0.29038429360773876,4,-589.3356391466813,3.4028234663852886E38,,,,,0,,3,,
Raw,282254842,14541000000,,,-1222628376458744218,0.0,14.40954162517931,,,0,12,0.0,32995,79172924606709,33,35.291622161865234,-922.7512226600034,0.08102368469656418,1,-8708.082319048708,0.00153699005022645,,,,,0,,3,,
Raw,282254842,14541000000,,,-1222628376458744218,0.0,14.40954162517931,,,0,11,0.0,32995,79172933440954,41,33.22801971435547,-463.37594478578194,0.10411925862709437,4,-5326.236813450078,3.4028234663852886E38,,,,,0,,3,,
Raw,282254843,14541000000,,,-1222628376458744218,0.0,14.40954162517931,,,0,1,0.0,32995,79172935214650,58,30.177770614624023,117.68655196098166,0.14722747522069202,1,1315.6339449174434,0.00260904966853559,,,,,0,,3,,
Raw,282254843,14541000000,,,-1222628376458744218,0.0,14.40954162517931,,,0,17,0.0,32995,79172923013019,84,27.00217056274414,515.7967056178861,0.20880874936979132,4,5359.549683298519,3.4028234663852886E38,,,,,0,,3,,
Raw,282254843,14541000000,,,-1222628376458744218,0.0,14.40954162517931,,,0,8,0.0,32995,79172925774903,33,38.64704132080078,586.1606528408151,0.05553629782715319,4,6680.3460052529235,3.4028234663852886E38,,,,,0,,3,,
Raw,282255837,15541000000,,,-1222628376458744514,0.0,13.569445708862924,,,0,2,0.0,16431,327591918202169,33,29.07391357421875,528.9987155642793,0.1673454439908556,4,7080.427640923576,3.4028234663852886E38,,,,,0,,1,,
Raw,282255837,15541000000,,,-1222628376458744514,0.0,13.569445708862924,,,0,5,0.0,16431,327591931406769,11,38.24312973022461,-5.3256335921908295,0.05914336335642545,1,-108.6303265746595,0.0011122676078230143,,,,,0,,1,,
Raw,282255838,15541000000,,,-1222628376458744514,0.0,13.569445708862924,,,0,7,0.0,16431,327591926786686,16,35.172611236572266,302.4968660857253,0.08252212289311794,4,3731.9828014381724,3.4028234663852886E38,,,,,0,,1,,
Raw,282255838,15541000000,,,-1222628376458744514,0.0,13.569445708862924,,,0,9,0.0,16,15507980,1000000000,12.47353744506836,580.0273102947963,2.99792458E8,4,7195.372136764582,3.4028234663852886E38,,,,,1,,1,,
Raw,282255839,15541000000,,,-1222628376458744514,0.0,13.569445708862924,,,0,13,0.0,16431,327591928243945,10,38.664791107177734,-546.6863516960962,0.05586909271207258,4,-7376.8571912668685,3.4028234663852886E38,,,,,0,,1,,
Raw,282255840,15541000000,,,-1222628376458744514,0.0,13.569445708862924,,,0,15,0.0,17,995528,82,18.67119026184082,-774.2541640848576,4.203237056980619,4,-8095.825803843326,3.4028234663852886E38,,,,,0,,1,,
Raw,282255841,15541000000,,,-1222628376458744514,0.0,13.569445708862924,,,0,21,0.0,17,67481,114,12.374641418457031,-429.85036152009775,4.2028901082239845,4,-2160.0939115522797,3.4028234663852886E38,,,,,0,,1,,
Raw,282255841,15541000000,,,-1222628376458744514,0.0,13.569445708862924,,,0,27,0.0,16,16802745,1000000000,8.018665313720703,-326.7730159704231,2.99792458E8,4,-5.227402997169634,3.4028234663852886E38,,,,,0,,1,,
Raw,282255842,15541000000,,,-1222628376458744514,0.0,13.569445708862924,,,0,28,0.0,16431,327591920984749,18,34.15751647949219,-661.8370666444112,0.0915574353711533,4,-8922.47206225426,3.4028234663852886E38,,,,,0,,1,,
Raw,282255843,15541000000,,,-1222628376458744514,0.0,13.569445708862924,,,0,30,0.0,16431,327591931067104,15,35.88691711425781,-70.82504877722613,0.0768735797928799,1,-987.2298697105565,0.0014588810736313462,,,,,0,,1,,
Raw,282255844,15541000000,,,-1222628376458744514,0.0,13.569445708862924,,,0,2,0.0,32995,79173930111302,58,30.110471725463867,-676.8250313950562,0.14743338451490917,1,-8431.498132241963,0.0026339658070355654,,,,,0,,3,,
Raw,282255845,15541000000,,,-1222628376458744514,0.0,13.569445708862924,,,0,18,0.0,32995,79173925050469,124,23.5998592376709,-67.72852127230271,0.3090395458575821,4,-657.2577660881535,3.4028234663852886E38,,,,,0,,3,,
Raw,282255846,15541000000,,,-1222628376458744514,0.0,13.569445708862924,,,0,12,0.0,32995,79173924609802,33,35.798892974853516,-922.5095780432566,0.07647485832030665,1,-9630.649407598712,0.0014497977681457996,,,,,0,,3,,
Raw,282255846,15541000000,,,-1222628376458744514,0.0,13.569445708862924,,,0,11,0.0,32995,79173933442453,41,33.25739669799805,-463.044322483815,0.10377613749008885,4,-5789.415007795142,3.4028234663852886E38,,,,,0,,3,,
Raw,282255847,15541000000,,,-1222628376458744514,0.0,13.569445708862924,,,0,1,0.0,32995,79173935214261,57,30.392532348632812,117.96909552555576,0.1436986262664477,1,1433.5120239019293,0.002545330673456192,,,,,0,,3,,
Raw,282255848,15541000000,,,-1222628376458744514,0.0,13.569445708862924,,,0,17,0.0,32995,79173923011299,81,27.303096771240234,516.0343966696762,0.2017165030336946,4,5875.559147351188,3.4028234663852886E38,,,,,0,,3,,
Raw,282255848,15541000000,,,-1222628376458744514,0.0,13.569445708862924,,,0,8,0.0,32995,79173925772948,33,38.885528564453125,586.35771760443,0.05405995997350094,4,7266.633347940982,3.4028234663852886E38,,,,,0,,3,,
Raw,282256861,16541000000,,,-1222628376458744811,0.0,12.835634824587029,,,0,2,0.0,16431,327592918200359,28,30.32346534729004,529.0433976647807,0.1453610446804563,1,7609.41499727796,0.0026098540984094143,,,,,0,,1,,
Raw,282256862,16541000000,,,-1222628376458744811,0.0,12.835634824587029,,,0,5,0.0,16431,327592931406803,13,36.79512405395508,-5.145273492579182,0.06950028632506577,1,-113.8685164866136,0.0013140427181497216,,,,,0,,1,,
Raw,282256862,16541000000,,,-1222628376458744811,0.0,12.835634824587029,,,0,7,0.0,16431,327592926785609,13,36.60692596435547,302.60736140977224,0.0701464218020944,1,4034.547378944087,0.0013428248930722475,,,,,0,,1,,
Raw,282256863,16541000000,,,-1222628376458744811,0.0,12.835634824587029,,,0,9,0.0,16,15505600,1000000000,11.613313674926758,580.0251971824919,2.99792458E8,4,7775.801316633124,3.4028234663852886E38,,,,,1,,1,,
Raw,282256863,16541000000,,,-1222628376458744811,0.0,12.835634824587029,,,0,13,0.0,16431,327592928245778,10,38.97996139526367,-546.5534641981137,0.053931381077158475,1,-7923.487867555782,0.001021804055199027,,,,,0,,1,,
Raw,282256864,16541000000,,,-1222628376458744811,0.0,12.835634824587029,,,0,15,0.0,17,997949,74,20.095111846923828,-774.2463251198574,4.203237323249811,4,-8869.831012937097,3.4028234663852886E38,,,,,0,,1,,
Raw,282256864,16541000000,,,-1222628376458744811,0.0,12.835634824587029,,,0,21,0.0,17,68843,107,13.864171981811523,-429.66386231800493,4.202890374493176,4,-2589.001624257684,3.4028234663852886E38,,,,,0,,1,,
Raw,282256865,16541000000,,,-1222628376458744811,0.0,12.835634824587029,,,0,27,0.0,16,16803833,1000000000,7.158435821533203,-326.523327893937,2.99792458E8,4,-333.258705568211,3.4028234663852886E38,,,,,0,,1,,
Raw,282256867,16541000000,,,-1222628376458744811,0.0,12.835634824587029,,,0,28,0.0,16431,327592920986972,18,34.36623764038086,-661.7835571876703,0.08938814026731473,4,-9584.27169778269,3.4028234663852886E38,,,,,0,,1,,
Raw,282256867,16541000000,,,-1222628376458744811,0.0,12.835634824587029,,,0,30,0.0,16431,327592931067325,14,36.29755401611328,-70.67343722969147,0.07341581639187639,1,-1057.9912527445413,0.0013915152521803975,,,,,0,,1,,
Raw,282256868,16541000000,,,-1222628376458744811,0.0,12.835634824587029,,,0,2,0.0,32995,79174930113545,62,29.653188705444336,-676.6930641233998,0.15530528368578966,1,-9108.293737989932,0.002776350127533078,,,,,0,,3,,
Raw,282256868,16541000000,,,-1222628376458744811,0.0,12.835634824587029,,,0,18,0.0,32995,79174925050763,113,24.388450622558594,-67.63824536558792,0.28229679960079723,4,-725.0083003122024,3.4028234663852886E38,,,,,0,,3,,
Raw,282256869,16541000000,,,-1222628376458744811,0.0,12.835634824587029,,,0,12,0.0,32995,79174924612827,33,36.9986686706543,-922.4534783198201,0.06671607996736797,1,-10553.133292878509,0.0012627538526430726,,,,,0,,3,,
Raw,282256870,16541000000,,,-1222628376458744811,0.0,12.835634824587029,,,0,11,0.0,32995,79174933443968,35,34.41164016723633,-462.90993535774555,0.0911638062968691,1,-6252.398543890162,0.0017002687091007829,,,,,0,,3,,
Raw,282256870,16541000000,,,-1222628376458744811,0.0,12.835634824587029,,,0,1,0.0,32995,79174935213812,60,29.818178176879883,118.13784628841432,0.15333474189164442,1,1551.5439901743182,0.002719330368563533,,,,,0,,3,,
Raw,282256870,16541000000,,,-1222628376458744811,0.0,12.835634824587029,,,0,17,0.0,32995,79174923009544,90,26.383878707885742,516.2375281105521,0.22417369657740105,4,6391.707689925132,3.4028234663852886E38,,,,,0,,3,,
Raw,282256871,16541000000,,,-1222628376458744811,0.0,12.835634824587029,,,0,8,0.0,32995,79174925770947,33,38.89668273925781,586.4292907631279,0.05399157039582492,1,7853.008273080174,0.0010123985121026635,,,,,0,,3,,
Raw,282257852,17541000000,,,-1222628376458745108,0.0,11.593806220327517,,,0,2,0.0,16431,327593918198579,23,32.1539306640625,529.068380105412,0.11836193943856127,1,8138.515932896696,0.0021139413584023714,,,,,0,,1,,
Raw,282257853,17541000000,,,-1222628376458745108,0.0,11.593806220327517,,,0,5,0.0,16431,327593931406817,13,36.618736267089844,-5.037564409352971,0.07088399578369559,1,-118.9233971927991,0.0013410005485638976,,,,,0,,1,,
Raw,282257854,17541000000,,,-1222628376458745108,0.0,11.593806220327517,,,0,7,0.0,16431,327593926784562,11,37.99220657348633,302.7574605482987,0.059985294058847144,1,4337.286458255721,0.0011448680888861418,,,,,0,,1,,
Raw,282257854,17541000000,,,-1222628376458745108,0.0,11.593806220327517,,,0,9,0.0,16,15504104,1000000000,10.964792251586914,580.2710680238474,2.99792458E8,4,8356.724899208595,3.4028234663852886E38,,,,,1,,1,,
Raw,282257855,17541000000,,,-1222628376458745108,0.0,11.593806220327517,,,0,13,0.0,16431,327593928247606,9,39.75223922729492,-546.4932745798944,0.0494697453797765,1,-8469.987353371147,9.348753374069929E-4,,,,,0,,1,,
Raw,282257856,17541000000,,,-1222628376458745108,0.0,11.593806220327517,,,0,15,0.0,51,18000528,74,20.07273292541504,-774.072436426678,4.203237855788194,4,-9643.662706222261,3.4028234663852886E38,,,,,0,,1,,
Raw,282257856,17541000000,,,-1222628376458745108,0.0,11.593806220327517,,,0,21,0.0,17,70283,78,19.35558319091797,-429.4930069634561,4.202890640762368,4,-3018.8984376217322,3.4028234663852886E38,,,,,0,,1,,
Raw,282257857,17541000000,,,-1222628376458745108,0.0,11.593806220327517,,,0,27,0.0,16,16804917,1000000000,7.0,-325.9746685088328,2.99792458E8,4,-658.954404025591,3.4028234663852886E38,,,,,1,,1,,
Raw,282257857,17541000000,,,-1222628376458745108,0.0,11.593806220327517,,,0,28,0.0,16431,327593920989212,19,33.679473876953125,-661.7102117412333,0.09672845795993357,4,-10245.946009297333,3.4028234663852886E38,,,,,0,,1,,
Raw,282257859,17541000000,,,-1222628376458745108,0.0,11.593806220327517,,,0,30,0.0,16431,327593931067546,13,37.08552932739258,-70.53799354746982,0.06722144641162692,1,-1128.54990117454,0.0012708354042842984,,,,,0,,1,,
Raw,282257860,17541000000,,,-1222628376458745108,0.0,11.593806220327517,,,0,2,0.0,32995,79175930115840,65,29.14606285095215,-676.6908146812693,0.16453377446231954,1,-9784.968685059113,0.0029432729352265596,,,,,0,,3,,
Raw,282257861,17541000000,,,-1222628376458745108,0.0,11.593806220327517,,,0,18,0.0,32995,79175925051038,126,23.48415184020996,-67.24883625858655,0.3131718107254302,4,-792.4733458397328,3.4028234663852886E38,,,,,0,,3,,
Raw,282257861,17541000000,,,-1222628376458745108,0.0,11.593806220327517,,,0,12,0.0,32995,79175924615923,33,36.173683166503906,-922.3310541359901,0.073281342129214,1,-11475.482864975675,0.001388570643030107,,,,,0,,3,,
Raw,282257862,17541000000,,,-1222628376458745108,0.0,11.593806220327517,,,0,11,0.0,32995,79175933445535,33,35.441349029541016,-462.6829121148471,0.08124301562221964,1,-6715.1392352319335,0.0015101919416338205,,,,,0,,3,,
Raw,282257863,17541000000,,,-1222628376458745108,0.0,11.593806220327517,,,0,1,0.0,32995,79175935213504,64,29.262405395507812,118.29371388270727,0.16328578740318767,1,1669.783550369901,0.002899015787988901,,,,,0,,3,,
Raw,282257863,17541000000,,,-1222628376458745108,0.0,11.593806220327517,,,0,17,0.0,32995,79175923007969,95,25.94838523864746,516.3480234345991,0.2356716995247521,4,6908.028890939827,3.4028234663852886E38,,,,,0,,3,,
Raw,282257864,17541000000,,,-1222628376458745108,0.0,11.593806220327517,,,0,8,0.0,32995,79175925768988,33,39.089454650878906,586.5322197818268,0.05282893509396422,1,8439.529174757206,9.901769226416945E-4,,,,,0,,3,,
Raw,282258872,18541000000,,,-1222628376458745405,0.0,10.873404531496533,,,0,2,0.0,16431,327594918196806,23,32.16560745239258,529.4100908145097,0.11820700405270806,1,8667.79878816986,0.002111101057380438,,,,,0,,1,,
Raw,282258872,18541000000,,,-1222628376458745405,0.0,10.873404531496533,,,0,5,0.0,16431,327594931406842,14,36.333919525146484,-4.62619927735193,0.07317847901214003,1,-123.73310378394237,0.0013857018202543259,,,,,0,,1,,
Raw,282258873,18541000000,,,-1222628376458745405,0.0,10.873404531496533,,,0,7,0.0,16431,327594926783556,12,37.75392150878906,303.14003612276724,0.06161953786402122,1,4640.260955872022,0.001176710706204176,,,,,0,,1,,
Raw,282258874,18541000000,,,-1222628376458745405,0.0,10.873404531496533,,,0,9,0.0,16,15502167,1000000000,10.448570251464844,580.6949174531651,2.99792458E8,4,8936.97617083189,3.4028234663852886E38,,,,,1,,1,,
Raw,282258874,18541000000,,,-1222628376458745405,0.0,10.873404531496533,,,0,13,0.0,16431,327594928249417,9,39.790985107421875,-546.1499960777967,0.04925649288051018,1,-9016.287829070294,9.307144209742546E-4,,,,,0,,1,,
Raw,282258875,18541000000,,,-1222628376458745405,0.0,10.873404531496533,,,0,15,0.0,51,18003143,70,20.8964786529541,-774.097861939244,4.203238388326577,4,-10417.343586646168,3.4028234663852886E38,,,,,0,,1,,
Raw,282258875,18541000000,,,-1222628376458745405,0.0,10.873404531496533,,,0,21,0.0,17,71753,167,19.818801879882812,-429.41540120995364,4.202890907031559,4,-3448.308597267294,3.4028234663852886E38,,,,,1,,1,,
Raw,282258876,18541000000,,,-1222628376458745405,0.0,10.873404531496533,,,0,27,0.0,16,16806004,1000000000,7.0,-326.2825012561468,2.99792458E8,4,-985.0888822930956,3.4028234663852886E38,,,,,0,,1,,
Raw,282258876,18541000000,,,-1222628376458745405,0.0,10.873404531496533,,,0,28,0.0,16431,327594920991399,20,33.338321685791016,-661.3672058987877,0.1005964922596953,4,-10907.42607753972,3.4028234663852886E38,,,,,0,,1,,
Raw,282258877,18541000000,,,-1222628376458745405,0.0,10.873404531496533,,,0,30,0.0,16431,327594931067803,13,36.7586784362793,-70.13043127206299,0.06972290401105485,1,-1198.8418019931412,0.0013195681385695934,,,,,0,,1,,
Raw,282258877,18541000000,,,-1222628376458745405,0.0,10.873404531496533,,,0,2,0.0,32995,79176930118069,65,29.199827194213867,-676.3296769719536,0.16353010602829088,1,-10461.422678337847,0.002925111213698983,,,,,0,,3,,
Raw,282258878,18541000000,,,-1222628376458745405,0.0,10.873404531496533,,,0,18,0.0,32995,79176925051041,114,24.339874267578125,-66.88386001260497,0.28387487724837146,4,-859.6088424548468,3.4028234663852886E38,,,,,0,,3,,
Raw,282258879,18541000000,,,-1222628376458745405,0.0,10.873404531496533,,,0,12,0.0,32995,79176924619005,33,36.76359558105469,-922.0198131430238,0.06852467600710033,1,-12397.654559657427,0.0012973952107131481,,,,,0,,3,,
Raw,282258881,18541000000,,,-1222628376458745405,0.0,10.873404531496533,,,0,11,0.0,32995,79176933447122,33,35.49827194213867,-462.27433162605166,0.0807284337676582,1,-7177.608404123991,0.0015003272565081716,,,,,0,,3,,
Raw,282258881,18541000000,,,-1222628376458745405,0.0,10.873404531496533,,,0,1,0.0,32995,79176935213084,69,28.674291610717773,118.71575694182923,0.17453281499564588,1,1788.2860807299835,0.0031021027825772762,,,,,0,,3,,
Raw,282258882,18541000000,,,-1222628376458745405,0.0,10.873404531496533,,,0,17,0.0,32995,79176923006134,90,26.40877914428711,516.702003828045,0.22353283655873069,1,7424.579889544126,0.004022303037345409,,,,,0,,3,,
Raw,282258882,18541000000,,,-1222628376458745405,0.0,10.873404531496533,,,0,8,0.0,32995,79176925767022,33,39.254119873046875,586.8724308628375,0.05185596666563402,1,9026.252483972446,9.715823107399046E-4,,,,,0,,3,,
Raw,282259862,19541000000,,,-1222628376458745700,0.0,10.18865200908589,,,0,2,0.0,16431,327595918195078,27,30.763776779174805,529.7715352659341,0.13833683844372163,1,9197.392900306482,0.002480850787833333,,,,,0,,1,,
Raw,282259862,19541000000,,,-1222628376458745700,0.0,10.18865200908589,,,0,5,0.0,16431,327595931406838,13,37.020851135253906,-4.161901960217431,0.06777002335313267,1,-128.11096625430918,0.0012803338468074799,,,,,0,,1,,
Raw,282259863,19541000000,,,-1222628376458745700,0.0,10.18865200908589,,,0,7,0.0,16431,327595926782583,13,37.08759307861328,303.5357675254536,0.06643521173526368,1,4943.603212677219,0.0012705333065241575,,,,,0,,1,,
Raw,282259863,19541000000,,,-1222628376458745700,0.0,10.18865200908589,,,0,9,0.0,16,15500227,1000000000,9.588333129882812,580.5865352414226,2.99792458E8,4,9516.373714728992,3.4028234663852886E38,,,,,1,,1,,
Raw,282259863,19541000000,,,-1222628376458745700,0.0,10.18865200908589,,,0,13,0.0,16431,327595928251248,10,39.242835998535156,-545.7457099785231,0.0523688260913624,1,-9562.217027428253,9.91343054920435E-4,,,,,0,,1,,
Raw,282259864,19541000000,,,-1222628376458745700,0.0,10.18865200908589,,,0,15,0.0,51,18005721,73,20.40580177307129,-773.8299738309747,4.20323892086496,4,-11190.702652324138,3.4028234663852886E38,,,,,0,,1,,
Raw,282259864,19541000000,,,-1222628376458745700,0.0,10.18865200908589,,,0,21,0.0,17,73130,167,19.201473236083984,-429.32501453525515,4.202891173300751,4,-3877.1696989753036,3.4028234663852886E38,,,,,1,,1,,
Raw,282259865,19541000000,,,-1222628376458745700,0.0,10.18865200908589,,,0,27,0.0,16,16807084,1000000000,7.0,-325.96083103148453,2.99792458E8,4,-1312.2271645011579,3.4028234663852886E38,,,,,0,,1,,
Raw,282259865,19541000000,,,-1222628376458745700,0.0,10.18865200908589,,,0,28,0.0,16431,327595920993596,19,33.529449462890625,-661.0130891755157,0.09841139574351865,4,-11568.564902681252,3.4028234663852886E38,,,,,0,,1,,
Raw,282259866,19541000000,,,-1222628376458745700,0.0,10.18865200908589,,,0,30,0.0,16431,327595931068040,14,36.05210876464844,-69.67959279748632,0.07546304371319795,1,-1268.7302328264373,0.0014313978608697653,,,,,0,,1,,
Raw,282259866,19541000000,,,-1222628376458745700,0.0,10.18865200908589,,,0,2,0.0,32995,79177930120374,63,29.501232147216797,-675.9326845183759,0.15801532159226284,1,-11137.523233769636,0.002825348637998104,,,,,0,,3,,
Raw,282259867,19541000000,,,-1222628376458745700,0.0,10.18865200908589,,,0,18,0.0,32995,79177925051339,107,24.854236602783203,-66.44271799690904,0.2676047479239704,4,-926.3049009638914,3.4028234663852886E38,,,,,0,,3,,
Raw,282259867,19541000000,,,-1222628376458745700,0.0,10.18865200908589,,,0,12,0.0,32995,79177924622094,33,36.53653335571289,-921.6003262681411,0.07031818207249085,1,-13319.472558051875,0.0013317582197487354,,,,,0,,3,,
Raw,282259868,19541000000,,,-1222628376458745700,0.0,10.18865200908589,,,0,11,0.0,32995,79177933448601,34,34.80495834350586,-461.8050843646456,0.0872356450852827,1,-7639.638847539561,0.0016249933978542686,,,,,0,,3,,
Raw,282259868,19541000000,,,-1222628376458745700,0.0,10.18865200908589,,,0,1,0.0,32995,79177935212637,66,29.027484893798828,119.12203686480939,0.16768713393095636,1,1907.2024562049442,0.0029784925282001495,,,,,0,,3,,
Raw,282259869,19541000000,,,-1222628376458745700,0.0,10.18865200908589,,,0,17,0.0,32995,79177923004429,80,27.348880767822266,517.1926889546039,0.20065765030971006,1,7941.544580639788,0.003609688486903906,,,,,0,,3,,
Raw,282259869,19541000000,,,-1222628376458745700,0.0,10.18865200908589,,,0,8,0.0,32995,79177925765055,33,39.19638442993164,587.2084838841524,0.052194544584558134,1,9613.316118908595,9.780620457604527E-4,,,,,0,,3,,
Raw,282260860,20541000000,,,-1222628376458745995,0.0,9.710415093433301,,,0,2,0.0,16431,327596918193273,24,31.757450103759766,530.0921830169007,0.12373615038325719,1,9727.311089806983,0.0022126715630292892,,,,,0,,1,,
Raw,282260861,20541000000,,,-1222628376458745995,0.0,9.710415093433301,,,0,5,0.0,16431,327596931406874,14,36.518165588378906,-3.785767703762504,0.07168560750587283,1,-132.05108697320563,0.001356617547571659,,,,,0,,1,,
Raw,282260861,20541000000,,,-1222628376458745995,0.0,9.710415093433301,,,0,7,0.0,16431,327596926781531,11,37.947509765625,303.93163525796604,0.06028790899508288,1,5247.333161591736,0.0011507745366543531,,,,,0,,1,,
Raw,282260862,20541000000,,,-1222628376458745995,0.0,9.710415093433301,,,0,9,0.0,16,15498286,1000000000,8.999908447265625,581.0140655760447,2.99792458E8,4,10098.049095764041,3.4028234663852886E38,,,,,1,,1,,
Raw,282260862,20541000000,,,-1222628376458745995,0.0,9.710415093433301,,,0,13,0.0,16431,327596928253073,10,39.31594467163086,-545.3974213553165,0.05194264976886312,1,-10107.765359776418,9.830340277403593E-4,,,,,0,,1,,
Raw,282260863,20541000000,,,-1222628376458745995,0.0,9.710415093433301,,,0,15,0.0,51,18008246,79,19.197509765625,-773.6191397549246,4.203239187134152,4,-11963.756717665094,3.4028234663852886E38,,,,,0,,1,,
Raw,282260863,20541000000,,,-1222628376458745995,0.0,9.710415093433301,,,0,21,0.0,17,74581,167,19.818904876708984,-428.89247407952416,4.202891439569942,4,-4305.624077640119,3.4028234663852886E38,,,,,1,,1,,
Raw,282260864,20541000000,,,-1222628376458745995,0.0,9.710415093433301,,,0,27,0.0,16,16808167,1000000000,7.0,-325.55968051821105,2.99792458E8,4,-1636.236392292201,3.4028234663852886E38,,,,,0,,1,,
Raw,282260864,20541000000,,,-1222628376458745995,0.0,9.710415093433301,,,0,28,0.0,16431,327596920995827,23,32.09598922729492,-660.5737663109367,0.11603788368802648,1,-12229.333503214826,0.002257180167362094,,,,,0,,1,,
Raw,282260865,20541000000,,,-1222628376458745995,0.0,9.710415093433301,,,0,30,0.0,16431,327596931068257,14,36.280677795410156,-69.26407226848141,0.07355490876083032,1,-1338.189513395848,0.001394221791997552,,,,,0,,1,,
Raw,282260865,20541000000,,,-1222628376458745995,0.0,9.710415093433301,,,0,2,0.0,32995,79178930122587,68,28.755069732666016,-675.5973813111045,0.17202685578269772,1,-11813.252548521274,0.0030787913128733635,,,,,0,,3,,
Raw,282260866,20541000000,,,-1222628376458745995,0.0,9.710415093433301,,,0,18,0.0,32995,79178925051631,104,25.107830047607422,-66.00656480078663,0.2599308531806819,4,-992.5188093473201,3.4028234663852886E38,,,,,0,,3,,
Raw,282260866,20541000000,,,-1222628376458745995,0.0,9.710415093433301,,,0,12,0.0,32995,79178924625185,33,36.27033996582031,-921.3160785807409,0.07248123649215166,1,-14240.930088049145,0.001373204169794917,,,,,0,,3,,
Raw,282260866,20541000000,,,-1222628376458745995,0.0,9.710415093433301,,,0,11,0.0,32995,79178933450176,33,35.1417236328125,-461.38246190376276,0.08401039293491808,1,-8101.200857666836,0.0015631959540769458,,,,,0,,3,,
Raw,282260867,20541000000,,,-1222628376458745995,0.0,9.710415093433301,,,0,1,0.0,32995,79178935212294,70,28.570924758911133,119.56154718289929,0.17658934509684843,1,2026.5500128870603,0.003139240900054574,,,,,0,,3,,
Raw,282260867,20541000000,,,-1222628376458745995,0.0,9.710415093433301,,,0,17,0.0,32995,79178923002760,73,28.168373107910156,517.5513045621369,0.1826401127737115,1,8458.917126449265,0.0032846955582499504,,,,,0,,3,,
Raw,282260869,20541000000,,,-1222628376458745995,0.0,9.710415093433301,,,0,8,0.0,32995,79178925763073,33,39.333492279052734,587.5881624498165,0.05139299942967879,1,10200.7543477957,9.627444669604301E-4,,,,,0,,3,,
Raw,282261860,21541000000,,,-1222628376458746289,0.0,9.073652078212753,,,0,2,0.0,16431,327597918191504,23,32.13357925415039,530.198009044404,0.11863067162016788,1,10257.418468858254,0.0021189001854509115,,,,,0,,1,,
Raw,282261861,21541000000,,,-1222628376458746289,0.0,9.073652078212753,,,0,5,0.0,16431,327597931406884,13,36.5984992980957,-3.575343149729056,0.07104456442713325,1,-135.72396989897766,0.0013441285118460655,,,,,0,,1,,
Raw,282261861,21541000000,,,-1222628376458746289,0.0,9.073652078212753,,,0,7,0.0,16431,327597926780536,11,37.97210693359375,304.1172823986458,0.06012069194276784,1,5551.30849472412,0.0011475203791633248,,,,,0,,1,,
Raw,282261862,21541000000,,,-1222628376458746289,0.0,9.073652078212753,,,0,9,0.0,16,15495976,1000000000,8.139724731445312,581.8941427683767,2.99792458E8,4,10677.65856828315,3.4028234663852886E38,,,,,0,,1,,
Raw,282261862,21541000000,,,-1222628376458746289,0.0,9.073652078212753,,,0,13,0.0,16431,327597928254899,10,39.061180114746094,-545.2395514167029,0.053444873980484725,1,-10653.092208782084,0.0010122942039743066,,,,,0,,1,,
Raw,282261863,21541000000,,,-1222628376458746289,0.0,9.073652078212753,,,0,15,0.0,51,18010806,72,20.52584457397461,-773.479197188442,4.203239719672535,4,-12737.290403253686,3.4028234663852886E38,,,,,0,,1,,
Raw,282261863,21541000000,,,-1222628376458746289,0.0,9.073652078212753,,,0,21,0.0,17,75957,167,19.3581600189209,-428.4366553059881,4.202891705839134,4,-4733.81780692868,3.4028234663852886E38,,,,,1,,1,,
Raw,282261863,21541000000,,,-1222628376458746289,0.0,9.073652078212753,,,0,27,0.0,16,16809246,1000000000,7.0,-325.18998811230813,2.99792458E8,4,-1961.2917565800144,3.4028234663852886E38,,,,,0,,1,,
Raw,282261864,21541000000,,,-1222628376458746289,0.0,9.073652078212753,,,0,28,0.0,16431,327597920998038,23,31.92873764038086,-660.4597264114113,0.11829083724349598,1,-12889.904446206685,0.00230106501840055,,,,,0,,1,,
Raw,282261864,21541000000,,,-1222628376458746289,0.0,9.073652078212753,,,0,30,0.0,16431,327597931068485,14,36.542884826660156,-69.07125929131774,0.0714268770607751,1,-1407.373774545735,0.0013527622213587165,,,,,0,,1,,
Raw,282261865,21541000000,,,-1222628376458746289,0.0,9.073652078212753,,,0,2,0.0,32995,79179930124839,64,29.280336380004883,-675.506926471493,0.16203934803373188,1,-12488.764017539153,0.0028981235809624195,,,,,0,,3,,
Raw,282261865,21541000000,,,-1222628376458746289,0.0,9.073652078212753,,,0,18,0.0,32995,79179925051798,100,25.458961486816406,-65.70721006453266,0.24966863883512325,4,-1058.3804616092787,3.4028234663852886E38,,,,,0,,3,,
Raw,282261866,21541000000,,,-1222628376458746289,0.0,9.073652078212753,,,0,12,0.0,32995,79179924628237,33,36.14472198486328,-921.1719097896494,0.07352551929880918,1,-15162.180447236049,0.0013932082802057266,,,,,0,,3,,
Raw,282261866,21541000000,,,-1222628376458746289,0.0,9.073652078212753,,,0,11,0.0,32995,79179933451726,33,35.14616775512695,-461.12548018158077,0.08396894647106551,1,-8562.443393721807,0.0015623964136466384,,,,,0,,3,,
Raw,282261867,21541000000,,,-1222628376458746289,0.0,9.073652078212753,,,0,1,0.0,32995,79179935211864,70,28.56778335571289,119.72268903733914,0.17665216798423788,1,2146.1825646480524,0.0031403761822730303,,,,,0,,3,,
Raw,282261867,21541000000,,,-1222628376458746289,0.0,9.073652078212753,,,0,17,0.0,32995,79179923000961,77,27.698440551757812,517.3873338638057,0.19276331795943857,4,8976.546155564474,3.4028234663852886E38,,,,,0,,3,,
Raw,282261868,21541000000,,,-1222628376458746289,0.0,9.073652078212753,,,0,8,0.0,32995,79179925761118,33,39.16718292236328,587.7461005533432,0.05236611763442925,1,10788.40100466276,9.813557844609022E-4,,,,,0,,3,,
Raw,282262858,22541000000,,,-1222628376458746583,0.0,8.685249853115694,,,0,2,0.0,16431,327598918189778,24,31.746171951293945,530.3824632991054,0.12389203435310542,1,10787.70659905411,0.0022155463229864836,,,,,0,,1,,
Raw,282262859,22541000000,,,-1222628376458746583,0.0,8.685249853115694,,,0,5,0.0,16431,327598931406870,12,37.477691650390625,-3.209579013209577,0.06440285388410966,1,-139.1129010884437,0.001214733929373324,,,,,0,,1,,
Raw,282262859,22541000000,,,-1222628376458746583,0.0,8.685249853115694,,,0,7,0.0,16431,327598926779535,12,37.29231643676758,304.33984083973974,0.06491553857068105,1,5855.523364953,0.0012409375049173832,,,,,0,,1,,
Raw,282262860,22541000000,,,-1222628376458746583,0.0,8.685249853115694,,,0,9,0.0,16,15493959,1000000000,7.361835479736328,581.5574762628444,2.99792458E8,4,11258.750902351097,3.4028234663852886E38,,,,,1,,1,,
Raw,282262860,22541000000,,,-1222628376458746583,0.0,8.685249853115694,,,0,13,0.0,16431,327598928256707,10,38.72112274169922,-544.9629722820202,0.055519818260467785,1,-11198.197139197187,0.0010527119738981128,,,,,0,,1,,
Raw,282262861,22541000000,,,-1222628376458746583,0.0,8.685249853115694,,,0,15,0.0,51,18013396,74,20.104450225830078,-773.3033998776973,4.203240252210918,4,-13511.121791131009,3.4028234663852886E38,,,,,0,,1,,
Raw,282262861,22541000000,,,-1222628376458746583,0.0,8.685249853115694,,,0,21,0.0,17,77364,167,19.352519989013672,-428.10649854965163,4.2028919721083255,4,-5161.779235300013,3.4028234663852886E38,,,,,1,,1,,
Raw,282262862,22541000000,,,-1222628376458746583,0.0,8.685249853115694,,,0,27,0.0,16,16810326,1000000000,7.0,-324.63297852535584,2.99792458E8,4,-2285.6502220377306,3.4028234663852886E38,,,,,0,,1,,
Raw,282262862,22541000000,,,-1222628376458746583,0.0,8.685249853115694,,,0,28,0.0,16431,327598921000210,22,32.5042839050293,-660.1897251908376,0.11071857412227037,1,-13550.267240197098,0.0021535330452024937,,,,,0,,1,,
Raw,282262864,22541000000,,,-1222628376458746583,0.0,8.685249853115694,,,0,30,0.0,16431,327598931068721,15,35.87787628173828,-68.75384511341375,0.07695183797246902,1,-1476.2805865879518,0.001460400177165866,,,,,0,,1,,
Raw,282262864,22541000000,,,-1222628376458746583,0.0,8.685249853115694,,,0,2,0.0,32995,79180930127148,58,30.146047592163086,-675.127452400568,0.14684105205640507,1,-13164.029434361904,0.002623199252411723,,,,,0,,3,,
Raw,282262865,22541000000,,,-1222628376458746583,0.0,8.685249853115694,,,0,18,0.0,32995,79180925052012,103,25.24671173095703,-65.3906522083488,0.2558222696290603,4,-1123.9249659760123,3.4028234663852886E38,,,,,0,,3,,
Raw,282262866,22541000000,,,-1222628376458746583,0.0,8.685249853115694,,,0,12,0.0,32995,79180924631305,33,35.212162017822266,-920.8647586914658,0.08176512790235557,1,-16083.21639353557,0.0015511150704696774,,,,,0,,3,,
Raw,282262867,22541000000,,,-1222628376458746583,0.0,8.685249853115694,,,0,11,0.0,32995,79180933453221,33,34.98970031738281,-460.7453926264384,0.08545157493436895,1,-9023.37531852755,0.0015907963970676064,,,,,0,,3,,
Raw,282262867,22541000000,,,-1222628376458746583,0.0,8.685249853115694,,,0,1,0.0,32995,79180935211426,72,28.33211326599121,120.10542650347617,0.18143549430915895,1,2266.097333741085,0.0032267486676573753,,,,,0,,3,,
Raw,282262867,22541000000,,,-1222628376458746583,0.0,8.685249853115694,,,0,17,0.0,32995,79180922999192,76,27.814191818237305,518.3828142539239,0.19021836695174776,4,9494.432803924356,3.4028234663852886E38,,,,,0,,3,,
Raw,282262868,22541000000,,,-1222628376458746583,0.0,8.685249853115694,,,0,8,0.0,32995,79180925759174,33,38.98711395263672,587.999742194786,0.05344099227492616,1,11376.258658868051,0.001001912634819746,,,,,0,,3,,
Raw,282263886,23541000000,,,-1222628376458746876,0.0,8.392063174773694,,,0,2,0.0,16431,327599918187962,24,31.705562591552734,530.4788144036954,0.12445696604761303,1,11318.159152063576,0.0022259289398789406,,,,,0,,1,,
Raw,282263888,23541000000,,,-1222628376458746876,0.0,8.392063174773694,,,0,5,0.0,16431,327599931406864,11,38.035789489746094,-2.9943365844236,0.06052259200381563,1,-142.21584249102258,0.0011391378939151764,,,,,0,,1,,
Raw,282263888,23541000000,,,-1222628376458746876,0.0,8.392063174773694,,,0,7,0.0,16431,327599926778505,13,37.18190002441406,304.5543899035508,0.06573021828552653,1,6159.980914499458,0.001256813295185566,,,,,0,,1,,
Raw,282263890,23541000000,,,-1222628376458746876,0.0,8.392063174773694,,,0,9,0.0,16,15492456,1000000000,7.0,581.048829681698,2.99792458E8,4,11840.995017508025,3.4028234663852886E38,,,,,1,,1,,
Raw,282263892,23541000000,,,-1222628376458746876,0.0,8.392063174773694,,,0,13,0.0,16431,327599928258516,11,38.65483093261719,-544.7484232182092,0.055934112320292606,1,-11743.070869201545,0.0010607772273942828,,,,,0,,1,,
Raw,282263892,23541000000,,,-1222628376458746876,0.0,8.392063174773694,,,0,15,0.0,51,18016012,75,19.93407440185547,-773.3278029165676,4.203240784749301,4,-14285.199091096749,3.4028234663852886E38,,,,,0,,1,,
Raw,282263894,23541000000,,,-1222628376458746876,0.0,8.392063174773694,,,0,21,0.0,17,78904,83,18.422725677490234,-428.21065453678534,4.202892238377517,4,-5589.524962691985,3.4028234663852886E38,,,,,0,,1,,
Raw,282263895,23541000000,,,-1222628376458746876,0.0,8.392063174773694,,,0,27,0.0,16,16811405,1000000000,7.0,-324.44719505485,2.99792458E8,4,-2609.9214281154623,3.4028234663852886E38,,,,,0,,1,,
Raw,282263896,23541000000,,,-1222628376458746876,0.0,8.392063174773694,,,0,28,0.0,16431,327599921002424,22,32.39242172241211,-660.1038374004002,0.11215175140414924,1,-14210.42730747661,0.002181447111070156,,,,,0,,1,,
Raw,282263896,23541000000,,,-1222628376458746876,0.0,8.392063174773694,,,0,30,0.0,16431,327599931068938,14,36.13859558105469,-68.53999473996137,0.07473528008712421,1,-1544.9161479050674,0.0014172154478728771,,,,,0,,1,,
Raw,282263897,23541000000,,,-1222628376458746876,0.0,8.392063174773694,,,0,2,0.0,32995,79181930129310,59,30.060312271118164,-674.9514505950842,0.14827997076772748,1,-13839.086367885702,0.002649220172315836,,,,,0,,3,,
Raw,282263897,23541000000,,,-1222628376458746876,0.0,8.392063174773694,,,0,18,0.0,32995,79181925052297,94,26.036123275756836,-65.0199969730491,0.23367627820301817,4,-1189.131439063204,3.4028234663852886E38,,,,,0,,3,,
Raw,282263898,23541000000,,,-1222628376458746876,0.0,8.392063174773694,,,0,12,0.0,32995,79181924634364,34,34.651737213134766,-920.7543996972449,0.08715964187290981,1,-17004.049712531607,0.0016544939717277884,,,,,0,,3,,
Raw,282263898,23541000000,,,-1222628376458746876,0.0,8.392063174773694,,,0,11,0.0,32995,79181933454748,34,34.86753845214844,-460.4790382287126,0.08662787733457894,1,-9483.996900408316,0.0016133278841152787,,,,,0,,3,,
Raw,282263898,23541000000,,,-1222628376458746876,0.0,8.392063174773694,,,0,1,0.0,32995,79181935211141,74,28.129486083984375,120.31343173563488,0.18565318166203226,1,2386.279934272326,0.003302908269688487,,,,,0,,3,,
