# 
# Header Description:
# 
# Version: v2.0.0.1 Platform: 8.0.0 Manufacturer: HUAWEI Model: VKY-TL00
# 
# Raw,ElapsedRealtimeMillis,TimeNanos,LeapSecond,TimeUncertaintyNanos,FullBiasNanos,BiasNanos,BiasUncertaintyNanos,DriftNanosPerSecond,DriftUncertaintyNanosPerSecond,HardwareClockDiscontinuityCount,Svid,TimeOffsetNanos,State,ReceivedSvTimeNanos,ReceivedSvTimeUncertaintyNanos,Cn0DbHz,PseudorangeRateMetersPerSecond,PseudorangeRateUncertaintyMetersPerSecond,AccumulatedDeltaRangeState,AccumulatedDeltaRangeMeters,AccumulatedDeltaRangeUncertaintyMeters,CarrierFrequencyHz,CarrierCycles,CarrierPhase,CarrierPhaseUncertainty,MultipathIndicator,SnrInDb,ConstellationType,AgcDb,CarrierFrequencyHz
# 
# Fix,Provider,Latitude,Longitude,Altitude,Speed,Accuracy,(UTC)TimeInMs
# 
# Nav,Svid,Type,Status,MessageId,Sub-messageId,Data(Bytes)
# 
Raw,282340854,11321000000,,,-1222628465679455617,0.0,16.70609677714524,,,0,2,0.0,51,18737579,37,28.04745864868164,535.5257445655932,0.18802302739260734,4,4395.034508393246,3.4028234663852886E38,,,,,0,,1,,
Raw,282340854,11321000000,,,-1222628465679455617,0.0,16.70609677714524,,,0,5,0.0,16431,327676932092516,9,40.163841247558594,9.628303553384832,0.04794046156156012,4,78.70752144251107,3.4028234663852886E38,,,,,0,,1,,
Raw,282340855,11321000000,,,-1222628465679455617,0.0,16.70609677714524,,,0,7,0.0,16431,327676927385720,25,31.4526309967041,313.89966315227935,0.12609467967318994,4,2569.6599505373483,3.4028234663852886E38,,,,,0,,1,,
Raw,282340855,11321000000,,,-1222628465679455617,0.0,16.70609677714524,,,0,8,0.0,16,14651052,1000000000,7.0,-543.5895515315206,2.99792458E8,4,-4452.1780714653405,3.4028234663852886E38,,,,,0,,1,,
Raw,282340855,11321000000,,,-1222628465679455617,0.0,16.70609677714524,,,0,9,0.0,17,27422,167,20.736618041992188,585.5188120195776,4.202882918955812,4,3632.568366172585,3.4028234663852886E38,,,,,1,,1,,
Raw,282340856,11321000000,,,-1222628465679455617,0.0,16.70609677714524,,,0,13,0.0,16431,327676929083880,7,41.74214172363281,-536.321842585053,0.039795099770466275,4,-4951.032334671684,3.4028234663852886E38,,,,,0,,1,,
Raw,282340856,11321000000,,,-1222628465679455617,0.0,16.70609677714524,,,0,15,0.0,16431,327676918900849,74,20.215993881225586,-767.9039889504406,4.203399747456677,4,-6314.827606732792,3.4028234663852886E38,,,,,0,,1,,
Raw,282340856,11321000000,,,-1222628465679455617,0.0,16.70609677714524,,,0,21,0.0,17,873985,72,20.487895965576172,-418.7761193344236,4.203035224933398,4,-2607.868438024,3.4028234663852886E38,,,,,0,,1,,
Raw,282340859,11321000000,,,-1222628465679455617,0.0,16.70609677714524,,,0,28,0.0,51,1857524,22,32.31319808959961,-652.9784227099153,0.1133315319456743,4,-5362.574170576014,3.4028234663852886E38,,,,,0,,1,,
Raw,282340859,11321000000,,,-1222628465679455617,0.0,16.70609677714524,,,0,30,0.0,16431,327676931771494,12,37.770225524902344,-56.27702889599169,0.06240348012906316,4,-528.7454664728117,3.4028234663852886E38,,,,,0,,1,,
Raw,282340859,11321000000,,,-1222628465679455617,0.0,16.70609677714524,,,0,2,0.0,99,930988137,166,28.224279403686523,-666.6613020353889,0.1829081459986902,4,-5482.213332219724,3.4028234663852886E38,,,,,1,,3,,
Raw,282340859,11321000000,,,-1222628465679455617,0.0,16.70609677714524,,,0,18,0.0,17,753154,107,24.850759506225586,-48.681020687068155,0.26783775010843125,4,-353.9959165677861,3.4028234663852886E38,,,,,0,,3,,
Raw,282340860,11321000000,,,-1222628465679455617,0.0,16.70609677714524,,,0,12,0.0,99,925556512,34,34.704166412353516,-913.489860419234,0.08680601974466118,4,-5682.897044501981,3.4028234663852886E38,,,,,0,,3,,
Raw,282340860,11321000000,,,-1222628465679455617,0.0,16.70609677714524,,,0,11,0.0,99,934257677,33,35.534751892089844,-445.6072605723539,0.08054602272959838,4,-3665.134889116522,3.4028234663852886E38,,,,,0,,3,,
Raw,282340860,11321000000,,,-1222628465679455617,0.0,16.70609677714524,,,0,1,0.0,99,935865088,65,29.133901596069336,132.89647018911734,0.16579589043042986,4,1079.0081625969278,3.4028234663852886E38,,,,,0,,3,,
Raw,282340860,11321000000,,,-1222628465679455617,0.0,16.70609677714524,,,0,19,0.0,17,563625,167,12.510406494140625,-659.2879715561571,4.203699034028018,4,-1332.2597850427603,3.4028234663852886E38,,,,,1,,3,,
Raw,282340860,11321000000,,,-1222628465679455617,0.0,16.70609677714524,,,0,17,0.0,99,923549573,33,35.88131332397461,529.1394761097185,0.07556975941263766,4,3808.5948739838054,3.4028234663852886E38,,,,,0,,3,,
Raw,282340860,11321000000,,,-1222628465679455617,0.0,16.70609677714524,,,0,8,0.0,99,926291447,166,31.9455509185791,595.5653658937194,0.11901465675716938,4,3697.4883948908855,3.4028234663852886E38,,,,,1,,3,,
Raw,282341855,12321000000,,,-1222628465679455901,0.0,15.937125822896341,,,0,2,0.0,51,18735895,47,26.018932342529297,535.813093756537,0.23659871571525337,4,4930.746977125364,3.4028234663852886E38,,,,,0,,1,,
Raw,282341855,12321000000,,,-1222628465679455901,0.0,15.937125822896341,,,0,5,0.0,16431,327677932092502,11,38.63031005859375,10.08005586382702,0.05677769888424947,1,88.48969914531808,0.0010637762024998665,,,,,0,,1,,
Raw,282341855,12321000000,,,-1222628465679455901,0.0,15.937125822896341,,,0,7,0.0,16431,327677927384584,27,30.715261459350586,313.8740331449742,0.13714880355725745,4,2883.9249788313946,3.4028234663852886E38,,,,,0,,1,,
Raw,282341855,12321000000,,,-1222628465679455901,0.0,15.937125822896341,,,0,8,0.0,16,14652872,1000000000,7.0,-543.181482279573,2.99792458E8,4,-4994.96661059908,3.4028234663852886E38,,,,,0,,1,,
Raw,282341856,12321000000,,,-1222628465679455901,0.0,15.937125822896341,,,0,9,0.0,17,25383,167,18.164979934692383,585.6294436734506,4.20288265268662,4,4218.239494735779,3.4028234663852886E38,,,,,1,,1,,
Raw,282341856,12321000000,,,-1222628465679455901,0.0,15.937125822896341,,,0,13,0.0,16431,327677929085667,11,38.52035140991211,-535.9813588443901,0.05693246369140181,4,-5487.258919842434,3.4028234663852886E38,,,,,0,,1,,
Raw,282341856,12321000000,,,-1222628465679455901,0.0,15.937125822896341,,,0,15,0.0,16431,327677918903386,74,20.175662994384766,-766.5437581106153,4.20340027999506,4,-7082.360554926322,3.4028234663852886E38,,,,,0,,1,,
Raw,282341856,12321000000,,,-1222628465679455901,0.0,15.937125822896341,,,0,21,0.0,17,875398,83,18.328588485717773,-418.5544470371992,4.20303549120259,4,-3025.6918835299266,3.4028234663852886E38,,,,,0,,1,,
Raw,282341856,12321000000,,,-1222628465679455901,0.0,15.937125822896341,,,0,27,0.0,17,580212,108,13.097795486450195,-311.52438859229164,5.8594697713995245,6,-260.7462327425119,3.4028234663852886E38,,,,,1,,1,,
Raw,282341857,12321000000,,,-1222628465679455901,0.0,15.937125822896341,,,0,28,0.0,51,1859736,23,32.22730255126953,-652.8139407747362,0.11445492998588136,4,-6015.258360330554,3.4028234663852886E38,,,,,0,,1,,
Raw,282341857,12321000000,,,-1222628465679455901,0.0,15.937125822896341,,,0,30,0.0,16431,327677931771647,14,36.45309066772461,-57.29252420870296,0.0722748778686737,4,-585.1505561901855,3.4028234663852886E38,,,,,0,,1,,
Raw,282341857,12321000000,,,-1222628465679455901,0.0,15.937125822896341,,,0,2,0.0,99,1930990250,110,24.678714752197266,-666.3666251162927,0.27411707660262064,4,-6148.863745952963,3.4028234663852886E38,,,,,0,,3,,
Raw,282341857,12321000000,,,-1222628465679455901,0.0,15.937125822896341,,,0,18,0.0,51,5753254,60,22.800573348999023,-47.909764518106414,4.201035277035407,4,-402.2704673057328,3.4028234663852886E38,,,,,0,,3,,
Raw,282341858,12321000000,,,-1222628465679455901,0.0,15.937125822896341,,,0,12,0.0,99,1925559484,37,33.97673034667969,-913.0335644913066,0.09430229629533837,4,-6596.185931982398,3.4028234663852886E38,,,,,0,,3,,
Raw,282341858,12321000000,,,-1222628465679455901,0.0,15.937125822896341,,,0,11,0.0,99,1934259134,33,36.78281784057617,-445.12581179151266,0.07010904426432574,4,-4110.370803739478,3.4028234663852886E38,,,,,0,,3,,
Raw,282341858,12321000000,,,-1222628465679455901,0.0,15.937125822896341,,,0,1,0.0,99,1935864618,59,29.999814987182617,133.27925877893915,0.15033525273209447,4,1212.1899991425364,3.4028234663852886E38,,,,,0,,3,,
Raw,282341858,12321000000,,,-1222628465679455901,0.0,15.937125822896341,,,0,19,0.0,17,566023,116,12.063175201416016,-659.2891985245919,4.20369930029721,4,-1990.6105164673663,3.4028234663852886E38,,,,,0,,3,,
Raw,282341858,12321000000,,,-1222628465679455901,0.0,15.937125822896341,,,0,17,0.0,99,1923547857,39,33.595924377441406,529.3726341947911,0.09812195281135411,4,4337.85414392535,3.4028234663852886E38,,,,,0,,3,,
Raw,282341859,12321000000,,,-1222628465679455901,0.0,15.937125822896341,,,0,8,0.0,99,1926289641,57,30.373207092285156,596.6875648571895,0.14240730389638545,4,4293.134120848142,3.4028234663852886E38,,,,,0,,3,,
Raw,282342855,13321000000,,,-1222628465679456186,0.0,15.4641655819236,,,0,2,0.0,16431,327678918734097,50,25.460121154785156,535.7796247842316,0.2520964813239903,4,5466.602764744111,3.4028234663852886E38,,,,,0,,1,,
Raw,282342856,13321000000,,,-1222628465679456186,0.0,15.4641655819236,,,0,5,0.0,16431,327678932092442,18,34.17064666748047,10.192483237128108,0.09341740888349309,1,98.62778989592469,0.0017775972373783588,,,,,0,,1,,
Raw,282342856,13321000000,,,-1222628465679456186,0.0,15.4641655819236,,,0,7,0.0,16431,327678927383483,19,33.899505615234375,314.9530155535733,0.0954635212025749,4,3198.5462277730235,3.4028234663852886E38,,,,,0,,1,,
Raw,282342856,13321000000,,,-1222628465679456186,0.0,15.4641655819236,,,0,8,0.0,16,14654685,1000000000,7.0,-542.8469629688016,2.99792458E8,4,-5537.556445476947,3.4028234663852886E38,,,,,0,,1,,
Raw,282342856,13321000000,,,-1222628465679456186,0.0,15.4641655819236,,,0,9,0.0,16,16023386,1000000000,12.833183288574219,585.5585521638832,2.99792458E8,4,4803.9040980991485,3.4028234663852886E38,,,,,1,,1,,
Raw,282342856,13321000000,,,-1222628465679456186,0.0,15.4641655819236,,,0,13,0.0,16431,327678929087470,18,34.26092529296875,-536.0485694486531,0.09193344907423173,4,-6023.226873351694,3.4028234663852886E38,,,,,0,,1,,
Raw,282342857,13321000000,,,-1222628465679456186,0.0,15.4641655819236,,,0,15,0.0,16431,327678918905846,80,18.9700984954834,-766.671908147141,4.203400812533443,4,-7848.613101143478,3.4028234663852886E38,,,,,0,,1,,
Raw,282342857,13321000000,,,-1222628465679456186,0.0,15.4641655819236,,,0,21,0.0,17,876798,110,13.105234146118164,-418.17006509253497,4.203035757471781,4,-3442.8502266490877,3.4028234663852886E38,,,,,0,,1,,
Raw,282342857,13321000000,,,-1222628465679456186,0.0,15.4641655819236,,,0,27,0.0,16,17581681,1000000000,8.134012222290039,-311.4385348843107,2.99792458E8,4,-5.287711690491761,3.4028234663852886E38,,,,,0,,1,,
Raw,282342857,13321000000,,,-1222628465679456186,0.0,15.4641655819236,,,0,28,0.0,16431,327678921861948,21,32.77970886230469,-652.3065211620246,0.10742342630911483,1,-6667.815060570496,0.001966998679563403,,,,,0,,1,,
Raw,282342858,13321000000,,,-1222628465679456186,0.0,15.4641655819236,,,0,30,0.0,16431,327678931771845,21,32.714473724365234,-55.53979127894678,0.11001328528014881,1,-641.2544036206696,0.001981826964765787,,,,,0,,1,,
Raw,282342858,13321000000,,,-1222628465679456186,0.0,15.4641655819236,,,0,2,0.0,99,930992609,77,27.740068435668945,-666.3810079129453,0.19328176071727798,4,-6815.337690528968,3.4028234663852886E38,,,,,0,,3,,
Raw,282342858,13321000000,,,-1222628465679456186,0.0,15.4641655819236,,,0,18,0.0,51,5753287,86,17.89129638671875,-45.066363157470846,4.201035277035407,4,-448.6265034778544,3.4028234663852886E38,,,,,0,,3,,
Raw,282342858,13321000000,,,-1222628465679456186,0.0,15.4641655819236,,,0,12,0.0,99,925562588,50,31.484750747680664,-913.049174256394,0.1253062898805573,4,-7509.250409961408,3.4028234663852886E38,,,,,0,,3,,
Raw,282342859,13321000000,,,-1222628465679456186,0.0,15.4641655819236,,,0,11,0.0,99,934260656,33,37.68011474609375,-444.7118462745866,0.06347998566835852,4,-4555.285636812114,3.4028234663852886E38,,,,,0,,3,,
Raw,282342859,13321000000,,,-1222628465679456186,0.0,15.4641655819236,,,0,1,0.0,99,935864228,41,33.24883270263672,133.71326478030062,0.10431175461078546,4,1345.6614308839169,3.4028234663852886E38,,,,,0,,3,,
Raw,282342859,13321000000,,,-1222628465679456186,0.0,15.4641655819236,,,0,19,0.0,17,568398,117,11.892255783081055,-658.5554714005689,4.203699832835593,4,-2650.040938140298,3.4028234663852886E38,,,,,0,,3,,
Raw,282342859,13321000000,,,-1222628465679456186,0.0,15.4641655819236,,,0,17,0.0,99,923545886,166,29.430452346801758,529.3066505589629,0.1581107624556214,1,4867.297064264343,0.0028404765762388706,,,,,1,,3,,
Raw,282342859,13321000000,,,-1222628465679456186,0.0,15.4641655819236,,,0,8,0.0,99,926287565,70,28.508914947509766,596.4900229391833,0.1762296320608423,4,4889.2435877188755,3.4028234663852886E38,,,,,0,,3,,
Raw,282343872,14321000000,,,-1222628465679456467,0.0,14.618003279102632,,,0,2,0.0,16431,327679918732278,65,23.1176815032959,535.936301836867,0.329089382998349,4,6002.543728386461,3.4028234663852886E38,,,,,0,,1,,
Raw,282343873,14321000000,,,-1222628465679456467,0.0,14.618003279102632,,,0,5,0.0,16431,327679932092469,23,32.010780334472656,10.682882923113631,0.11917604917091851,4,108.98710452386605,3.4028234663852886E38,,,,,0,,1,,
Raw,282343873,14321000000,,,-1222628465679456467,0.0,14.618003279102632,,,0,7,0.0,16431,327679927382390,27,30.72075653076172,315.9891563143233,0.13706252401827185,4,3513.465319373856,3.4028234663852886E38,,,,,0,,1,,
Raw,282343874,14321000000,,,-1222628465679456467,0.0,14.618003279102632,,,0,8,0.0,16,14656501,1000000000,7.0,-542.6613158281218,2.99792458E8,4,-6079.800424997984,3.4028234663852886E38,,,,,0,,1,,
Raw,282343875,14321000000,,,-1222628465679456467,0.0,14.618003279102632,,,0,9,0.0,17,21442,97,15.68143081665039,585.4231766465746,4.202881853879045,4,5390.875865501274,3.4028234663852886E38,,,,,0,,1,,
Raw,282343875,14321000000,,,-1222628465679456467,0.0,14.618003279102632,,,0,13,0.0,16431,327679929089240,13,36.651756286621094,-535.3979694360892,0.07020594128732577,1,-6559.025564479441,0.0013359121512621641,,,,,0,,1,,
Raw,282343875,14321000000,,,-1222628465679456467,0.0,14.618003279102632,,,0,15,0.0,16431,327679918908423,45,26.390945434570312,-767.8042636826549,0.22685153255351698,4,-8614.847025220148,3.4028234663852886E38,,,,,0,,1,,
Raw,282343876,14321000000,,,-1222628465679456467,0.0,14.618003279102632,,,0,21,0.0,17,878181,117,11.919843673706055,-418.44016856047824,4.203036023740973,4,-3860.897485488537,3.4028234663852886E38,,,,,0,,1,,
Raw,282343876,14321000000,,,-1222628465679456467,0.0,14.618003279102632,,,0,27,0.0,16,17582726,1000000000,7.273771286010742,-312.1577087993985,2.99792458E8,4,-317.83351228699655,3.4028234663852886E38,,,,,0,,1,,
Raw,282343876,14321000000,,,-1222628465679456467,0.0,14.618003279102632,,,0,28,0.0,16431,327679921864081,24,31.538684844970703,-652.277142084502,0.12387147337896776,1,-7320.062339492696,0.0022691083140671253,,,,,0,,1,,
Raw,282343877,14321000000,,,-1222628465679456467,0.0,14.618003279102632,,,0,30,0.0,16431,327679931772002,21,32.79789352416992,-55.3685950998327,0.10898207462661563,1,-696.6441142624329,0.0020819534547626972,,,,,0,,1,,
Raw,282343877,14321000000,,,-1222628465679456467,0.0,14.618003279102632,,,0,2,0.0,32995,79261930994884,42,33.00031280517578,-665.9100565287131,0.10638068287122115,4,-7481.598328844339,3.4028234663852886E38,,,,,0,,3,,
Raw,282343877,14321000000,,,-1222628465679456467,0.0,14.618003279102632,,,0,18,0.0,51,5753486,88,17.47898292541504,-45.17424691328674,4.201035277035407,4,-493.57752119371713,3.4028234663852886E38,,,,,0,,3,,
Raw,282343878,14321000000,,,-1222628465679456467,0.0,14.618003279102632,,,0,12,0.0,32995,79261925565581,54,30.740625381469727,-912.9742610169569,0.136425649716563,4,-8422.18443090677,3.4028234663852886E38,,,,,0,,3,,
Raw,282343878,14321000000,,,-1222628465679456467,0.0,14.618003279102632,,,0,11,0.0,32995,79261934262102,33,36.631351470947266,-444.51437252149344,0.07129775314468112,4,-4999.844931116812,3.4028234663852886E38,,,,,0,,3,,
Raw,282343878,14321000000,,,-1222628465679456467,0.0,14.618003279102632,,,0,1,0.0,32995,79261935863792,166,30.78026008605957,133.90556652061645,0.13766148824382884,4,1479.4758232350478,3.4028234663852886E38,,,,,1,,3,,
Raw,282343879,14321000000,,,-1222628465679456467,0.0,14.618003279102632,,,0,19,0.0,17,570333,167,12.068227767944336,-658.3037383766914,4.203700099104784,4,-3307.4467452033546,3.4028234663852886E38,,,,,1,,3,,
Raw,282343879,14321000000,,,-1222628465679456467,0.0,14.618003279102632,,,0,17,0.0,99,1923544270,81,27.319021224975586,529.7391569322374,0.20144387666516106,4,5397.025312263068,3.4028234663852886E38,,,,,0,,3,,
Raw,282343881,14321000000,,,-1222628465679456467,0.0,14.618003279102632,,,0,8,0.0,99,1926285552,98,25.688432693481445,596.4218580261377,0.24340463946127444,4,5485.641233712447,3.4028234663852886E38,,,,,0,,3,,
Raw,282344864,15321000000,,,-1222628465679456747,0.0,13.734235424071954,,,0,2,0.0,16431,327680918730451,34,28.72186279296875,536.0703140559147,0.17422710468005798,4,6538.551564875825,3.4028234663852886E38,,,,,0,,1,,
Raw,282344865,15321000000,,,-1222628465679456747,0.0,13.734235424071954,,,0,5,0.0,16431,327680932092392,14,36.144039154052734,11.019390732207768,0.07487378167130931,1,119.80651758291219,0.001416327664628625,,,,,0,,1,,
Raw,282344865,15321000000,,,-1222628465679456747,0.0,13.734235424071954,,,0,7,0.0,16431,327680927381326,38,27.76610565185547,315.22018793025563,0.19205951856060743,4,3828.4284818942633,3.4028234663852886E38,,,,,0,,1,,
Raw,282344865,15321000000,,,-1222628465679456747,0.0,13.734235424071954,,,0,8,0.0,16,14658307,1000000000,7.0,-542.1043744060826,2.99792458E8,4,-6621.786521481708,3.4028234663852886E38,,,,,1,,1,,
Raw,282344866,15321000000,,,-1222628465679456747,0.0,13.734235424071954,,,0,9,0.0,17,19546,167,13.960386276245117,585.7011531619746,4.202881587609854,4,5976.81291858365,3.4028234663852886E38,,,,,1,,1,,
Raw,282344866,15321000000,,,-1222628465679456747,0.0,13.734235424071954,,,0,13,0.0,16431,327680929091042,19,33.781654357910156,-534.947228948575,0.09705662641764917,1,-7094.456617330341,0.0017526964657008648,,,,,0,,1,,
Raw,282344867,15321000000,,,-1222628465679456747,0.0,13.734235424071954,,,0,15,0.0,16431,327680918910987,64,22.172279357910156,-767.5200841601677,4.203401611341018,4,-9383.704689113772,3.4028234663852886E38,,,,,0,,1,,
Raw,282344867,15321000000,,,-1222628465679456747,0.0,13.734235424071954,,,0,21,0.0,17,879678,119,11.46539306640625,-418.0997189022719,4.203036290010164,4,-4278.810380590573,3.4028234663852886E38,,,,,0,,1,,
Raw,282344867,15321000000,,,-1222628465679456747,0.0,13.734235424071954,,,0,27,0.0,16,17583764,1000000000,7.0,-311.28502750013195,2.99792458E8,4,-628.6188494404903,3.4028234663852886E38,,,,,0,,1,,
Raw,282344868,15321000000,,,-1222628465679456747,0.0,13.734235424071954,,,0,28,0.0,16431,327680921866207,30,29.723142623901367,-651.9979386006671,0.1525905694266393,1,-7972.373335226781,0.0027966124471277,,,,,0,,1,,
Raw,282344868,15321000000,,,-1222628465679456747,0.0,13.734235424071954,,,0,30,0.0,16431,327680931772200,24,31.544897079467773,-54.93170913089506,0.12556537812488122,1,-751.7627794235749,0.002267485950142145,,,,,0,,1,,
Raw,282344868,15321000000,,,-1222628465679456747,0.0,13.734235424071954,,,0,2,0.0,32995,79262930997040,47,31.96444320678711,-665.8990138127997,0.11960493395035093,4,-8147.624397497711,3.4028234663852886E38,,,,,0,,3,,
Raw,282344869,15321000000,,,-1222628465679456747,0.0,13.734235424071954,,,0,18,0.0,51,5753860,82,18.50861167907715,-45.90447206490208,4.201035277035407,4,-539.6022310189793,3.4028234663852886E38,,,,,0,,3,,
Raw,282344869,15321000000,,,-1222628465679456747,0.0,13.734235424071954,,,0,12,0.0,32995,79262925568651,42,32.8984375,-912.6976477998178,0.10663640946700131,4,-9334.968912088938,3.4028234663852886E38,,,,,0,,3,,
Raw,282344870,15321000000,,,-1222628465679456747,0.0,13.734235424071954,,,0,11,0.0,32995,79262934263587,41,33.25840377807617,-443.62355935535675,0.10391212615877837,4,-5443.930933780909,3.4028234663852886E38,,,,,0,,3,,
Raw,282344870,15321000000,,,-1222628465679456747,0.0,13.734235424071954,,,0,1,0.0,32995,79262935863365,166,27.77840805053711,134.20878961568576,0.1933153272772421,4,1613.5613439026072,3.4028234663852886E38,,,,,1,,3,,
Raw,282344870,15321000000,,,-1222628465679456747,0.0,13.734235424071954,,,0,19,0.0,17,572264,167,12.506267547607422,-657.7528977143697,4.2037006316431675,4,-3966.212522101324,3.4028234663852886E38,,,,,1,,3,,
Raw,282344871,15321000000,,,-1222628465679456747,0.0,13.734235424071954,,,0,17,0.0,99,923542469,93,26.116519927978516,531.0366760520608,0.23126013491675634,4,5927.117091866703,3.4028234663852886E38,,,,,0,,3,,
Raw,282344871,15321000000,,,-1222628465679456747,0.0,13.734235424071954,,,0,8,0.0,99,926283646,73,28.13458251953125,596.7160577908426,0.18394003896702682,4,6082.064063000844,3.4028234663852886E38,,,,,0,,3,,
Raw,282345870,16321000000,,,-1222628465679457027,0.0,13.751982865240837,,,0,2,0.0,16431,327681918728701,32,29.136316299438477,536.6895582084776,0.16626563920985826,4,7075.080812108687,3.4028234663852886E38,,,,,0,,1,,
Raw,282345870,16321000000,,,-1222628465679457027,0.0,13.751982865240837,,,0,5,0.0,16431,327681932092340,12,37.608036041259766,11.292091922384138,0.06359747694914517,1,130.94734286363285,0.0011966410093009472,,,,,0,,1,,
Raw,282345871,16321000000,,,-1222628465679457027,0.0,13.751982865240837,,,0,7,0.0,16431,327681927380346,48,25.77250862121582,315.4375317555016,0.24126772934786234,4,4143.838068612065,3.4028234663852886E38,,,,,0,,1,,
Raw,282345871,16321000000,,,-1222628465679457027,0.0,13.751982865240837,,,0,8,0.0,16,14660113,1000000000,7.0,-542.1043744060826,2.99792458E8,4,-7163.9140419408495,3.4028234663852886E38,,,,,0,,1,,
Raw,282345871,16321000000,,,-1222628465679457027,0.0,13.751982865240837,,,0,9,0.0,16,16019268,1000000000,13.100177764892578,585.819691945761,2.99792458E8,4,6561.630528272392,3.4028234663852886E38,,,,,1,,1,,
Raw,282345872,16321000000,,,-1222628465679457027,0.0,13.751982865240837,,,0,13,0.0,16431,327681929092798,16,34.884056091308594,-534.9316873484006,0.08568320416831071,1,-7629.555554758788,0.0016374305123463273,,,,,0,,1,,
Raw,282345872,16321000000,,,-1222628465679457027,0.0,13.751982865240837,,,0,15,0.0,16431,327681918913494,70,20.986005783081055,-767.5382160270378,4.203402143879401,4,-10150.70285413817,3.4028234663852886E38,,,,,0,,1,,
Raw,282345872,16321000000,,,-1222628465679457027,0.0,13.751982865240837,,,0,21,0.0,17,881038,167,11.36269760131836,-417.593321763256,4.203036556279356,4,-4697.075874688052,3.4028234663852886E38,,,,,1,,1,,
Raw,282345873,16321000000,,,-1222628465679457027,0.0,13.751982865240837,,,0,27,0.0,16,17584803,1000000000,7.0,-311.08046459608204,2.99792458E8,4,-940.29187942974,3.4028234663852886E38,,,,,0,,1,,
Raw,282345873,16321000000,,,-1222628465679457027,0.0,13.751982865240837,,,0,28,0.0,16431,327681921868522,45,26.417633056640625,-651.8295031005314,0.22310099785545412,4,-8624.392066981027,3.4028234663852886E38,,,,,0,,1,,
Raw,282345874,16321000000,,,-1222628465679457027,0.0,13.751982865240837,,,0,30,0.0,16431,327681931772357,34,28.658275604248047,-54.56206784867692,0.17423091565786253,1,-806.5102126957582,0.0031613726168870926,,,,,0,,1,,
Raw,282345874,16321000000,,,-1222628465679457027,0.0,13.751982865240837,,,0,2,0.0,32995,79263930999313,76,27.85951805114746,-665.3330405397819,0.19067010927709527,4,-8813.274369994118,3.4028234663852886E38,,,,,0,,3,,
Raw,282345874,16321000000,,,-1222628465679457027,0.0,13.751982865240837,,,0,18,0.0,51,5754151,80,19.008892059326172,-46.18451056892175,4.201035277035407,4,-585.2499719872301,3.4028234663852886E38,,,,,0,,3,,
Raw,282345875,16321000000,,,-1222628465679457027,0.0,13.751982865240837,,,0,12,0.0,32995,79263925571648,33,35.317588806152344,-912.2017480574109,0.08095787460168163,4,-10247.300407111517,3.4028234663852886E38,,,,,0,,3,,
Raw,282345875,16321000000,,,-1222628465679457027,0.0,13.751982865240837,,,0,11,0.0,32995,79263934264966,59,29.993188858032227,-443.5897495584861,0.1501600476040319,4,-5887.814384839548,3.4028234663852886E38,,,,,0,,3,,
Raw,282345875,16321000000,,,-1222628465679457027,0.0,13.751982865240837,,,0,1,0.0,32995,79263935862878,72,28.277849197387695,134.58528999227912,0.1826725476896114,4,1747.9901769571113,3.4028234663852886E38,,,,,0,,3,,
Raw,282345875,16321000000,,,-1222628465679457027,0.0,13.751982865240837,,,0,19,0.0,17,574399,116,12.090570449829102,-658.0674787880753,4.203700897912359,4,-4623.302660475029,3.4028234663852886E38,,,,,0,,3,,
Raw,282345876,16321000000,,,-1222628465679457027,0.0,13.751982865240837,,,0,17,0.0,99,1923540660,68,28.79472541809082,530.6803780515713,0.17006763042919482,4,6457.576827692276,3.4028234663852886E38,,,,,0,,3,,
Raw,282345876,16321000000,,,-1222628465679457027,0.0,13.751982865240837,,,0,8,0.0,99,1926281659,77,27.7227725982666,597.2820310638604,0.19281568978105834,4,6678.745306669473,3.4028234663852886E38,,,,,0,,3,,
Raw,282346870,17321000000,,,-1222628465679457307,0.0,13.691482827622906,,,0,2,0.0,16431,327682918726854,14,36.50372314453125,536.840373078591,0.07311818568207062,4,7611.766442297173,3.4028234663852886E38,,,,,0,,1,,
Raw,282346870,17321000000,,,-1222628465679457307,0.0,13.691482827622906,,,0,5,0.0,16431,327682932092311,18,34.050758361816406,11.581765110832102,0.09468550758750183,1,142.4706227442403,0.001802302896976471,,,,,0,,1,,
Raw,282346871,17321000000,,,-1222628465679457307,0.0,13.691482827622906,,,0,7,0.0,16431,327682927379287,59,24.05095672607422,316.5831453666028,0.2938642322398539,4,4459.391288190771,3.4028234663852886E38,,,,,0,,1,,
Raw,282346871,17321000000,,,-1222628465679457307,0.0,13.691482827622906,,,0,8,0.0,16,14661916,1000000000,7.0,-542.1043744060826,2.99792458E8,4,-7705.103901304914,3.4028234663852886E38,,,,,0,,1,,
Raw,282346871,17321000000,,,-1222628465679457307,0.0,13.691482827622906,,,0,9,0.0,17,17342,167,12.963489532470703,585.9893544143315,4.202881055071471,4,7151.449259875563,3.4028234663852886E38,,,,,1,,1,,
Raw,282346872,17321000000,,,-1222628465679457307,0.0,13.691482827622906,,,0,13,0.0,16431,327682929094596,17,34.841468811035156,-534.7594005306778,0.08609665365554348,1,-8164.245534581661,0.001551372348330915,,,,,0,,1,,
Raw,282346872,17321000000,,,-1222628465679457307,0.0,13.691482827622906,,,0,15,0.0,16431,327682918915810,167,21.12525177001953,-767.5639823641691,4.203402410148593,4,-10919.013809369235,3.4028234663852886E38,,,,,1,,1,,
Raw,282346872,17321000000,,,-1222628465679457307,0.0,13.691482827622906,,,0,21,0.0,17,882447,167,10.720096588134766,-417.1844004498953,4.2030368225485475,4,-5114.103673194139,3.4028234663852886E38,,,,,1,,1,,
Raw,282346873,17321000000,,,-1222628465679457307,0.0,13.691482827622906,,,0,27,0.0,16,17585834,1000000000,7.517547607421875,-310.83588888807435,2.99792458E8,4,-1250.9114113145843,3.4028234663852886E38,,,,,0,,1,,
Raw,282346873,17321000000,,,-1222628465679457307,0.0,13.691482827622906,,,0,28,0.0,16431,327682921870625,38,27.69219207763672,-651.5648869080883,0.19269828170939407,4,-9275.98442520206,3.4028234663852886E38,,,,,0,,1,,
Raw,282346873,17321000000,,,-1222628465679457307,0.0,13.691482827622906,,,0,30,0.0,16431,327682931772568,39,27.506046295166016,-54.41434170118586,0.19864631940377897,1,-861.0335294165527,0.003609833773225546,,,,,0,,1,,
Raw,282346874,17321000000,,,-1222628465679457307,0.0,13.691482827622906,,,0,2,0.0,32995,79264931001538,68,28.861406326293945,-665.2509018195619,0.1701139113430571,4,-9478.584579646305,3.4028234663852886E38,,,,,0,,3,,
Raw,282346874,17321000000,,,-1222628465679457307,0.0,13.691482827622906,,,0,18,0.0,51,5754258,166,14.499862670898438,-45.7305833717227,4.201035277035407,4,-630.7451751042979,3.4028234663852886E38,,,,,1,,3,,
Raw,282346874,17321000000,,,-1222628465679457307,0.0,13.691482827622906,,,0,12,0.0,32995,79264925574710,44,32.521949768066406,-911.8709437344005,0.11131686435393617,1,-11159.402328594104,0.001993326237425208,,,,,0,,3,,
Raw,282346875,17321000000,,,-1222628465679457307,0.0,13.691482827622906,,,0,11,0.0,32995,79264934266492,94,26.02395248413086,-442.8725183434201,0.2356601001730937,4,-6331.345021952361,3.4028234663852886E38,,,,,0,,3,,
Raw,282346875,17321000000,,,-1222628465679457307,0.0,13.691482827622906,,,0,1,0.0,32995,79264935862475,71,28.49178695678711,134.84978689612439,0.17829754516998508,1,1882.6869979920998,0.003167972667142749,,,,,0,,3,,
Raw,282346875,17321000000,,,-1222628465679457307,0.0,13.691482827622906,,,0,19,0.0,17,576410,167,11.75859260559082,-657.7432864616303,4.203701164181551,4,-5281.136730877221,3.4028234663852886E38,,,,,1,,3,,
Raw,282346876,17321000000,,,-1222628465679457307,0.0,13.691482827622906,,,0,17,0.0,99,923538787,61,29.722946166992188,530.8495974482071,0.15289491511262032,4,6988.472732753369,3.4028234663852886E38,,,,,0,,3,,
Raw,282346876,17321000000,,,-1222628465679457307,0.0,13.691482827622906,,,0,8,0.0,99,926279810,96,25.853515625,596.9353443161103,0.23884244969996427,4,7275.7349516294535,3.4028234663852886E38,,,,,0,,3,,
Raw,282347865,18321000000,,,-1222628465679457586,0.0,13.424730420521836,,,0,2,0.0,16431,327683918725060,12,37.86246109008789,537.1914564632325,0.06301748440348856,4,8148.7178624813,3.4028234663852886E38,,,,,0,,1,,
Raw,282347866,18321000000,,,-1222628465679457586,0.0,13.424730420521836,,,0,5,0.0,16431,327683932092290,18,34.25215530395508,11.922926240318368,0.09256516441035362,1,154.25081955326115,0.0017609945498406887,,,,,0,,1,,
Raw,282347866,18321000000,,,-1222628465679457586,0.0,13.424730420521836,,,0,7,0.0,16431,327683927378154,62,22.47661781311035,316.71109090838945,4.201327108069384,4,4775.311103099395,3.4028234663852886E38,,,,,0,,1,,
Raw,282347866,18321000000,,,-1222628465679457586,0.0,13.424730420521836,,,0,8,0.0,16,14663722,1000000000,7.0,-541.1761046202273,2.99792458E8,4,-8246.290189392328,3.4028234663852886E38,,,,,0,,1,,
Raw,282347867,18321000000,,,-1222628465679457586,0.0,13.424730420521836,,,0,9,0.0,17,15302,167,13.064352035522461,586.7796584161824,4.202880788802279,4,7737.7808519685605,3.4028234663852886E38,,,,,1,,1,,
Raw,282347867,18321000000,,,-1222628465679457586,0.0,13.424730420521836,,,0,13,0.0,16431,327683929096368,15,35.89814758300781,-534.4178261514062,0.07642230343861767,1,-8698.840768222555,0.0014569961931556463,,,,,0,,1,,
Raw,282347867,18321000000,,,-1222628465679457586,0.0,13.424730420521836,,,0,15,0.0,16431,327683918918399,166,24.784812927246094,-765.9605391145969,0.2722391299198489,4,-11686.30638190159,3.4028234663852886E38,,,,,1,,1,,
Raw,282347868,18321000000,,,-1222628465679457586,0.0,13.424730420521836,,,0,21,0.0,17,883738,167,10.672428131103516,-416.0980221482307,4.203037088817739,4,-5530.111625049321,3.4028234663852886E38,,,,,1,,1,,
Raw,282347868,18321000000,,,-1222628465679457586,0.0,13.424730420521836,,,0,27,0.0,16,17586869,1000000000,7.0,-309.966547669547,2.99792458E8,4,-1560.4081701717007,3.4028234663852886E38,,,,,0,,1,,
Raw,282347868,18321000000,,,-1222628465679457586,0.0,13.424730420521836,,,0,28,0.0,16431,327683921872842,25,31.46573829650879,-651.397133057083,0.1249149074525771,4,-9927.333866084497,3.4028234663852886E38,,,,,0,,1,,
Raw,282347869,18321000000,,,-1222628465679457586,0.0,13.424730420521836,,,0,30,0.0,16431,327683931772767,29,30.132213592529297,-54.06004178471005,0.14736816520479545,1,-915.1795853195578,0.0026679569855332375,,,,,0,,1,,
Raw,282347869,18321000000,,,-1222628465679457586,0.0,13.424730420521836,,,0,2,0.0,32995,79265931003706,42,32.87680435180664,-664.8979438998117,0.1078774319225908,4,-10143.732304326042,3.4028234663852886E38,,,,,0,,3,,
Raw,282347869,18321000000,,,-1222628465679457586,0.0,13.424730420521836,,,0,18,0.0,51,5754590,166,16.33854866027832,-45.80092530167872,4.201035543304599,4,-675.4467354284276,3.4028234663852886E38,,,,,1,,3,,
Raw,282347870,18321000000,,,-1222628465679457586,0.0,13.424730420521836,,,0,12,0.0,32995,79265925577759,56,30.436511993408203,-911.7295697047439,0.14125334314553184,1,-12071.269167769236,0.0025342549197375774,,,,,0,,3,,
Raw,282347870,18321000000,,,-1222628465679457586,0.0,13.424730420521836,,,0,11,0.0,32995,79265934268024,75,27.98470115661621,-443.0455890576429,0.18855812861674526,4,-6774.528443667423,3.4028234663852886E38,,,,,0,,3,,
Raw,282347870,18321000000,,,-1222628465679457586,0.0,13.424730420521836,,,0,1,0.0,32995,79265935861986,56,30.52017593383789,135.20256588297786,0.14175878863845703,1,2017.7604041262955,0.0025081990752369165,,,,,0,,3,,
Raw,282347871,18321000000,,,-1222628465679457586,0.0,13.424730420521836,,,0,19,0.0,16,20578789,1000000000,11.322885513305664,-657.0563886328696,2.99792458E8,4,-5937.541905182624,3.4028234663852886E38,,,,,1,,3,,
Raw,282347871,18321000000,,,-1222628465679457586,0.0,13.424730420521836,,,0,17,0.0,99,1923536864,70,28.542156219482422,531.2475782930239,0.17506600240996928,4,7519.551596018455,3.4028234663852886E38,,,,,0,,3,,
Raw,282347871,18321000000,,,-1222628465679457586,0.0,13.424730420521836,,,0,8,0.0,99,1926277752,33,35.88557815551758,597.3369038188621,0.07602368181699126,4,7873.097283580552,3.4028234663852886E38,,,,,0,,3,,
Raw,282348859,19321000000,,,-1222628465679457863,0.0,12.885327818915664,,,0,2,0.0,16431,327684918723237,16,35.39273452758789,537.1143960290344,0.08263472147750922,1,8686.005286170199,0.001544290455058217,,,,,0,,1,,
Raw,282348861,19321000000,,,-1222628465679457863,0.0,12.885327818915664,,,0,5,0.0,16431,327684932092258,19,33.7166633605957,12.185853221010056,0.09831315073273622,1,166.291502015571,0.0018729772418737411,,,,,0,,1,,
Raw,282348861,19321000000,,,-1222628465679457863,0.0,12.885327818915664,,,0,7,0.0,16431,327684927377221,47,25.935348510742188,316.3474651797476,0.23681074920087697,4,5091.458865794596,3.4028234663852886E38,,,,,0,,1,,
Raw,282348862,19321000000,,,-1222628465679457863,0.0,12.885327818915664,,,0,8,0.0,16,14665527,1000000000,7.0,-541.1761046202273,2.99792458E8,4,-8787.100967135504,3.4028234663852886E38,,,,,0,,1,,
Raw,282348862,19321000000,,,-1222628465679457863,0.0,12.885327818915664,,,0,9,0.0,17,13186,167,12.865900039672852,586.5316062976094,4.202880522533087,4,8325.568419456531,3.4028234663852886E38,,,,,1,,1,,
Raw,282348862,19321000000,,,-1222628465679457863,0.0,12.885327818915664,,,0,13,0.0,16431,327684929098075,19,33.634674072265625,-534.2917210622718,0.09868631036291736,1,-9233.017484750057,0.0017826076364144683,,,,,0,,1,,
Raw,282348863,19321000000,,,-1222628465679457863,0.0,12.885327818915664,,,0,15,0.0,16431,327684918920992,47,26.006004333496094,-766.0415871962082,0.23697941409192125,4,-12452.572884968527,3.4028234663852886E38,,,,,0,,1,,
Raw,282348863,19321000000,,,-1222628465679457863,0.0,12.885327818915664,,,0,21,0.0,17,885090,167,11.32335090637207,-415.80654898004764,4.203037355086931,4,-5946.139706324403,3.4028234663852886E38,,,,,1,,1,,
Raw,282348863,19321000000,,,-1222628465679457863,0.0,12.885327818915664,,,0,27,0.0,16,17587902,1000000000,7.0,-309.9663431748079,2.99792458E8,4,-1870.238922806959,3.4028234663852886E38,,,,,0,,1,,
Raw,282348864,19321000000,,,-1222628465679457863,0.0,12.885327818915664,,,0,28,0.0,16431,327684921874979,15,35.81874084472656,-651.0027990351141,0.07581020049263842,4,-10578.609444359417,3.4028234663852886E38,,,,,0,,1,,
Raw,282348864,19321000000,,,-1222628465679457863,0.0,12.885327818915664,,,0,30,0.0,16431,327684931772888,21,32.76825714111328,-53.71034299986482,0.10934747916659188,1,-969.1366532178092,0.001969593809917569,,,,,0,,1,,
Raw,282348864,19321000000,,,-1222628465679457863,0.0,12.885327818915664,,,0,2,0.0,32995,79266931005945,37,34.1204833984375,-664.7214649399366,0.0937504783585163,4,-10808.478585421479,3.4028234663852886E38,,,,,0,,3,,
Raw,282348865,19321000000,,,-1222628465679457863,0.0,12.885327818915664,,,0,18,0.0,51,5754578,65,21.931047439575195,-45.42558372860714,4.201035543304599,4,-721.2527249518781,3.4028234663852886E38,,,,,0,,3,,
Raw,282348865,19321000000,,,-1222628465679457863,0.0,12.885327818915664,,,0,12,0.0,32995,79266925580789,56,30.475309371948242,-911.462363245605,0.14062882539849497,1,-12982.816239344978,0.0025229600723832846,,,,,0,,3,,
Raw,282348865,19321000000,,,-1222628465679457863,0.0,12.885327818915664,,,0,11,0.0,32995,79266934269529,36,34.17378616333008,-442.673681292066,0.09377607348455735,4,-7217.456987153939,3.4028234663852886E38,,,,,0,,3,,
Raw,282348866,19321000000,,,-1222628465679457863,0.0,12.885327818915664,,,0,1,0.0,32995,79266935861500,46,32.23118591308594,135.483286036128,0.1169225547561536,1,2153.0399604379304,0.002059736056253314,,,,,0,,3,,
Raw,282348866,19321000000,,,-1222628465679457863,0.0,12.885327818915664,,,0,19,0.0,16,20580973,1000000000,10.831787109375,-657.1794263009169,2.99792458E8,4,-6593.586596848521,3.4028234663852886E38,,,,,1,,3,,
Raw,282348867,19321000000,,,-1222628465679457863,0.0,12.885327818915664,,,0,17,0.0,99,923534972,74,28.11350440979004,531.0808469157143,0.1838898139407642,4,8050.717216837515,3.4028234663852886E38,,,,,1,,3,,
Raw,282348867,19321000000,,,-1222628465679457863,0.0,12.885327818915664,,,0,8,0.0,99,926275817,33,38.027713775634766,597.7298745425701,0.0596541051099895,4,8470.48146795195,3.4028234663852886E38,,,,,0,,3,,
Raw,282349866,20321000000,,,-1222628465679458142,0.0,12.428568201892169,,,0,2,0.0,16431,327685918721418,22,32.64105987548828,537.1395488819483,0.11217919377270691,1,9223.375068444924,0.0021198869217187166,,,,,0,,1,,
Raw,282349867,20321000000,,,-1222628465679458142,0.0,12.428568201892169,,,0,5,0.0,16431,327685932092253,24,31.762922286987305,12.499977376782837,0.12256284351145252,1,178.61468547635369,0.0022112783044576645,,,,,0,,1,,
Raw,282349867,20321000000,,,-1222628465679458142,0.0,12.428568201892169,,,0,7,0.0,16431,327685927376164,50,25.47516632080078,316.7175665751288,0.249622990310591,4,5407.906795353285,3.4028234663852886E38,,,,,0,,1,,
Raw,282349868,20321000000,,,-1222628465679458142,0.0,12.428568201892169,,,0,8,0.0,16,14667329,1000000000,7.0,-540.8048103388678,2.99792458E8,4,-9327.777780718936,3.4028234663852886E38,,,,,0,,1,,
Raw,282349868,20321000000,,,-1222628465679458142,0.0,12.428568201892169,,,0,9,0.0,16,16011433,1000000000,12.00567626953125,586.9983996221458,2.99792458E8,4,8912.514093797203,3.4028234663852886E38,,,,,1,,1,,
Raw,282349868,20321000000,,,-1222628465679458142,0.0,12.428568201892169,,,0,13,0.0,16431,327685929099815,27,30.73481559753418,-533.934945907391,0.13715189893660962,1,-9767.08229700854,0.0024891362991183996,,,,,0,,1,,
Raw,282349868,20321000000,,,-1222628465679458142,0.0,12.428568201892169,,,0,15,0.0,16431,327685918923557,57,24.360946655273438,-766.1513327062116,0.28568447595802837,4,-13218.47761380025,3.4028234663852886E38,,,,,0,,1,,
Raw,282349869,20321000000,,,-1222628465679458142,0.0,12.428568201892169,,,0,21,0.0,17,886497,167,13.367107391357422,-415.508975052147,4.203037355086931,4,-6362.058481142756,3.4028234663852886E38,,,,,1,,1,,
Raw,282349869,20321000000,,,-1222628465679458142,0.0,12.428568201892169,,,0,27,0.0,16,17588933,1000000000,7.0,-309.59515114081796,2.99792458E8,4,-2179.636452673818,3.4028234663852886E38,,,,,0,,1,,
Raw,282349870,20321000000,,,-1222628465679458142,0.0,12.428568201892169,,,0,28,0.0,16431,327685921877167,12,37.85395812988281,-651.0888913202907,0.06004536688474227,4,-11229.52890947414,3.4028234663852886E38,,,,,0,,1,,
Raw,282349870,20321000000,,,-1222628465679458142,0.0,12.428568201892169,,,0,30,0.0,16431,327685931773107,19,33.89162063598633,-53.757508859385325,0.0963385899379805,1,-1022.7551316121579,0.001835628179833293,,,,,0,,1,,
Raw,282349870,20321000000,,,-1222628465679458142,0.0,12.428568201892169,,,0,2,0.0,32995,79267931008157,47,32.02336502075195,-664.6813839710658,0.11881171802862084,4,-11473.173601894325,3.4028234663852886E38,,,,,0,,3,,
Raw,282349871,20321000000,,,-1222628465679458142,0.0,12.428568201892169,,,0,18,0.0,99,1925754608,124,23.64923858642578,-45.27634517210788,0.30741943096138646,4,-766.6885021413932,3.4028234663852886E38,,,,,0,,3,,
Raw,282349871,20321000000,,,-1222628465679458142,0.0,12.428568201892169,,,0,12,0.0,32995,79267925583889,54,30.765727996826172,-911.6621546057418,0.1360381115500363,1,-13894.315079056794,0.0024399973917752504,,,,,0,,3,,
Raw,282349871,20321000000,,,-1222628465679458142,0.0,12.428568201892169,,,0,11,0.0,32995,79267934270969,33,39.32180404663086,-442.57658037343253,0.05299115543848093,4,-7660.021787861598,3.4028234663852886E38,,,,,0,,3,,
Raw,282349872,20321000000,,,-1222628465679458142,0.0,12.428568201892169,,,0,1,0.0,32995,79267935861014,41,33.218902587890625,135.69116345907474,0.10466137438024808,1,2288.6604330396754,0.0019498532637953758,,,,,0,,3,,
Raw,282349872,20321000000,,,-1222628465679458142,0.0,12.428568201892169,,,0,19,0.0,16,20583159,1000000000,12.327825546264648,-656.5675780414194,2.99792458E8,4,-7250.527217182402,3.4028234663852886E38,,,,,1,,3,,
Raw,282349872,20321000000,,,-1222628465679458142,0.0,12.428568201892169,,,0,17,0.0,99,1923533100,103,25.25339126586914,531.7278001054303,0.25535311995531296,4,8582.2701244355,3.4028234663852886E38,,,,,1,,3,,
Raw,282349873,20321000000,,,-1222628465679458142,0.0,12.428568201892169,,,0,8,0.0,99,1926273769,33,40.311607360839844,597.605678071001,0.046121876266687234,4,9068.227384273994,3.4028234663852886E38,,,,,0,,3,,
Raw,282350857,21321000000,,,-1222628465679458420,0.0,12.606546025046331,,,0,2,0.0,16431,327686918719698,26,30.949935913085938,537.2118377722331,0.13556726441019262,4,9760.876421416302,3.4028234663852886E38,,,,,0,,1,,
Raw,282350859,21321000000,,,-1222628465679458420,0.0,12.606546025046331,,,0,5,0.0,16431,327686932092153,29,30.051416397094727,12.516126070714051,0.14878306976340183,1,191.18892008159426,0.0026928898878395557,,,,,0,,1,,
Raw,282350860,21321000000,,,-1222628465679458420,0.0,12.606546025046331,,,0,7,0.0,16431,327686927375000,43,26.72087860107422,316.62261285125624,0.2164483785964878,4,5724.4906734799515,3.4028234663852886E38,,,,,0,,1,,
Raw,282350860,21321000000,,,-1222628465679458420,0.0,12.606546025046331,,,0,8,0.0,16,14669135,1000000000,7.0,-540.6191631981881,2.99792458E8,4,-9868.358006874068,3.4028234663852886E38,,,,,0,,1,,
Raw,282350860,21321000000,,,-1222628465679458420,0.0,12.606546025046331,,,0,9,0.0,16,16009474,1000000000,11.145477294921875,587.5304267684669,2.99792458E8,4,9500.112734819666,3.4028234663852886E38,,,,,1,,1,,
Raw,282350861,21321000000,,,-1222628465679458420,0.0,12.606546025046331,,,0,13,0.0,16431,327686929101737,46,26.169387817382812,-533.1218407421263,0.2308605813529594,4,-10300.932473220326,3.4028234663852886E38,,,,,0,,1,,
Raw,282350861,21321000000,,,-1222628465679458420,0.0,12.606546025046331,,,0,15,0.0,16431,327686918926310,66,21.711172103881836,-766.8687684160168,4.203404274032934,4,-13984.341507245876,3.4028234663852886E38,,,,,0,,1,,
Raw,282350862,21321000000,,,-1222628465679458420,0.0,12.606546025046331,,,0,21,0.0,17,887878,167,13.809412002563477,-415.7693309375247,4.203037621356122,4,-6778.091014788273,3.4028234663852886E38,,,,,1,,1,,
Raw,282350862,21321000000,,,-1222628465679458420,0.0,12.606546025046331,,,0,27,0.0,16,17589963,1000000000,7.0,-309.4094699176817,2.99792458E8,4,-2488.9782508822427,3.4028234663852886E38,,,,,0,,1,,
Raw,282350862,21321000000,,,-1222628465679458420,0.0,12.606546025046331,,,0,28,0.0,16431,327686921879316,17,34.56901550292969,-650.5444581597953,0.08749008193966612,1,-11880.360116448568,0.0016979111824184656,,,,,0,,1,,
Raw,282350862,21321000000,,,-1222628465679458420,0.0,12.606546025046331,,,0,30,0.0,16431,327686931773284,28,30.43970489501953,-52.637908683225135,0.1423161566237412,4,-1076.1984257403974,3.4028234663852886E38,,,,,0,,1,,
Raw,282350863,21321000000,,,-1222628465679458420,0.0,12.606546025046331,,,0,2,0.0,32995,79268931010343,78,27.63243865966797,-665.1152536426011,0.19567021200761503,4,-12137.505859069159,3.4028234663852886E38,,,,,0,,3,,
Raw,282350863,21321000000,,,-1222628465679458420,0.0,12.606546025046331,,,0,18,0.0,99,925754952,108,24.787818908691406,-45.236996976052296,0.2697784364694701,4,-811.8122962126353,3.4028234663852886E38,,,,,0,,3,,
Raw,282350863,21321000000,,,-1222628465679458420,0.0,12.606546025046331,,,0,12,0.0,32995,79268925586907,33,35.45534896850586,-910.9315630677188,0.07970251521430777,1,-14805.535497184926,0.001508289366029203,,,,,0,,3,,
Raw,282350864,21321000000,,,-1222628465679458420,0.0,12.606546025046331,,,0,11,0.0,32995,79268934272478,33,39.48891067504883,-442.143937670332,0.05203059349029612,4,-8102.348253724395,3.4028234663852886E38,,,,,0,,3,,
Raw,282350864,21321000000,,,-1222628465679458420,0.0,12.606546025046331,,,0,1,0.0,32995,79268935860612,46,32.24872589111328,135.95261850367535,0.11669228183090646,1,2424.5116055060303,0.0021802724804729223,,,,,0,,3,,
Raw,282350864,21321000000,,,-1222628465679458420,0.0,12.606546025046331,,,0,19,0.0,17,585242,167,12.180305480957031,-656.1838095809726,4.2037027617967,4,-7906.126546147585,3.4028234663852886E38,,,,,1,,3,,
Raw,282350865,21321000000,,,-1222628465679458420,0.0,12.606546025046331,,,0,17,0.0,99,923531628,122,23.725231170654297,532.1153517185512,0.3043507450956735,4,9114.047866334451,3.4028234663852886E38,,,,,0,,3,,
Raw,282350865,21321000000,,,-1222628465679458420,0.0,12.606546025046331,,,0,8,0.0,99,926271739,33,36.39175796508789,597.9808577524041,0.07178280408171339,1,9666.063118961352,0.0012735658092424273,,,,,0,,3,,
Raw,282351866,22321000000,,,-1222628465679458702,0.0,12.093125181057452,,,0,2,0.0,16431,327687918717895,19,33.769710540771484,537.0335524421623,0.09891958713748206,4,10298.09627960841,3.4028234663852886E38,,,,,0,,1,,
Raw,282351866,22321000000,,,-1222628465679458702,0.0,12.093125181057452,,,0,5,0.0,16431,327687932092123,27,30.811389923095703,12.278099519742575,0.13650070434494088,1,203.69795683415316,0.002467288402840495,,,,,0,,1,,
Raw,282351867,22321000000,,,-1222628465679458702,0.0,12.093125181057452,,,0,7,0.0,16431,327687927374020,21,32.94297790527344,316.58873488947256,0.10642075638455462,4,6041.145391417557,3.4028234663852886E38,,,,,0,,1,,
Raw,282351867,22321000000,,,-1222628465679458702,0.0,12.093125181057452,,,0,8,0.0,16,14670939,1000000000,7.0,-540.6191631981881,2.99792458E8,4,-10409.292211062715,3.4028234663852886E38,,,,,0,,1,,
Raw,282351867,22321000000,,,-1222628465679458702,0.0,12.093125181057452,,,0,9,0.0,16,16007516,1000000000,10.326648712158203,587.2079385648481,2.99792458E8,4,10085.306710831037,3.4028234663852886E38,,,,,1,,1,,
Raw,282351868,22321000000,,,-1222628465679458702,0.0,12.093125181057452,,,0,13,0.0,16431,327687929103543,19,33.63897705078125,-534.276418039293,0.0986392223205681,4,-10834.992649595655,3.4028234663852886E38,,,,,0,,1,,
Raw,282351868,22321000000,,,-1222628465679458702,0.0,12.093125181057452,,,0,15,0.0,16431,327687918928793,76,19.854991912841797,-766.4680950571346,4.203404806571317,4,-14750.30848047679,3.4028234663852886E38,,,,,0,,1,,
Raw,282351868,22321000000,,,-1222628465679458702,0.0,12.093125181057452,,,0,21,0.0,17,889261,167,13.187410354614258,-415.64295318873815,4.203037887625314,4,-7193.738074034549,3.4028234663852886E38,,,,,1,,1,,
Raw,282351869,22321000000,,,-1222628465679458702,0.0,12.093125181057452,,,0,27,0.0,16,17590995,1000000000,7.0,-309.2240613541976,2.99792458E8,4,-2798.3726832394636,3.4028234663852886E38,,,,,0,,1,,
Raw,282351869,22321000000,,,-1222628465679458702,0.0,12.093125181057452,,,0,28,0.0,16431,327687921881484,25,31.228713989257812,-650.8441111175439,0.12836280225166752,1,-12531.161706118743,0.0023515475913882256,,,,,0,,1,,
Raw,282351869,22321000000,,,-1222628465679458702,0.0,12.093125181057452,,,0,30,0.0,16431,327687931773452,32,29.3411865234375,-53.19963443009877,0.1612173417556617,4,-1129.545377421538,3.4028234663852886E38,,,,,0,,1,,
Raw,282351870,22321000000,,,-1222628465679458702,0.0,12.093125181057452,,,0,2,0.0,32995,79269931012520,105,25.02422332763672,-665.2984127639547,0.26350837947151273,4,-12803.04795239971,3.4028234663852886E38,,,,,0,,3,,
Raw,282351870,22321000000,,,-1222628465679458702,0.0,12.093125181057452,,,0,18,0.0,99,1925755026,101,25.37171745300293,-44.41602728394497,0.2523063513724323,4,-856.8541882878824,3.4028234663852886E38,,,,,0,,3,,
Raw,282351870,22321000000,,,-1222628465679458702,0.0,12.093125181057452,,,0,12,0.0,32995,79269925589938,33,37.690242767333984,-911.7475652417879,0.06184933233681472,1,-15716.906082177731,0.0011661109747365117,,,,,0,,3,,
Raw,282351871,22321000000,,,-1222628465679458702,0.0,12.093125181057452,,,0,11,0.0,32995,79269934273925,33,38.00196075439453,-442.45616705453745,0.061266531483278125,1,-8544.598619973382,0.0011246089125052094,,,,,0,,3,,
Raw,282351871,22321000000,,,-1222628465679458702,0.0,12.093125181057452,,,0,1,0.0,32995,79269935860131,56,30.42792320251465,135.72196547915723,0.14324160848274192,1,2560.3888673966294,0.002688752952963114,,,,,0,,3,,
Raw,282351871,22321000000,,,-1222628465679458702,0.0,12.093125181057452,,,0,19,0.0,17,587671,167,11.709634780883789,-656.0522512987945,4.203703294335083,4,-8562.615860224498,3.4028234663852886E38,,,,,1,,3,,
Raw,282351871,22321000000,,,-1222628465679458702,0.0,12.093125181057452,,,0,17,0.0,99,1923529975,101,25.37670135498047,531.6327100517317,0.2517619307265889,4,9645.705049977583,3.4028234663852886E38,,,,,0,,3,,
Raw,282351872,22321000000,,,-1222628465679458702,0.0,12.093125181057452,,,0,8,0.0,99,1926269623,166,31.499807357788086,597.6303537695235,0.12521817141996733,4,10264.025708482213,3.4028234663852886E38,,,,,1,,3,,
Raw,282352858,23321000000,,,-1222628465679458982,0.0,11.650223296708619,,,0,2,0.0,16431,327688918716046,23,32.020267486572266,536.7188350386307,0.12023978627038617,4,10835.025261283548,3.4028234663852886E38,,,,,0,,1,,
Raw,282352859,23321000000,,,-1222628465679458982,0.0,11.650223296708619,,,0,5,0.0,16431,327688932092087,24,31.641769409179688,12.43945438953569,0.12425377769169738,1,216.0188837148379,0.002242337679490447,,,,,0,,1,,
Raw,282352860,23321000000,,,-1222628465679458982,0.0,11.650223296708619,,,0,7,0.0,16431,327688927372954,18,34.21346664428711,315.98360087391006,0.09211977094104296,1,6357.396368923528,0.0017688557272776961,,,,,0,,1,,
Raw,282352860,23321000000,,,-1222628465679458982,0.0,11.650223296708619,,,0,8,0.0,16,14672747,1000000000,7.0,-540.9904574795476,2.99792458E8,4,-10949.996739134574,3.4028234663852886E38,,,,,0,,1,,
Raw,282352860,23321000000,,,-1222628465679458982,0.0,11.650223296708619,,,0,9,0.0,17,5048,167,10.15416145324707,586.4851178269123,4.202878924917938,4,10672.428940605203,3.4028234663852886E38,,,,,1,,1,,
Raw,282352861,23321000000,,,-1222628465679458982,0.0,11.650223296708619,,,0,13,0.0,16431,327688929105249,9,39.67017364501953,-534.5028618804306,0.05007954343306609,4,-11369.32372878505,3.4028234663852886E38,,,,,0,,1,,
Raw,282352862,23321000000,,,-1222628465679458982,0.0,11.650223296708619,,,0,15,0.0,16431,327688918931224,75,19.905029296875,-766.1386540323851,4.2034053391097,4,-15516.608668906454,3.4028234663852886E38,,,,,0,,1,,
Raw,282352862,23321000000,,,-1222628465679458982,0.0,11.650223296708619,,,0,21,0.0,17,890672,167,13.103963851928711,-415.57230025636636,4.203038153894505,4,-7609.5514587190555,3.4028234663852886E38,,,,,1,,1,,
Raw,282352862,23321000000,,,-1222628465679458982,0.0,11.650223296708619,,,0,27,0.0,16,17592029,1000000000,7.0,-309.48220187990137,2.99792458E8,4,-3107.721971581518,3.4028234663852886E38,,,,,0,,1,,
Raw,282352862,23321000000,,,-1222628465679458982,0.0,11.650223296708619,,,0,28,0.0,16431,327688921883573,30,29.680587768554688,-651.4169690467793,0.15334146518873193,1,-13182.416733832479,0.002810347592458129,,,,,0,,1,,
Raw,282352863,23321000000,,,-1222628465679458982,0.0,11.650223296708619,,,0,30,0.0,16431,327688931773631,41,27.097240447998047,-54.01050293415415,0.20811738141384228,4,-1183.7014644892822,3.4028234663852886E38,,,,,0,,1,,
Raw,282352863,23321000000,,,-1222628465679458982,0.0,11.650223296708619,,,0,2,0.0,32995,79270931014852,61,29.713253021240234,-664.8409580325056,0.1544097205435443,4,-13467.992894361889,3.4028234663852886E38,,,,,0,,3,,
Raw,282352863,23321000000,,,-1222628465679458982,0.0,11.650223296708619,,,0,18,0.0,99,925755095,64,22.145061492919922,-45.47380188397278,4.201035543304599,4,-902.1810018830461,3.4028234663852886E38,,,,,0,,3,,
Raw,282352864,23321000000,,,-1222628465679458982,0.0,11.650223296708619,,,0,12,0.0,32995,79270925592938,38,33.75965118408203,-911.9118426822279,0.09666947101308537,1,-16628.60069592518,0.001833452028222382,,,,,0,,3,,
Raw,282352864,23321000000,,,-1222628465679458982,0.0,11.650223296708619,,,0,11,0.0,32995,79270934275390,33,36.93061828613281,-442.6743629411965,0.06897233692499558,1,-8987.149355112866,0.001272238907404244,,,,,0,,3,,
Raw,282352864,23321000000,,,-1222628465679458982,0.0,11.650223296708619,,,0,1,0.0,32995,79270935859664,58,30.145843505859375,135.410076919517,0.14787559107483306,1,2695.9537426776137,0.0026186571922153234,,,,,0,,3,,
Raw,282352865,23321000000,,,-1222628465679458982,0.0,11.650223296708619,,,0,19,0.0,17,589969,167,11.962093353271484,-656.2395003149309,4.2037038268734666,4,-9218.770990637162,3.4028234663852886E38,,,,,1,,3,,
Raw,282352865,23321000000,,,-1222628465679458982,0.0,11.650223296708619,,,0,17,0.0,99,923528349,91,26.290781021118164,531.3140050007869,0.22667681003836415,4,10177.10393214409,3.4028234663852886E38,,,,,0,,3,,
Raw,282352865,23321000000,,,-1222628465679458982,0.0,11.650223296708619,,,0,8,0.0,99,926267316,166,27.059539794921875,598.2716492714567,0.20802307219454796,4,10861.039791465588,3.4028234663852886E38,,,,,1,,3,,
Raw,282353870,24321000000,,,-1222628465679459264,0.0,11.201135734038784,,,0,2,0.0,16431,327689918714346,41,27.202045440673828,536.4713623218186,0.20689517254082068,4,11371.589417454968,3.4028234663852886E38,,,,,0,,1,,
Raw,282353870,24321000000,,,-1222628465679459264,0.0,11.201135734038784,,,0,5,0.0,16431,327689932091982,22,32.45564270019531,11.823764398142018,0.11333444426495726,1,227.8398925685552,0.002165626734495163,,,,,0,,1,,
Raw,282353871,24321000000,,,-1222628465679459264,0.0,11.201135734038784,,,0,7,0.0,16431,327689927371925,22,32.25965118408203,315.8057245333175,0.11502219153581533,1,6673.3602256909535,0.002088367473334074,,,,,0,,1,,
Raw,282353871,24321000000,,,-1222628465679459264,0.0,11.201135734038784,,,0,8,0.0,16,14674555,1000000000,7.0,-540.6191631981881,2.99792458E8,4,-11491.071644723852,3.4028234663852886E38,,,,,0,,1,,
Raw,282353871,24321000000,,,-1222628465679459264,0.0,11.201135734038784,,,0,9,0.0,17,3166,167,10.08889389038086,587.0538176964519,4.202878658648746,4,11259.406994712695,3.4028234663852886E38,,,,,1,,1,,
Raw,282353871,24321000000,,,-1222628465679459264,0.0,11.201135734038784,,,0,13,0.0,16431,327689929107061,10,39.134727478027344,-534.9982163035331,0.05316006163598008,4,-11904.184734322835,3.4028234663852886E38,,,,,0,,1,,
Raw,282353872,24321000000,,,-1222628465679459264,0.0,11.201135734038784,,,0,15,0.0,16431,327689918934022,46,26.150476455688477,-767.0933036395891,0.2331287788196471,4,-16283.528253003837,3.4028234663852886E38,,,,,0,,1,,
Raw,282353872,24321000000,,,-1222628465679459264,0.0,11.201135734038784,,,0,21,0.0,17,892041,167,12.243757247924805,-415.61159732873716,4.203038420163697,4,-8024.927234753258,3.4028234663852886E38,,,,,1,,1,,
Raw,282353872,24321000000,,,-1222628465679459264,0.0,11.201135734038784,,,0,27,0.0,16,17593065,1000000000,7.0,-309.2965206567651,2.99792458E8,4,-3417.3496245862075,3.4028234663852886E38,,,,,0,,1,,
Raw,282353872,24321000000,,,-1222628465679459264,0.0,11.201135734038784,,,0,28,0.0,16431,327689921885773,25,31.399940490722656,-651.6644076811349,0.12586452324071412,4,-13833.973721592734,3.4028234663852886E38,,,,,0,,1,,
Raw,282353872,24321000000,,,-1222628465679459264,0.0,11.201135734038784,,,0,30,0.0,16431,327689931773751,37,27.947023391723633,-54.719213535089466,0.1889179581455227,4,-1238.4057668707983,3.4028234663852886E38,,,,,0,,1,,
Raw,282353873,24321000000,,,-1222628465679459264,0.0,11.201135734038784,,,0,2,0.0,32995,79271931017082,34,34.71608352661133,-665.5499412930931,0.08767059580973591,4,-14133.42540160397,3.4028234663852886E38,,,,,0,,3,,
Raw,282353873,24321000000,,,-1222628465679459264,0.0,11.201135734038784,,,0,18,0.0,99,1925755384,85,18.01494026184082,-45.79779823629275,4.201035543304599,4,-947.9484029970928,3.4028234663852886E38,,,,,0,,3,,
Raw,282353873,24321000000,,,-1222628465679459264,0.0,11.201135734038784,,,0,12,0.0,32995,79271925595990,50,31.43287467956543,-912.3674569610248,0.12605691937345836,1,-17540.649084099903,0.002259603003039956,,,,,0,,3,,
Raw,282353873,24321000000,,,-1222628465679459264,0.0,11.201135734038784,,,0,11,0.0,32995,79271934276890,33,36.99038314819336,-442.94593195477023,0.06851727871612162,1,-9429.966545274141,0.001263515092432499,,,,,0,,3,,
Raw,282353874,24321000000,,,-1222628465679459264,0.0,11.201135734038784,,,0,1,0.0,32995,79271935859249,53,30.988452911376953,135.14339021784014,0.13446785555996488,1,2831.178658875825,0.0023765568621456623,,,,,0,,3,,
Raw,282353874,24321000000,,,-1222628465679459264,0.0,11.201135734038784,,,0,19,0.0,17,592130,167,11.499658584594727,-655.6548498557386,4.203704093142658,4,-9875.030010642526,3.4028234663852886E38,,,,,1,,3,,
Raw,282353874,24321000000,,,-1222628465679459264,0.0,11.201135734038784,,,0,17,0.0,99,1923526574,60,29.83083724975586,530.7928842405531,0.1510131740938685,4,10707.982797861798,3.4028234663852886E38,,,,,0,,3,,
Raw,282353874,24321000000,,,-1222628465679459264,0.0,11.201135734038784,,,0,8,0.0,99,1926265399,73,28.14141845703125,596.5350117817934,0.18379295852232536,4,11459.087874219564,3.4028234663852886E38,,,,,1,,3,,
Raw,282354856,25321000000,,,-1222628465679459546,0.0,10.983585634261457,,,0,2,0.0,16431,327690918712516,40,27.41386604309082,535.8331342409724,0.2019914592576545,4,11907.57770270598,3.4028234663852886E38,,,,,0,,1,,
Raw,282354856,25321000000,,,-1222628465679459546,0.0,10.983585634261457,,,0,5,0.0,16431,327690932091956,36,28.287813186645508,11.089615503719486,0.18178803471881677,4,239.30275786552963,3.4028234663852886E38,,,,,0,,1,,
Raw,282354858,25321000000,,,-1222628465679459546,0.0,10.983585634261457,,,0,7,0.0,16431,327690927370798,38,27.776559829711914,315.15195485229697,0.19182819720041844,1,6988.785204625929,0.003499140962958336,,,,,0,,1,,
Raw,282354858,25321000000,,,-1222628465679459546,0.0,10.983585634261457,,,0,8,0.0,16,14676362,1000000000,7.0,-541.1761046202273,2.99792458E8,4,-12032.550749171096,3.4028234663852886E38,,,,,0,,1,,
Raw,282354859,25321000000,,,-1222628465679459546,0.0,10.983585634261457,,,0,9,0.0,17,1312,167,12.505081176757812,586.0252091585935,4.202878392379555,4,11845.01594126365,3.4028234663852886E38,,,,,1,,1,,
Raw,282354859,25321000000,,,-1222628465679459546,0.0,10.983585634261457,,,0,13,0.0,16431,327690929108864,14,36.1893310546875,-535.363409825175,0.07395902218453315,4,-12439.357285710295,3.4028234663852886E38,,,,,0,,1,,
Raw,282354860,25321000000,,,-1222628465679459546,0.0,10.983585634261457,,,0,15,0.0,16431,327690918936591,55,24.623104095458984,-767.4654840648182,0.27729433373120216,4,-17050.670468693093,3.4028234663852886E38,,,,,0,,1,,
Raw,282354860,25321000000,,,-1222628465679459546,0.0,10.983585634261457,,,0,21,0.0,16,16893561,1000000000,11.493459701538086,-416.236635498909,2.99792458E8,4,-8441.919477267822,3.4028234663852886E38,,,,,1,,1,,
Raw,282354860,25321000000,,,-1222628465679459546,0.0,10.983585634261457,,,0,27,0.0,16,17594100,1000000000,7.0,-309.6678490205811,2.99792458E8,4,-3727.2810834690054,3.4028234663852886E38,,,,,0,,1,,
Raw,282354861,25321000000,,,-1222628465679459546,0.0,10.983585634261457,,,0,28,0.0,16431,327690921887999,27,30.623249053955078,-652.3710051697658,0.13760652029759113,4,-14486.081461026346,3.4028234663852886E38,,,,,0,,1,,
Raw,282354861,25321000000,,,-1222628465679459546,0.0,10.983585634261457,,,0,30,0.0,16431,327690931773937,40,27.354557037353516,-54.62497980311096,0.20210427418576393,4,-1292.838475396128,3.4028234663852886E38,,,,,0,,1,,
Raw,282354862,25321000000,,,-1222628465679459546,0.0,10.983585634261457,,,0,2,0.0,32995,79272931019283,33,35.58006286621094,-665.9265524376701,0.07955775630412043,4,-14799.130414656249,3.4028234663852886E38,,,,,0,,3,,
Raw,282354862,25321000000,,,-1222628465679459546,0.0,10.983585634261457,,,0,18,0.0,99,925755512,87,17.52458381652832,-45.825579698665905,4.201035543304599,4,-994.5316244401181,3.4028234663852886E38,,,,,0,,3,,
Raw,282354862,25321000000,,,-1222628465679459546,0.0,10.983585634261457,,,0,12,0.0,32995,79272925599011,59,30.027095794677734,-912.8896001949543,0.1480262162281475,1,-18453.259274802647,0.0026565685402601957,,,,,0,,3,,
