# 
# Header Description:
# 
# Version: v2.0.0.1 Platform: 8.0.0 Manufacturer: Xiaomi Model: MIX 2
# 
# Raw,ElapsedRealtimeMillis,TimeNanos,LeapSecond,TimeUncertaintyNanos,FullBiasNanos,BiasNanos,BiasUncertaintyNanos,DriftNanosPerSecond,DriftUncertaintyNanosPerSecond,HardwareClockDiscontinuityCount,Svid,TimeOffsetNanos,State,ReceivedSvTimeNanos,ReceivedSvTimeUncertaintyNanos,Cn0DbHz,PseudorangeRateMetersPerSecond,PseudorangeRateUncertaintyMetersPerSecond,AccumulatedDeltaRangeState,AccumulatedDeltaRangeMeters,AccumulatedDeltaRangeUncertaintyMeters,CarrierFrequencyHz,CarrierCycles,CarrierPhase,CarrierPhaseUncertainty,MultipathIndicator,SnrInDb,ConstellationType,AgcDb,CarrierFrequencyHz
# 
# Fix,Provider,Latitude,Longitude,Altitude,Speed,Accuracy,(UTC)TimeInMs
# 
# Nav,Svid,Type,Status,MessageId,Sub-messageId,Data(Bytes)
# 
Raw,552872149,748153980000000,,,-1220393896466678784,0.0,80.42887202464044,22.607400903928763,15.40638221660505,209,14,0.0,207,61632382404899,134,21.4,-117.07957458496094,7.049500465393066,0,0.0,0.0,,,,,0,,3,,
Raw,552872150,748153980000000,,,-1220393896466678784,0.0,80.42887202464044,22.607400903928763,15.40638221660505,209,3,0.0,207,61632381407582,123,15.1,99.57821655273438,4.558000087738037,0,0.0,0.0,,,,,0,,3,,
Raw,552872151,748153980000000,,,-1220393896466678784,0.0,80.42887202464044,22.607400903928763,15.40638221660505,209,4,0.0,207,61632377866810,112,15.3,-536.8206176757812,3.832000255584717,0,0.0,0.0,,,,,0,,3,,
Raw,552872153,748153980000000,,,-1220393896466678784,0.0,80.42887202464044,22.607400903928763,15.40638221660505,209,10,0.0,15,50850376044792,35,22.8,481.88067626953125,0.750499963760376,0,0.0,0.0,,,,,0,,1,,
Raw,552872154,748153980000000,,,-1220393896466678784,0.0,80.42887202464044,22.607400903928763,15.40638221660505,209,14,0.0,15,50850375597873,70,17.7,-175.41270446777344,1.0989999771118164,0,0.0,0.0,,,,,0,,1,,
Raw,552872155,748153980000000,,,-1220393896466678784,0.0,80.42887202464044,22.607400903928763,15.40638221660505,209,18,0.0,15,50850367014295,100,20.1,263.347412109375,5.427000045776367,0,0.0,0.0,,,,,0,,1,,
Raw,552872157,748153980000000,,,-1220393896466678784,0.0,80.42887202464044,22.607400903928763,15.40638221660505,209,25,0.0,15,50850374248083,53,19.1,206.10707092285156,1.0175000429153442,0,0.0,0.0,,,,,0,,1,,
Raw,552872158,748153980000000,,,-1220393896466678784,0.0,80.42887202464044,22.607400903928763,15.40638221660505,209,26,0.0,15,50850368773777,90,16.4,-681.9935302734375,2.7685000896453857,0,0.0,0.0,,,,,0,,1,,
Raw,552872159,748153980000000,,,-1220393896466678784,0.0,80.42887202464044,22.607400903928763,15.40638221660505,209,31,0.0,15,50850378348660,126,13.8,-100.40846252441406,2.253499984741211,0,0.0,0.0,,,,,0,,1,,
Raw,552872161,748153980000000,,,-1220393896466678784,0.0,80.42887202464044,22.607400903928763,15.40638221660505,209,32,0.0,15,50850376767350,53,19.2,9.733521461486816,1.0205000638961792,0,0.0,0.0,,,,,0,,1,,
Raw,552872162,748153980000000,,,-1220393896466678784,0.0,80.42887202464044,22.607400903928763,15.40638221660505,209,5,0.0,783,50836317223963,2537,18.3,7.009441375732422,30.785001754760742,0,0.0,0.0,,,,,0,,5,,
Raw,552872163,748153980000000,,,-1220393896466678784,0.0,80.42887202464044,22.607400903928763,15.40638221660505,209,6,0.0,15,50836325400690,446,13.7,-43.813812255859375,12.709000587463379,0,0.0,0.0,,,,,0,,5,,
Raw,552872165,748153980000000,,,-1220393896466678784,0.0,80.42887202464044,22.607400903928763,15.40638221660505,209,9,0.0,15,50836325749251,582,15.4,-79.3027114868164,15.379000663757324,0,0.0,0.0,,,,,0,,5,,
Raw,552872166,748153980000000,,,-1220393896466678784,0.0,80.42887202464044,22.607400903928763,15.40638221660505,209,10,0.0,15,50836322523794,397,13.5,-183.36891174316406,11.759500503540039,0,0.0,0.0,,,,,0,,5,,
Raw,552872167,748153980000000,,,-1220393896466678784,0.0,80.42887202464044,22.607400903928763,15.40638221660505,209,16,0.0,15,50836325967083,180,13.4,-40.19386672973633,5.764000415802002,0,0.0,0.0,,,,,0,,5,,
Raw,552873104,748154980000000,,,-1220393896466678784,0.0,84.0068532852456,25.602528932877515,15.804637150460008,209,14,0.0,207,61633382405289,183,21.4,-117.07957458496094,8.549500465393066,0,0.0,0.0,,,,,0,,3,,
Raw,552873105,748154980000000,,,-1220393896466678784,0.0,84.0068532852456,25.602528932877515,15.804637150460008,209,3,0.0,207,61633381407190,84,16.7,100.75511932373047,2.2080001831054688,0,0.0,0.0,,,,,0,,3,,
Raw,552873106,748154980000000,,,-1220393896466678784,0.0,84.0068532852456,25.602528932877515,15.804637150460008,209,4,0.0,207,61633377868601,137,15.3,-536.8206176757812,5.332000255584717,0,0.0,0.0,,,,,0,,3,,
Raw,552873107,748154980000000,,,-1220393896466678784,0.0,84.0068532852456,25.602528932877515,15.804637150460008,209,10,0.0,15,50851376043281,46,20.4,481.4239807128906,0.9404999613761902,0,0.0,0.0,,,,,0,,1,,
Raw,552873108,748154980000000,,,-1220393896466678784,0.0,84.0068532852456,25.602528932877515,15.804637150460008,209,14,0.0,15,50851375598458,79,17.7,-175.41270446777344,2.5989999771118164,0,0.0,0.0,,,,,0,,1,,
Raw,552873109,748154980000000,,,-1220393896466678784,0.0,84.0068532852456,25.602528932877515,15.804637150460008,209,18,0.0,15,50851367013416,139,20.1,263.347412109375,6.927000045776367,0,0.0,0.0,,,,,0,,1,,
Raw,552873110,748154980000000,,,-1220393896466678784,0.0,84.0068532852456,25.602528932877515,15.804637150460008,209,25,0.0,15,50851374247447,46,20.5,205.8501739501953,0.8675000071525574,0,0.0,0.0,,,,,0,,1,,
Raw,552873111,748154980000000,,,-1220393896466678784,0.0,84.0068532852456,25.602528932877515,15.804637150460008,209,26,0.0,15,50851368775986,96,15.5,-681.76513671875,2.0185000896453857,0,0.0,0.0,,,,,0,,1,,
Raw,552873112,748154980000000,,,-1220393896466678784,0.0,84.0068532852456,25.602528932877515,15.804637150460008,209,31,0.0,15,50851378348990,70,17.5,-101.88323211669922,1.1034998893737793,0,0.0,0.0,,,,,0,,1,,
Raw,552873113,748154980000000,,,-1220393896466678784,0.0,84.0068532852456,25.602528932877515,15.804637150460008,209,32,0.0,15,50851376767348,61,18.2,8.87720012664795,1.1004999876022339,0,0.0,0.0,,,,,0,,1,,
Raw,552873114,748154980000000,,,-1220393896466678784,0.0,84.0068532852456,25.602528932877515,15.804637150460008,209,5,0.0,783,50837317223940,2745,18.3,7.009441375732422,32.28499984741211,0,0.0,0.0,,,,,0,,5,,
Raw,552873114,748154980000000,,,-1220393896466678784,0.0,84.0068532852456,25.602528932877515,15.804637150460008,209,6,0.0,15,50837325400837,531,13.7,-43.813812255859375,14.209000587463379,0,0.0,0.0,,,,,0,,5,,
Raw,552873115,748154980000000,,,-1220393896466678784,0.0,84.0068532852456,25.602528932877515,15.804637150460008,209,9,0.0,15,50837325749516,686,15.4,-79.3027114868164,16.87900161743164,0,0.0,0.0,,,,,0,,5,,
Raw,552873116,748154980000000,,,-1220393896466678784,0.0,84.0068532852456,25.602528932877515,15.804637150460008,209,10,0.0,15,50837322524405,476,13.5,-183.36891174316406,13.259500503540039,0,0.0,0.0,,,,,0,,5,,
Raw,552873117,748154980000000,,,-1220393896466678784,0.0,84.0068532852456,25.602528932877515,15.804637150460008,209,16,0.0,15,50837325967217,219,13.4,-40.19386672973633,7.264000415802002,0,0.0,0.0,,,,,0,,5,,
Raw,552874076,748155980000000,,,-1220393896466678784,0.0,84.88636376569048,22.703031586204983,15.822588182995593,209,14,0.0,207,61634382405866,152,14.4,-115.83204650878906,5.429500102996826,0,0.0,0.0,,,,,0,,3,,
Raw,552874076,748155980000000,,,-1220393896466678784,0.0,84.88636376569048,22.703031586204983,15.822588182995593,209,3,0.0,207,61634381406854,99,16.7,100.75511932373047,3.7080001831054688,0,0.0,0.0,,,,,0,,3,,
Raw,552874077,748155980000000,,,-1220393896466678784,0.0,84.88636376569048,22.703031586204983,15.822588182995593,209,4,0.0,207,61634377870608,117,14.1,-536.1389770507812,3.202000141143799,0,0.0,0.0,,,,,0,,3,,
Raw,552874077,748155980000000,,,-1220393896466678784,0.0,84.88636376569048,22.703031586204983,15.822588182995593,209,10,0.0,15,50852376041675,54,20.4,481.4239807128906,2.440500020980835,0,0.0,0.0,,,,,0,,1,,
Raw,552874078,748155980000000,,,-1220393896466678784,0.0,84.88636376569048,22.703031586204983,15.822588182995593,209,14,0.0,15,50852375599237,73,17.1,-177.58206176757812,1.9390000104904175,0,0.0,0.0,,,,,0,,1,,
Raw,552874078,748155980000000,,,-1220393896466678784,0.0,84.88636376569048,22.703031586204983,15.822588182995593,209,18,0.0,15,50852367012624,136,14.0,262.38641357421875,4.486999988555908,0,0.0,0.0,,,,,0,,1,,
Raw,552874079,748155980000000,,,-1220393896466678784,0.0,84.88636376569048,22.703031586204983,15.822588182995593,209,25,0.0,15,50852374246782,46,20.7,205.9072723388672,0.8675000071525574,0,0.0,0.0,,,,,0,,1,,
Raw,552874079,748155980000000,,,-1220393896466678784,0.0,84.88636376569048,22.703031586204983,15.822588182995593,209,26,0.0,15,50852368778260,110,15.5,-681.76513671875,3.5185000896453857,0,0.0,0.0,,,,,0,,1,,
Raw,552874080,748155980000000,,,-1220393896466678784,0.0,84.88636376569048,22.703031586204983,15.822588182995593,209,31,0.0,15,50852378349417,53,19.1,-101.50264739990234,1.0234999656677246,0,0.0,0.0,,,,,0,,1,,
Raw,552874080,748155980000000,,,-1220393896466678784,0.0,84.88636376569048,22.703031586204983,15.822588182995593,209,32,0.0,15,50852376767313,40,21.6,9.086523056030273,0.8104999661445618,0,0.0,0.0,,,,,0,,1,,
Raw,552874080,748155980000000,,,-1220393896466678784,0.0,84.88636376569048,22.703031586204983,15.822588182995593,209,5,0.0,783,50838317223916,2963,18.3,7.009441375732422,33.78499984741211,0,0.0,0.0,,,,,0,,5,,
Raw,552874081,748155980000000,,,-1220393896466678784,0.0,84.88636376569048,22.703031586204983,15.822588182995593,209,6,0.0,15,50838325400983,627,13.7,-43.813812255859375,15.709000587463379,0,0.0,0.0,,,,,0,,5,,
Raw,552874081,748155980000000,,,-1220393896466678784,0.0,84.88636376569048,22.703031586204983,15.822588182995593,209,9,0.0,15,50838325749806,261,11.8,-80.57017517089844,7.559000492095947,0,0.0,0.0,,,,,0,,5,,
Raw,552874081,748155980000000,,,-1220393896466678784,0.0,84.88636376569048,22.703031586204983,15.822588182995593,209,10,0.0,15,50838322525017,565,13.5,-183.36891174316406,14.759500503540039,0,0.0,0.0,,,,,0,,5,,
Raw,552874082,748155980000000,,,-1220393896466678784,0.0,84.88636376569048,22.703031586204983,15.822588182995593,209,16,0.0,15,50838325967281,139,13.2,-42.21988296508789,3.514000177383423,0,0.0,0.0,,,,,0,,5,,
Raw,552875069,748156980000000,,,-1220393896466678784,0.0,84.83204146614298,22.238591962040065,16.106866943765773,209,14,0.0,207,61635382406199,70,17.9,-116.6480941772461,1.3695000410079956,0,0.0,0.0,,,,,0,,3,,
Raw,552875069,748156980000000,,,-1220393896466678784,0.0,84.83204146614298,22.238591962040065,16.106866943765773,209,3,0.0,207,61635381406518,124,16.7,100.75511932373047,5.208000183105469,0,0.0,0.0,,,,,0,,3,,
Raw,552875070,748156980000000,,,-1220393896466678784,0.0,84.83204146614298,22.238591962040065,16.106866943765773,209,4,0.0,207,61635377872298,81,16.7,-537.3715209960938,1.4820001125335693,0,0.0,0.0,,,,,0,,3,,
Raw,552875070,748156980000000,,,-1220393896466678784,0.0,84.83204146614298,22.238591962040065,16.106866943765773,209,10,0.0,15,50853376039852,84,16.0,480.29168701171875,2.0304999351501465,0,0.0,0.0,,,,,0,,1,,
Raw,552875070,748156980000000,,,-1220393896466678784,0.0,84.83204146614298,22.238591962040065,16.106866943765773,209,14,0.0,15,50853375599706,70,17.2,-178.1909942626953,1.1890000104904175,0,0.0,0.0,,,,,0,,1,,
Raw,552875071,748156980000000,,,-1220393896466678784,0.0,84.83204146614298,22.238591962040065,16.106866943765773,209,18,0.0,15,50853367011626,61,18.1,262.3769226074219,1.0869998931884766,0,0.0,0.0,,,,,0,,1,,
Raw,552875071,748156980000000,,,-1220393896466678784,0.0,84.83204146614298,22.238591962040065,16.106866943765773,209,25,0.0,15,50853374246110,40,21.7,205.47911071777344,0.8075000047683716,0,0.0,0.0,,,,,0,,1,,
Raw,552875071,748156980000000,,,-1220393896466678784,0.0,84.83204146614298,22.238591962040065,16.106866943765773,209,26,0.0,15,50853368780534,135,15.5,-681.76513671875,5.018500328063965,0,0.0,0.0,,,,,0,,1,,
Raw,552875072,748156980000000,,,-1220393896466678784,0.0,84.83204146614298,22.238591962040065,16.106866943765773,209,31,0.0,15,50853378349738,53,19.8,-101.08399963378906,0.9434999823570251,0,0.0,0.0,,,,,0,,1,,
Raw,552875072,748156980000000,,,-1220393896466678784,0.0,84.83204146614298,22.238591962040065,16.106866943765773,209,32,0.0,15,50853376767352,40,21.1,9.333904266357422,0.8704999685287476,0,0.0,0.0,,,,,0,,1,,
Raw,552875072,748156980000000,,,-1220393896466678784,0.0,84.83204146614298,22.238591962040065,16.106866943765773,209,5,0.0,783,50839317223893,3190,18.3,7.009441375732422,35.28499984741211,0,0.0,0.0,,,,,0,,5,,
Raw,552875073,748156980000000,,,-1220393896466678784,0.0,84.83204146614298,22.238591962040065,16.106866943765773,209,6,0.0,15,50839325401134,197,12.4,-45.31171798706055,5.819000244140625,0,0.0,0.0,,,,,0,,5,,
Raw,552875073,748156980000000,,,-1220393896466678784,0.0,84.83204146614298,22.238591962040065,16.106866943765773,209,9,0.0,15,50839325750075,312,11.8,-80.57017517089844,9.059000015258789,0,0.0,0.0,,,,,0,,5,,
Raw,552875073,748156980000000,,,-1220393896466678784,0.0,84.83204146614298,22.238591962040065,16.106866943765773,209,10,0.0,15,50839322525629,665,13.5,-183.36891174316406,16.25950050354004,0,0.0,0.0,,,,,0,,5,,
Raw,552875074,748156980000000,,,-1220393896466678784,0.0,84.83204146614298,22.238591962040065,16.106866943765773,209,16,0.0,15,50839325967422,164,13.2,-42.21988296508789,5.014000415802002,0,0.0,0.0,,,,,0,,5,,
Raw,552876098,748157980000000,,,-1220393896466678784,0.0,83.5909231682308,21.446040992077894,15.040385380468871,209,14,0.0,207,61636382406557,61,18.6,-116.92948913574219,1.2795000076293945,0,0.0,0.0,,,,,0,,3,,
Raw,552876099,748157980000000,,,-1220393896466678784,0.0,83.5909231682308,21.446040992077894,15.040385380468871,209,3,0.0,207,61636381406181,159,16.7,100.75511932373047,6.708000183105469,0,0.0,0.0,,,,,0,,3,,
Raw,552876099,748157980000000,,,-1220393896466678784,0.0,83.5909231682308,21.446040992077894,15.040385380468871,209,4,0.0,207,61636377874090,91,16.7,-537.3715209960938,2.9820001125335693,0,0.0,0.0,,,,,0,,3,,
Raw,552876099,748157980000000,,,-1220393896466678784,0.0,83.5909231682308,21.446040992077894,15.040385380468871,209,10,0.0,15,50854376038250,98,16.0,480.29168701171875,3.5305001735687256,0,0.0,0.0,,,,,0,,1,,
Raw,552876100,748157980000000,,,-1220393896466678784,0.0,83.5909231682308,21.446040992077894,15.040385380468871,209,14,0.0,15,50854375600301,79,17.2,-178.1909942626953,2.689000129699707,0,0.0,0.0,,,,,0,,1,,
Raw,552876100,748157980000000,,,-1220393896466678784,0.0,83.5909231682308,21.446040992077894,15.040385380468871,209,18,0.0,15,50854367010779,70,17.9,261.73944091796875,1.0869998931884766,0,0.0,0.0,,,,,0,,1,,
Raw,552876100,748157980000000,,,-1220393896466678784,0.0,83.5909231682308,21.446040992077894,15.040385380468871,209,25,0.0,15,50854374245469,61,18.7,205.86920166015625,1.0175000429153442,0,0.0,0.0,,,,,0,,1,,
Raw,552876101,748157980000000,,,-1220393896466678784,0.0,83.5909231682308,21.446040992077894,15.040385380468871,209,26,0.0,15,50854368782809,169,15.5,-681.76513671875,6.518500328063965,0,0.0,0.0,,,,,0,,1,,
Raw,552876101,748157980000000,,,-1220393896466678784,0.0,83.5909231682308,21.446040992077894,15.040385380468871,209,31,0.0,15,50854378350075,61,19.8,-101.08399963378906,2.44350004196167,0,0.0,0.0,,,,,0,,1,,
Raw,552876101,748157980000000,,,-1220393896466678784,0.0,83.5909231682308,21.446040992077894,15.040385380468871,209,32,0.0,15,50854376767255,53,19.3,8.173112869262695,1.0205000638961792,0,0.0,0.0,,,,,0,,1,,
Raw,552876102,748157980000000,,,-1220393896466678784,0.0,83.5909231682308,21.446040992077894,15.040385380468871,209,5,0.0,783,50840317223869,3428,18.3,7.009441375732422,36.78499984741211,0,0.0,0.0,,,,,0,,5,,
Raw,552876102,748157980000000,,,-1220393896466678784,0.0,83.5909231682308,21.446040992077894,15.040385380468871,209,6,0.0,15,50840325401285,237,12.4,-45.31171798706055,7.319000244140625,0,0.0,0.0,,,,,0,,5,,
Raw,552876102,748157980000000,,,-1220393896466678784,0.0,83.5909231682308,21.446040992077894,15.040385380468871,209,9,0.0,15,50840325750343,373,11.8,-80.57017517089844,10.559000015258789,0,0.0,0.0,,,,,0,,5,,
Raw,552876103,748157980000000,,,-1220393896466678784,0.0,83.5909231682308,21.446040992077894,15.040385380468871,209,10,0.0,15,50840322526240,774,13.5,-183.36891174316406,17.75950050354004,0,0.0,0.0,,,,,0,,5,,
Raw,552876103,748157980000000,,,-1220393896466678784,0.0,83.5909231682308,21.446040992077894,15.040385380468871,209,16,0.0,15,50840325967563,198,13.2,-42.21988296508789,6.514000415802002,0,0.0,0.0,,,,,0,,5,,
Raw,552877089,748158980000000,,,-1220393896466678784,0.0,84.02360253967345,20.114222617901493,15.373775786782309,209,14,0.0,207,61637382406947,70,18.6,-116.92948913574219,2.7795000076293945,0,0.0,0.0,,,,,0,,3,,
Raw,552877089,748158980000000,,,-1220393896466678784,0.0,84.02360253967345,20.114222617901493,15.373775786782309,209,3,0.0,207,61637381405845,204,16.7,100.75511932373047,8.208000183105469,0,0.0,0.0,,,,,0,,3,,
Raw,552877089,748158980000000,,,-1220393896466678784,0.0,84.02360253967345,20.114222617901493,15.373775786782309,209,4,0.0,207,61637377875994,74,17.6,-536.3444213867188,2.1419999599456787,0,0.0,0.0,,,,,0,,3,,
Raw,552877089,748158980000000,,,-1220393896466678784,0.0,84.02360253967345,20.114222617901493,15.373775786782309,209,10,0.0,15,50855376036884,73,17.1,482.0329284667969,1.940500020980835,0,0.0,0.0,,,,,0,,1,,
Raw,552877090,748158980000000,,,-1220393896466678784,0.0,84.02360253967345,20.114222617901493,15.373775786782309,209,14,0.0,15,50855375600903,126,13.7,-176.75428771972656,2.249000072479248,0,0.0,0.0,,,,,0,,1,,
Raw,552877090,748158980000000,,,-1220393896466678784,0.0,84.02360253967345,20.114222617901493,15.373775786782309,209,18,0.0,15,50855367009977,61,18.7,262.92877197265625,1.0069999694824219,0,0.0,0.0,,,,,0,,1,,
Raw,552877090,748158980000000,,,-1220393896466678784,0.0,84.02360253967345,20.114222617901493,15.373775786782309,209,25,0.0,15,50855374244715,53,19.6,206.31640625,0.9375,0,0.0,0.0,,,,,0,,1,,
Raw,552877091,748158980000000,,,-1220393896466678784,0.0,84.02360253967345,20.114222617901493,15.373775786782309,209,26,0.0,15,50855368784933,159,12.6,-683.2018432617188,3.8585002422332764,0,0.0,0.0,,,,,0,,1,,
Raw,552877091,748158980000000,,,-1220393896466678784,0.0,84.02360253967345,20.114222617901493,15.373775786782309,209,31,0.0,15,50855378350437,126,13.8,-102.28284454345703,2.253499984741211,0,0.0,0.0,,,,,0,,1,,
Raw,552877091,748158980000000,,,-1220393896466678784,0.0,84.02360253967345,20.114222617901493,15.373775786782309,209,32,0.0,15,50855376767259,40,21.3,9.657403945922852,0.8704999685287476,0,0.0,0.0,,,,,0,,1,,
Raw,552877092,748158980000000,,,-1220393896466678784,0.0,84.02360253967345,20.114222617901493,15.373775786782309,209,6,0.0,15,50841325401436,286,12.4,-45.31171798706055,8.819000244140625,0,0.0,0.0,,,,,0,,5,,
Raw,552877092,748158980000000,,,-1220393896466678784,0.0,84.02360253967345,20.114222617901493,15.373775786782309,209,9,0.0,15,50841325750612,443,11.8,-80.57017517089844,12.059000968933105,0,0.0,0.0,,,,,0,,5,,
Raw,552877092,748158980000000,,,-1220393896466678784,0.0,84.02360253967345,20.114222617901493,15.373775786782309,209,10,0.0,15,50841322526852,893,13.5,-183.36891174316406,19.25950050354004,0,0.0,0.0,,,,,0,,5,,
Raw,552877093,748158980000000,,,-1220393896466678784,0.0,84.02360253967345,20.114222617901493,15.373775786782309,209,16,0.0,15,50841325967703,242,13.2,-42.21988296508789,8.013999938964844,0,0.0,0.0,,,,,0,,5,,
Raw,552878092,748159980000000,,,-1220393896466678784,0.0,78.67622480262071,22.736563720523176,14.981698578460593,209,14,0.0,207,61638382407337,89,18.6,-116.92948913574219,4.2795000076293945,0,0.0,0.0,,,,,0,,3,,
Raw,552878093,748159980000000,,,-1220393896466678784,0.0,78.67622480262071,22.736563720523176,14.981698578460593,209,3,0.0,207,61638381405416,193,11.9,100.9045639038086,5.068000316619873,0,0.0,0.0,,,,,0,,3,,
Raw,552878094,748159980000000,,,-1220393896466678784,0.0,78.67622480262071,22.736563720523176,14.981698578460593,209,4,0.0,207,61638377877783,88,17.6,-536.3444213867188,3.642000198364258,0,0.0,0.0,,,,,0,,3,,
Raw,552878094,748159980000000,,,-1220393896466678784,0.0,78.67622480262071,22.736563720523176,14.981698578460593,209,10,0.0,15,50856376035069,81,16.1,481.4334716796875,1.280500054359436,0,0.0,0.0,,,,,0,,1,,
Raw,552878095,748159980000000,,,-1220393896466678784,0.0,78.67622480262071,22.736563720523176,14.981698578460593,209,14,0.0,15,50856375601470,81,16.5,-176.3451385498047,1.1890000104904175,0,0.0,0.0,,,,,0,,1,,
Raw,552878095,748159980000000,,,-1220393896466678784,0.0,78.67622480262071,22.736563720523176,14.981698578460593,209,18,0.0,15,50856367009058,35,22.3,263.3188781738281,0.796999990940094,0,0.0,0.0,,,,,0,,1,,
Raw,552878096,748159980000000,,,-1220393896466678784,0.0,78.67622480262071,22.736563720523176,14.981698578460593,209,25,0.0,15,50856374244002,46,20.2,207.47720336914062,0.9375,0,0.0,0.0,,,,,0,,1,,
Raw,552878096,748159980000000,,,-1220393896466678784,0.0,78.67622480262071,22.736563720523176,14.981698578460593,209,26,0.0,15,50856368787212,184,12.6,-683.2018432617188,5.358500003814697,0,0.0,0.0,,,,,0,,1,,
Raw,552878096,748159980000000,,,-1220393896466678784,0.0,78.67622480262071,22.736563720523176,14.981698578460593,209,31,0.0,15,50856378350778,141,13.8,-102.28284454345703,3.75350022315979,0,0.0,0.0,,,,,0,,1,,
Raw,552878097,748159980000000,,,-1220393896466678784,0.0,78.67622480262071,22.736563720523176,14.981698578460593,209,32,0.0,15,50856376767257,40,21.0,9.92381477355957,0.8704999685287476,0,0.0,0.0,,,,,0,,1,,
Raw,552878097,748159980000000,,,-1220393896466678784,0.0,78.67622480262071,22.736563720523176,14.981698578460593,209,6,0.0,15,50842325401587,345,12.4,-45.31171798706055,10.319000244140625,0,0.0,0.0,,,,,0,,5,,
Raw,552878097,748159980000000,,,-1220393896466678784,0.0,78.67622480262071,22.736563720523176,14.981698578460593,209,9,0.0,15,50842325750881,524,11.8,-80.57017517089844,13.559000968933105,0,0.0,0.0,,,,,0,,5,,
Raw,552878098,748159980000000,,,-1220393896466678784,0.0,78.67622480262071,22.736563720523176,14.981698578460593,209,10,0.0,15,50842322527463,1023,13.5,-183.36891174316406,20.75950050354004,0,0.0,0.0,,,,,0,,5,,
Raw,552878098,748159980000000,,,-1220393896466678784,0.0,78.67622480262071,22.736563720523176,14.981698578460593,209,16,0.0,15,50842325967844,297,13.2,-42.21988296508789,9.513999938964844,0,0.0,0.0,,,,,0,,5,,
Raw,552879084,748160980000000,,,-1220393896466678784,0.0,76.10597094753757,24.440057221297568,14.699589338191789,209,14,0.0,207,61639382407727,119,18.6,-116.92948913574219,5.7795000076293945,0,0.0,0.0,,,,,0,,3,,
Raw,552879084,748160980000000,,,-1220393896466678784,0.0,76.10597094753757,24.440057221297568,14.699589338191789,209,3,0.0,207,61639381405198,61,18.2,101.39026641845703,1.277999997138977,0,0.0,0.0,,,,,0,,3,,
Raw,552879084,748160980000000,,,-1220393896466678784,0.0,76.10597094753757,24.440057221297568,14.699589338191789,209,4,0.0,207,61639377879572,113,17.6,-536.3444213867188,5.142000198364258,0,0.0,0.0,,,,,0,,3,,
Raw,552879084,748160980000000,,,-1220393896466678784,0.0,76.10597094753757,24.440057221297568,14.699589338191789,209,10,0.0,15,50857376033464,90,16.1,481.4334716796875,2.7805001735687256,0,0.0,0.0,,,,,0,,1,,
Raw,552879085,748160980000000,,,-1220393896466678784,0.0,76.10597094753757,24.440057221297568,14.699589338191789,209,14,0.0,15,50857375602035,81,16.9,-176.05970764160156,1.1890000104904175,0,0.0,0.0,,,,,0,,1,,
Raw,552879085,748160980000000,,,-1220393896466678784,0.0,76.10597094753757,24.440057221297568,14.699589338191789,209,18,0.0,15,50857367008124,31,23.7,263.8136291503906,0.6769999861717224,0,0.0,0.0,,,,,0,,1,,
Raw,552879085,748160980000000,,,-1220393896466678784,0.0,76.10597094753757,24.440057221297568,14.699589338191789,209,25,0.0,15,50857374243398,46,20.5,206.65892028808594,0.8675000071525574,0,0.0,0.0,,,,,0,,1,,
Raw,552879086,748160980000000,,,-1220393896466678784,0.0,76.10597094753757,24.440057221297568,14.699589338191789,209,26,0.0,15,50857368789498,96,15.5,-681.6318969726562,2.0185000896453857,0,0.0,0.0,,,,,0,,1,,
Raw,552879086,748160980000000,,,-1220393896466678784,0.0,76.10597094753757,24.440057221297568,14.699589338191789,209,31,0.0,15,50857378351119,166,13.8,-102.28284454345703,5.253499984741211,0,0.0,0.0,,,,,0,,1,,
Raw,552879086,748160980000000,,,-1220393896466678784,0.0,76.10597094753757,24.440057221297568,14.699589338191789,209,32,0.0,15,50857376767224,48,21.0,9.92381477355957,2.370500087738037,0,0.0,0.0,,,,,0,,1,,
Raw,552879087,748160980000000,,,-1220393896466678784,0.0,76.10597094753757,24.440057221297568,14.699589338191789,209,6,0.0,15,50843325401739,415,12.4,-45.31171798706055,11.819000244140625,0,0.0,0.0,,,,,0,,5,,
Raw,552879087,748160980000000,,,-1220393896466678784,0.0,76.10597094753757,24.440057221297568,14.699589338191789,209,9,0.0,15,50843325751150,614,11.8,-80.57017517089844,15.059000968933105,0,0.0,0.0,,,,,0,,5,,
Raw,552879087,748160980000000,,,-1220393896466678784,0.0,76.10597094753757,24.440057221297568,14.699589338191789,209,10,0.0,15,50843322528075,1162,13.5,-183.36891174316406,22.25950050354004,0,0.0,0.0,,,,,0,,5,,
Raw,552879088,748160980000000,,,-1220393896466678784,0.0,76.10597094753757,24.440057221297568,14.699589338191789,209,16,0.0,15,50843325967988,150,13.2,-41.50933837890625,4.263999938964844,0,0.0,0.0,,,,,0,,5,,
Raw,552880069,748161980000000,,,-1220393896466678528,0.0,74.59655171260238,24.13213959418468,15.456198479143989,209,14,0.0,207,61640382408117,158,18.6,-116.92948913574219,7.279500484466553,0,0.0,0.0,,,,,0,,3,,
Raw,552880069,748161980000000,,,-1220393896466678528,0.0,74.59655171260238,24.13213959418468,15.456198479143989,209,3,0.0,207,61640381404860,70,18.2,101.39026641845703,2.7780001163482666,0,0.0,0.0,,,,,0,,3,,
Raw,552880070,748161980000000,,,-1220393896466678528,0.0,74.59655171260238,24.13213959418468,15.456198479143989,209,4,0.0,207,61640377881363,171,11.9,-536.5685424804688,3.5920000076293945,0,0.0,0.0,,,,,0,,3,,
Raw,552880070,748161980000000,,,-1220393896466678528,0.0,74.59655171260238,24.13213959418468,15.456198479143989,209,10,0.0,15,50858376031958,49,20.1,481.00531005859375,1.690500020980835,0,0.0,0.0,,,,,0,,1,,
Raw,552880071,748161980000000,,,-1220393896466678528,0.0,74.59655171260238,24.13213959418468,15.456198479143989,209,14,0.0,15,50858375602730,81,16.2,-176.22145080566406,1.2790000438690186,0,0.0,0.0,,,,,0,,1,,
Raw,552880071,748161980000000,,,-1220393896466678528,0.0,74.59655171260238,24.13213959418468,15.456198479143989,209,18,0.0,15,50858367007449,70,17.1,261.958251953125,1.1769999265670776,0,0.0,0.0,,,,,0,,1,,
Raw,552880071,748161980000000,,,-1220393896466678528,0.0,74.59655171260238,24.13213959418468,15.456198479143989,209,25,0.0,15,50858374242709,54,20.5,206.65892028808594,2.367500066757202,0,0.0,0.0,,,,,0,,1,,
Raw,552880072,748161980000000,,,-1220393896466678528,0.0,74.59655171260238,24.13213959418468,15.456198479143989,209,26,0.0,15,50858368791812,53,19.3,-681.6129150390625,1.0084999799728394,0,0.0,0.0,,,,,0,,1,,
Raw,552880073,748161980000000,,,-1220393896466678528,0.0,74.59655171260238,24.13213959418468,15.456198479143989,209,31,0.0,15,50858378351460,201,13.8,-102.28284454345703,6.753500461578369,0,0.0,0.0,,,,,0,,1,,
Raw,552880076,748161980000000,,,-1220393896466678528,0.0,74.59655171260238,24.13213959418468,15.456198479143989,209,32,0.0,15,50858376767087,73,17.3,10.704018592834473,1.940500020980835,0,0.0,0.0,,,,,0,,1,,
Raw,552880077,748161980000000,,,-1220393896466678528,0.0,74.59655171260238,24.13213959418468,15.456198479143989,209,6,0.0,15,50844325401890,494,12.4,-45.31171798706055,13.319000244140625,0,0.0,0.0,,,,,0,,5,,
Raw,552880077,748161980000000,,,-1220393896466678528,0.0,74.59655171260238,24.13213959418468,15.456198479143989,209,9,0.0,15,50844325751418,715,11.8,-80.57017517089844,16.55900001525879,0,0.0,0.0,,,,,0,,5,,
Raw,552880077,748161980000000,,,-1220393896466678528,0.0,74.59655171260238,24.13213959418468,15.456198479143989,209,10,0.0,15,50844322528687,1312,13.5,-183.36891174316406,23.75950050354004,0,0.0,0.0,,,,,0,,5,,
Raw,552880078,748161980000000,,,-1220393896466678528,0.0,74.59655171260238,24.13213959418468,15.456198479143989,209,16,0.0,15,50844325968191,70,17.5,-41.528541564941406,0.9239999651908875,0,0.0,0.0,,,,,0,,5,,
Raw,552881083,748162980000000,,,-1220393896466678528,0.0,74.97975457226858,22.72815285218646,15.431711845625886,209,14,0.0,207,61641382408507,207,18.6,-116.92948913574219,8.779500007629395,0,0.0,0.0,,,,,0,,3,,
Raw,552881083,748162980000000,,,-1220393896466678528,0.0,74.97975457226858,22.72815285218646,15.431711845625886,209,3,0.0,207,61641381404522,89,18.2,101.39026641845703,4.278000354766846,0,0.0,0.0,,,,,0,,3,,
Raw,552881083,748162980000000,,,-1220393896466678528,0.0,74.97975457226858,22.72815285218646,15.431711845625886,209,4,0.0,207,61641377883141,81,16.1,-536.2977294921875,1.4820001125335693,0,0.0,0.0,,,,,0,,3,,
Raw,552881084,748162980000000,,,-1220393896466678528,0.0,74.97975457226858,22.72815285218646,15.431711845625886,209,10,0.0,15,50859376030372,21,26.2,481.2516784667969,0.13520000874996185,0,0.0,0.0,,,,,0,,1,,
Raw,552881084,748162980000000,,,-1220393896466678528,0.0,74.97975457226858,22.72815285218646,15.431711845625886,209,14,0.0,15,50859375603318,90,16.2,-176.22145080566406,2.7790000438690186,0,0.0,0.0,,,,,0,,1,,
Raw,552881084,748162980000000,,,-1220393896466678528,0.0,74.97975457226858,22.72815285218646,15.431711845625886,209,18,0.0,15,50859367006575,79,17.1,261.958251953125,2.677000045776367,0,0.0,0.0,,,,,0,,1,,
Raw,552881084,748162980000000,,,-1220393896466678528,0.0,74.97975457226858,22.72815285218646,15.431711845625886,209,25,0.0,15,50859374242013,84,16.0,206.63037109375,2.0275001525878906,0,0.0,0.0,,,,,0,,1,,
Raw,552881085,748162980000000,,,-1220393896466678528,0.0,74.97975457226858,22.72815285218646,15.431711845625886,209,26,0.0,15,50859368794060,53,19.1,-681.8698120117188,1.0084999799728394,0,0.0,0.0,,,,,0,,1,,
Raw,552881085,748162980000000,,,-1220393896466678528,0.0,74.97975457226858,22.72815285218646,15.431711845625886,209,31,0.0,15,50859378351767,141,13.2,-100.30380249023438,3.873500108718872,0,0.0,0.0,,,,,0,,1,,
Raw,552881085,748162980000000,,,-1220393896466678528,0.0,74.97975457226858,22.72815285218646,15.431711845625886,209,32,0.0,15,50859376767121,53,19.4,10.057021141052246,1.0205000638961792,0,0.0,0.0,,,,,0,,1,,
Raw,552881085,748162980000000,,,-1220393896466678528,0.0,74.97975457226858,22.72815285218646,15.431711845625886,209,6,0.0,15,50845325402041,583,12.4,-45.31171798706055,14.819000244140625,0,0.0,0.0,,,,,0,,5,,
Raw,552881086,748162980000000,,,-1220393896466678528,0.0,74.97975457226858,22.72815285218646,15.431711845625886,209,9,0.0,15,50845325751646,198,12.8,-81.78002166748047,5.86400032043457,0,0.0,0.0,,,,,0,,5,,
Raw,552881086,748162980000000,,,-1220393896466678528,0.0,74.97975457226858,22.72815285218646,15.431711845625886,209,10,0.0,15,50845322529298,1471,13.5,-183.36891174316406,25.25950050354004,0,0.0,0.0,,,,,0,,5,,
Raw,552881086,748162980000000,,,-1220393896466678528,0.0,74.97975457226858,22.72815285218646,15.431711845625886,209,16,0.0,15,50845325968329,78,17.5,-41.528541564941406,2.4240000247955322,0,0.0,0.0,,,,,0,,5,,
Raw,552882083,748163980000000,,,-1220393896466678528,0.0,75.86765423184261,21.825250589801268,16.239975933647518,209,14,0.0,207,61642382408787,152,14.6,-114.86592102050781,5.429500102996826,0,0.0,0.0,,,,,0,,3,,
Raw,552882084,748163980000000,,,-1220393896466678528,0.0,75.86765423184261,21.825250589801268,16.239975933647518,209,3,0.0,207,61642381404184,119,18.2,101.39026641845703,5.778000354766846,0,0.0,0.0,,,,,0,,3,,
Raw,552882084,748163980000000,,,-1220393896466678528,0.0,75.86765423184261,21.825250589801268,16.239975933647518,209,4,0.0,207,61642377884930,91,16.1,-536.2977294921875,2.9820001125335693,0,0.0,0.0,,,,,0,,3,,
Raw,552882085,748163980000000,,,-1220393896466678528,0.0,75.86765423184261,21.825250589801268,16.239975933647518,209,10,0.0,15,50860376028775,21,26.7,481.3633117675781,0.13520000874996185,0,0.0,0.0,,,,,0,,1,,
Raw,552882085,748163980000000,,,-1220393896466678528,0.0,75.86765423184261,21.825250589801268,16.239975933647518,209,14,0.0,15,50860375603906,109,16.2,-176.22145080566406,4.279000282287598,0,0.0,0.0,,,,,0,,1,,
Raw,552882086,748163980000000,,,-1220393896466678528,0.0,75.86765423184261,21.825250589801268,16.239975933647518,209,18,0.0,15,50860367005645,96,15.3,263.2046813964844,2.117000102996826,0,0.0,0.0,,,,,0,,1,,
Raw,552882087,748163980000000,,,-1220393896466678528,0.0,75.86765423184261,21.825250589801268,16.239975933647518,209,25,0.0,15,50860374241333,53,19.9,207.03001403808594,0.9375,0,0.0,0.0,,,,,0,,1,,
Raw,552882087,748163980000000,,,-1220393896466678528,0.0,75.86765423184261,21.825250589801268,16.239975933647518,209,26,0.0,15,50860368796334,61,19.1,-681.8698120117188,2.508500099182129,0,0.0,0.0,,,,,0,,1,,
Raw,552882088,748163980000000,,,-1220393896466678528,0.0,75.86765423184261,21.825250589801268,16.239975933647518,209,31,0.0,15,50860378352084,46,20.9,-100.66535186767578,0.8734999895095825,0,0.0,0.0,,,,,0,,1,,
Raw,552882089,748163980000000,,,-1220393896466678528,0.0,75.86765423184261,21.825250589801268,16.239975933647518,209,32,0.0,15,50860376767088,61,19.4,10.057021141052246,2.5205001831054688,0,0.0,0.0,,,,,0,,1,,
Raw,552882089,748163980000000,,,-1220393896466678528,0.0,75.86765423184261,21.825250589801268,16.239975933647518,209,6,0.0,15,50846325402192,683,12.4,-45.31171798706055,16.319000244140625,0,0.0,0.0,,,,,0,,5,,
Raw,552882090,748163980000000,,,-1220393896466678528,0.0,75.86765423184261,21.825250589801268,16.239975933647518,209,9,0.0,15,50846325751919,238,12.8,-81.78002166748047,7.36400032043457,0,0.0,0.0,,,,,0,,5,,
Raw,552882090,748163980000000,,,-1220393896466678528,0.0,75.86765423184261,21.825250589801268,16.239975933647518,209,10,0.0,15,50846322529910,1640,13.5,-183.36891174316406,26.75950050354004,0,0.0,0.0,,,,,0,,5,,
Raw,552882091,748163980000000,,,-1220393896466678528,0.0,75.86765423184261,21.825250589801268,16.239975933647518,209,16,0.0,15,50846325968468,96,17.5,-41.528541564941406,3.9240000247955322,0,0.0,0.0,,,,,0,,5,,
Raw,552883085,748164980000000,,,-1220393896466678528,0.0,76.28762978129089,21.684834578524125,17.844481085152722,209,14,0.0,207,61643382409106,61,18.2,-114.63142395019531,1.2795000076293945,0,0.0,0.0,,,,,0,,3,,
Raw,552883085,748164980000000,,,-1220393896466678528,0.0,76.28762978129089,21.684834578524125,17.844481085152722,209,3,0.0,207,61643381403845,158,18.2,101.39026641845703,7.278000354766846,0,0.0,0.0,,,,,0,,3,,
Raw,552883086,748164980000000,,,-1220393896466678528,0.0,76.28762978129089,21.684834578524125,17.844481085152722,209,4,0.0,207,61643377886719,111,16.1,-536.2977294921875,4.482000350952148,0,0.0,0.0,,,,,0,,3,,
Raw,552883087,748164980000000,,,-1220393896466678528,0.0,76.28762978129089,21.684834578524125,17.844481085152722,209,10,0.0,15,50861376027092,53,19.7,480.7864685058594,0.9404999613761902,0,0.0,0.0,,,,,0,,1,,
Raw,552883087,748164980000000,,,-1220393896466678528,0.0,76.28762978129089,21.684834578524125,17.844481085152722,209,14,0.0,15,50861375604334,116,14.6,-177.75332641601562,2.879000186920166,0,0.0,0.0,,,,,0,,1,,
Raw,552883087,748164980000000,,,-1220393896466678528,0.0,76.28762978129089,21.684834578524125,17.844481085152722,209,18,0.0,15,50861367004601,70,17.6,262.995361328125,1.0869998931884766,0,0.0,0.0,,,,,0,,1,,
Raw,552883088,748164980000000,,,-1220393896466678528,0.0,76.28762978129089,21.684834578524125,17.844481085152722,209,25,0.0,15,50861374240641,31,23.7,207.04904174804688,0.6875,0,0.0,0.0,,,,,0,,1,,
Raw,552883088,748164980000000,,,-1220393896466678528,0.0,76.28762978129089,21.684834578524125,17.844481085152722,209,26,0.0,15,50861368798609,80,19.1,-681.8698120117188,4.008500099182129,0,0.0,0.0,,,,,0,,1,,
Raw,552883088,748164980000000,,,-1220393896466678528,0.0,76.28762978129089,21.684834578524125,17.844481085152722,209,31,0.0,15,50861378352420,54,20.9,-100.66535186767578,2.373500108718872,0,0.0,0.0,,,,,0,,1,,
Raw,552883088,748164980000000,,,-1220393896466678528,0.0,76.28762978129089,21.684834578524125,17.844481085152722,209,32,0.0,15,50861376767023,110,14.0,9.038949012756348,2.250499963760376,0,0.0,0.0,,,,,0,,1,,
Raw,552883089,748164980000000,,,-1220393896466678528,0.0,76.28762978129089,21.684834578524125,17.844481085152722,209,6,0.0,15,50847325402343,792,12.4,-45.31171798706055,17.819000244140625,0,0.0,0.0,,,,,0,,5,,
Raw,552883089,748164980000000,,,-1220393896466678528,0.0,76.28762978129089,21.684834578524125,17.844481085152722,209,9,0.0,15,50847325752192,287,12.8,-81.78002166748047,8.86400032043457,0,0.0,0.0,,,,,0,,5,,
Raw,552883089,748164980000000,,,-1220393896466678528,0.0,76.28762978129089,21.684834578524125,17.844481085152722,209,10,0.0,15,50847322530522,1820,13.5,-183.36891174316406,28.25950050354004,0,0.0,0.0,,,,,0,,5,,
Raw,552883090,748164980000000,,,-1220393896466678528,0.0,76.28762978129089,21.684834578524125,17.844481085152722,209,16,0.0,15,50847325968606,124,17.5,-41.528541564941406,5.424000263214111,0,0.0,0.0,,,,,0,,5,,
Raw,552884080,748165980000000,,,-1220393896466678528,0.0,71.66730938479304,21.307710201751853,14.802973988535612,209,14,0.0,207,61644382409694,53,19.4,-113.65592193603516,1.1995000839233398,0,0.0,0.0,,,,,0,,3,,
Raw,552884080,748165980000000,,,-1220393896466678528,0.0,71.66730938479304,21.307710201751853,14.802973988535612,209,3,0.0,207,61644381403507,207,18.2,101.39026641845703,8.777999877929688,0,0.0,0.0,,,,,0,,3,,
Raw,552884081,748165980000000,,,-1220393896466678528,0.0,71.66730938479304,21.307710201751853,14.802973988535612,209,4,0.0,207,61644377888419,133,13.2,-534.94384765625,3.32200026512146,0,0.0,0.0,,,,,0,,3,,
Raw,552884081,748165980000000,,,-1220393896466678528,0.0,71.66730938479304,21.307710201751853,14.802973988535612,209,10,0.0,15,50862376025579,70,17.1,482.86065673828125,1.190500020980835,0,0.0,0.0,,,,,0,,1,,
Raw,552884081,748165980000000,,,-1220393896466678528,0.0,71.66730938479304,21.307710201751853,14.802973988535612,209,14,0.0,15,50862375604927,136,14.6,-177.75332641601562,4.379000186920166,0,0.0,0.0,,,,,0,,1,,
Raw,552884082,748165980000000,,,-1220393896466678528,0.0,71.66730938479304,21.307710201751853,14.802973988535612,209,18,0.0,15,50862367003723,70,17.5,262.71942138671875,1.0869998931884766,0,0.0,0.0,,,,,0,,1,,
Raw,552884082,748165980000000,,,-1220393896466678528,0.0,71.66730938479304,21.307710201751853,14.802973988535612,209,25,0.0,15,50862374239918,53,19.6,207.19175720214844,0.9375,0,0.0,0.0,,,,,0,,1,,
Raw,552884082,748165980000000,,,-1220393896466678528,0.0,71.66730938479304,21.307710201751853,14.802973988535612,209,26,0.0,15,50862368800883,108,19.1,-681.8698120117188,5.508500099182129,0,0.0,0.0,,,,,0,,1,,
Raw,552884083,748165980000000,,,-1220393896466678528,0.0,71.66730938479304,21.307710201751853,14.802973988535612,209,31,0.0,15,50862378352876,73,17.0,-100.65583801269531,1.94350004196167,0,0.0,0.0,,,,,0,,1,,
Raw,552884083,748165980000000,,,-1220393896466678528,0.0,71.66730938479304,21.307710201751853,14.802973988535612,209,32,0.0,15,50862376767012,70,17.6,10.808680534362793,1.1004999876022339,0,0.0,0.0,,,,,0,,1,,
Raw,552884083,748165980000000,,,-1220393896466678528,0.0,71.66730938479304,21.307710201751853,14.802973988535612,209,6,0.0,15,50848325402494,912,12.4,-45.31171798706055,19.319000244140625,0,0.0,0.0,,,,,0,,5,,
Raw,552884084,748165980000000,,,-1220393896466678528,0.0,71.66730938479304,21.307710201751853,14.802973988535612,209,9,0.0,15,50848325752464,347,12.8,-81.78002166748047,10.36400032043457,0,0.0,0.0,,,,,0,,5,,
Raw,552884084,748165980000000,,,-1220393896466678528,0.0,71.66730938479304,21.307710201751853,14.802973988535612,209,10,0.0,15,50848322531133,2009,13.5,-183.36891174316406,29.75950050354004,0,0.0,0.0,,,,,0,,5,,
Raw,552884084,748165980000000,,,-1220393896466678528,0.0,71.66730938479304,21.307710201751853,14.802973988535612,209,16,0.0,15,50848325968745,163,17.5,-41.528541564941406,6.924000263214111,0,0.0,0.0,,,,,0,,5,,
Raw,552885081,748166980000000,,,-1220393896466678528,0.0,71.9691815902479,22.609051902668078,14.988216683310037,209,14,0.0,207,61645382410073,62,19.4,-113.65592193603516,2.69950008392334,0,0.0,0.0,,,,,0,,3,,
Raw,552885081,748166980000000,,,-1220393896466678528,0.0,71.9691815902479,22.609051902668078,14.988216683310037,209,3,0.0,207,61645381403169,267,18.2,101.39026641845703,10.278000831604004,0,0.0,0.0,,,,,0,,3,,
Raw,552885082,748166980000000,,,-1220393896466678528,0.0,71.9691815902479,22.609051902668078,14.988216683310037,209,4,0.0,207,61645377890285,46,20.3,-534.5797119140625,1.1420000791549683,0,0.0,0.0,,,,,0,,3,,
Raw,552885082,748166980000000,,,-1220393896466678528,0.0,71.9691815902479,22.609051902668078,14.988216683310037,209,10,0.0,15,50863376024040,40,21.1,482.3944396972656,0.8704999685287476,0,0.0,0.0,,,,,0,,1,,
Raw,552885082,748166980000000,,,-1220393896466678528,0.0,71.9691815902479,22.609051902668078,14.988216683310037,209,14,0.0,15,50863375605645,84,16.5,-176.61155700683594,1.9390000104904175,0,0.0,0.0,,,,,0,,1,,
Raw,552885083,748166980000000,,,-1220393896466678528,0.0,71.9691815902479,22.609051902668078,14.988216683310037,209,18,0.0,15,50863367002940,35,22.7,262.9002380371094,0.7369999885559082,0,0.0,0.0,,,,,0,,1,,
Raw,552885083,748166980000000,,,-1220393896466678528,0.0,71.9691815902479,22.609051902668078,14.988216683310037,209,25,0.0,15,50863374239187,53,19.5,207.1727294921875,0.9375,0,0.0,0.0,,,,,0,,1,,
Raw,552885084,748166980000000,,,-1220393896466678528,0.0,71.9691815902479,22.609051902668078,14.988216683310037,209,26,0.0,15,50863368803157,147,19.1,-681.8698120117188,7.008500099182129,0,0.0,0.0,,,,,0,,1,,
Raw,552885084,748166980000000,,,-1220393896466678528,0.0,71.9691815902479,22.609051902668078,14.988216683310037,209,31,0.0,15,50863378353014,40,21.7,-100.62728881835938,0.8134999871253967,0,0.0,0.0,,,,,0,,1,,
Raw,552885084,748166980000000,,,-1220393896466678528,0.0,71.9691815902479,22.609051902668078,14.988216683310037,209,32,0.0,15,50863376767026,53,19.6,10.960915565490723,0.9404999613761902,0,0.0,0.0,,,,,0,,1,,
Raw,552885085,748166980000000,,,-1220393896466678528,0.0,71.9691815902479,22.609051902668078,14.988216683310037,209,6,0.0,15,50849325402645,1041,12.4,-45.31171798706055,20.819000244140625,0,0.0,0.0,,,,,0,,5,,
Raw,552885085,748166980000000,,,-1220393896466678528,0.0,71.9691815902479,22.609051902668078,14.988216683310037,209,9,0.0,15,50849325752737,417,12.8,-81.78002166748047,11.86400032043457,0,0.0,0.0,,,,,0,,5,,
Raw,552885085,748166980000000,,,-1220393896466678528,0.0,71.9691815902479,22.609051902668078,14.988216683310037,209,10,0.0,15,50849322531745,2208,13.5,-183.36891174316406,31.25950050354004,0,0.0,0.0,,,,,0,,5,,
Raw,552885086,748166980000000,,,-1220393896466678528,0.0,71.9691815902479,22.609051902668078,14.988216683310037,209,16,0.0,15,50849325968883,211,17.5,-41.528541564941406,8.42400074005127,0,0.0,0.0,,,,,0,,5,,
Raw,552886083,748167980000000,,,-1220393896466678528,0.0,72.88107735803351,22.195906169008218,14.476189167736996,209,14,0.0,207,61646382410515,96,15.9,-115.07228088378906,2.309500217437744,0,0.0,0.0,,,,,0,,3,,
Raw,552886083,748167980000000,,,-1220393896466678528,0.0,72.88107735803351,22.195906169008218,14.476189167736996,209,3,0.0,207,61646381402831,336,18.2,101.39026641845703,11.778000831604004,0,0.0,0.0,,,,,0,,3,,
Raw,552886084,748167980000000,,,-1220393896466678528,0.0,72.88107735803351,22.195906169008218,14.476189167736996,209,4,0.0,207,61646377892152,61,18.2,-535.1866455078125,1.3020000457763672,0,0.0,0.0,,,,,0,,3,,
Raw,552886084,748167980000000,,,-1220393896466678528,0.0,72.88107735803351,22.195906169008218,14.476189167736996,209,10,0.0,15,50864376022443,70,17.9,481.5381164550781,1.1004999876022339,0,0.0,0.0,,,,,0,,1,,
Raw,552886085,748167980000000,,,-1220393896466678528,0.0,72.88107735803351,22.195906169008218,14.476189167736996,209,14,0.0,15,50864375606234,98,16.5,-176.61155700683594,3.439000129699707,0,0.0,0.0,,,,,0,,1,,
Raw,552886086,748167980000000,,,-1220393896466678528,0.0,72.88107735803351,22.195906169008218,14.476189167736996,209,18,0.0,15,50864367002026,31,23.1,263.1856689453125,0.7369999885559082,0,0.0,0.0,,,,,0,,1,,
Raw,552886087,748167980000000,,,-1220393896466678528,0.0,72.88107735803351,22.195906169008218,14.476189167736996,209,25,0.0,15,50864374238389,81,16.2,207.36302185058594,1.277500033378601,0,0.0,0.0,,,,,0,,1,,
Raw,552886088,748167980000000,,,-1220393896466678528,0.0,72.88107735803351,22.195906169008218,14.476189167736996,209,26,0.0,15,50864368805432,195,19.1,-681.8698120117188,8.508500099182129,0,0.0,0.0,,,,,0,,1,,
Raw,552886089,748167980000000,,,-1220393896466678528,0.0,72.88107735803351,22.195906169008218,14.476189167736996,209,31,0.0,15,50864378353337,70,17.1,-100.44651794433594,1.1934999227523804,0,0.0,0.0,,,,,0,,1,,
Raw,552886089,748167980000000,,,-1220393896466678528,0.0,72.88107735803351,22.195906169008218,14.476189167736996,209,32,0.0,15,50864376766900,61,18.4,9.876241683959961,1.1004999876022339,0,0.0,0.0,,,,,0,,1,,
Raw,552886090,748167980000000,,,-1220393896466678528,0.0,72.88107735803351,22.195906169008218,14.476189167736996,209,6,0.0,15,50850325402797,1180,12.4,-45.31171798706055,22.319000244140625,0,0.0,0.0,,,,,0,,5,,
Raw,552886091,748167980000000,,,-1220393896466678528,0.0,72.88107735803351,22.195906169008218,14.476189167736996,209,9,0.0,15,50850325753010,497,12.8,-81.78002166748047,13.36400032043457,0,0.0,0.0,,,,,0,,5,,
Raw,552886092,748167980000000,,,-1220393896466678528,0.0,72.88107735803351,22.195906169008218,14.476189167736996,209,10,0.0,15,50850322532357,2418,13.5,-183.36891174316406,32.75950241088867,0,0.0,0.0,,,,,0,,5,,
Raw,552886093,748167980000000,,,-1220393896466678528,0.0,72.88107735803351,22.195906169008218,14.476189167736996,209,16,0.0,15,50850325969022,269,17.5,-41.528541564941406,9.92400074005127,0,0.0,0.0,,,,,0,,5,,
Raw,552887079,748168980000000,,,-1220393896466678528,0.0,74.72998549928889,21.452484340722375,14.730772219005196,209,14,0.0,207,61647382410899,112,15.9,-115.07228088378906,3.809500217437744,0,0.0,0.0,,,,,0,,3,,
Raw,552887079,748168980000000,,,-1220393896466678528,0.0,74.72998549928889,21.452484340722375,14.730772219005196,209,3,0.0,207,61647381402464,245,11.9,101.7732162475586,7.318000316619873,0,0.0,0.0,,,,,0,,3,,
Raw,552887079,748168980000000,,,-1220393896466678528,0.0,74.72998549928889,21.452484340722375,14.730772219005196,209,4,0.0,207,61647377893937,70,18.2,-535.1866455078125,2.802000045776367,0,0.0,0.0,,,,,0,,3,,
Raw,552887080,748168980000000,,,-1220393896466678528,0.0,74.72998549928889,21.452484340722375,14.730772219005196,209,10,0.0,15,50865376020818,27,24.6,482.20416259765625,0.640500009059906,0,0.0,0.0,,,,,0,,1,,
Raw,552887080,748168980000000,,,-1220393896466678528,0.0,74.72998549928889,21.452484340722375,14.730772219005196,209,14,0.0,15,50865375606722,110,14.4,-177.59156799316406,2.249000072479248,0,0.0,0.0,,,,,0,,1,,
Raw,552887080,748168980000000,,,-1220393896466678528,0.0,74.72998549928889,21.452484340722375,14.730772219005196,209,18,0.0,15,50865367001145,21,26.2,263.4901428222656,0.12170000374317169,0,0.0,0.0,,,,,0,,1,,
Raw,552887081,748168980000000,,,-1220393896466678528,0.0,74.72998549928889,21.452484340722375,14.730772219005196,209,25,0.0,15,50865374237820,53,19.3,208.2478790283203,1.0175000429153442,0,0.0,0.0,,,,,0,,1,,
Raw,552887081,748168980000000,,,-1220393896466678528,0.0,74.72998549928889,21.452484340722375,14.730772219005196,209,26,0.0,15,50865368807707,184,12.9,-681.4987182617188,5.358500003814697,0,0.0,0.0,,,,,0,,1,,
Raw,552887082,748168980000000,,,-1220393896466678528,0.0,74.72998549928889,21.452484340722375,14.730772219005196,209,31,0.0,15,50865378353743,40,21.0,-100.85564422607422,0.8734999895095825,0,0.0,0.0,,,,,0,,1,,
Raw,552887082,748168980000000,,,-1220393896466678528,0.0,74.72998549928889,21.452484340722375,14.730772219005196,209,32,0.0,15,50865376766829,46,20.8,10.152167320251465,0.8704999685287476,0,0.0,0.0,,,,,0,,1,,
Raw,552887082,748168980000000,,,-1220393896466678528,0.0,74.72998549928889,21.452484340722375,14.730772219005196,209,6,0.0,15,50851325402948,1330,12.4,-45.31171798706055,23.819000244140625,0,0.0,0.0,,,,,0,,5,,
Raw,552887082,748168980000000,,,-1220393896466678528,0.0,74.72998549928889,21.452484340722375,14.730772219005196,209,9,0.0,15,50851325753283,586,12.8,-81.78002166748047,14.86400032043457,0,0.0,0.0,,,,,0,,5,,
Raw,552887083,748168980000000,,,-1220393896466678528,0.0,74.72998549928889,21.452484340722375,14.730772219005196,209,10,0.0,15,50851322532968,2637,13.5,-183.36891174316406,34.25950241088867,0,0.0,0.0,,,,,0,,5,,
Raw,552887083,748168980000000,,,-1220393896466678528,0.0,74.72998549928889,21.452484340722375,14.730772219005196,209,16,0.0,15,50851325969126,198,12.2,-43.02644729614258,5.86400032043457,0,0.0,0.0,,,,,0,,5,,
Raw,552888092,748169980000000,,,-1220393896466678528,0.0,73.90173414023593,22.2216079884963,15.50980663088768,209,14,0.0,207,61648382411283,137,15.9,-115.07228088378906,5.309500217437744,0,0.0,0.0,,,,,0,,3,,
Raw,552888093,748169980000000,,,-1220393896466678528,0.0,73.90173414023593,22.2216079884963,15.50980663088768,209,3,0.0,207,61648381402087,53,19.1,101.11005401611328,1.1980000734329224,0,0.0,0.0,,,,,0,,3,,
Raw,552888094,748169980000000,,,-1220393896466678528,0.0,73.90173414023593,22.2216079884963,15.50980663088768,209,4,0.0,207,61648377895722,90,18.2,-535.1866455078125,4.302000045776367,0,0.0,0.0,,,,,0,,3,,
Raw,552888094,748169980000000,,,-1220393896466678528,0.0,73.90173414023593,22.2216079884963,15.50980663088768,209,10,0.0,15,50866376019178,24,25.5,481.9824523925781,0.4058000147342682,0,0.0,0.0,,,,,0,,1,,
Raw,552888096,748169980000000,,,-1220393896466678528,0.0,73.90173414023593,22.2216079884963,15.50980663088768,209,14,0.0,15,50866375607304,81,16.9,-177.5439910888672,1.1890000104904175,0,0.0,0.0,,,,,0,,1,,
Raw,552888097,748169980000000,,,-1220393896466678528,0.0,73.90173414023593,22.2216079884963,15.50980663088768,209,18,0.0,15,50866367000275,35,22.1,263.0334167480469,0.796999990940094,0,0.0,0.0,,,,,0,,1,,
Raw,552888098,748169980000000,,,-1220393896466678528,0.0,73.90173414023593,22.2216079884963,15.50980663088768,209,25,0.0,15,50866374237171,53,19.2,207.8482666015625,1.0175000429153442,0,0.0,0.0,,,,,0,,1,,
Raw,552888098,748169980000000,,,-1220393896466678528,0.0,73.90173414023593,22.2216079884963,15.50980663088768,209,26,0.0,15,50866368810012,35,22.7,-682.0791625976562,0.7384999990463257,0,0.0,0.0,,,,,0,,1,,
Raw,552888098,748169980000000,,,-1220393896466678528,0.0,73.90173414023593,22.2216079884963,15.50980663088768,209,31,0.0,15,50866378354080,48,21.0,-100.85564422607422,2.373500108718872,0,0.0,0.0,,,,,0,,1,,
Raw,552888099,748169980000000,,,-1220393896466678528,0.0,73.90173414023593,22.2216079884963,15.50980663088768,209,32,0.0,15,50866376766862,53,19.6,10.19974136352539,0.9404999613761902,0,0.0,0.0,,,,,0,,1,,
Raw,552888099,748169980000000,,,-1220393896466678528,0.0,73.90173414023593,22.2216079884963,15.50980663088768,209,6,0.0,15,50852325403099,1489,12.4,-45.31171798706055,25.319000244140625,0,0.0,0.0,,,,,0,,5,,
Raw,552888099,748169980000000,,,-1220393896466678528,0.0,73.90173414023593,22.2216079884963,15.50980663088768,209,9,0.0,15,50852325753556,686,12.8,-81.78002166748047,16.36400032043457,0,0.0,0.0,,,,,0,,5,,
Raw,552888100,748169980000000,,,-1220393896466678528,0.0,73.90173414023593,22.2216079884963,15.50980663088768,209,10,0.0,15,50852322533580,2867,13.5,-183.36891174316406,35.75950241088867,0,0.0,0.0,,,,,0,,5,,
Raw,552888100,748169980000000,,,-1220393896466678528,0.0,73.90173414023593,22.2216079884963,15.50980663088768,209,16,0.0,15,50852325969269,238,12.2,-43.02644729614258,7.36400032043457,0,0.0,0.0,,,,,0,,5,,
Raw,552889081,748170980000000,,,-1220393896466678528,0.0,70.1027165632695,21.41433481782977,14.269256039621462,209,14,0.0,207,61649382411667,172,15.9,-115.07228088378906,6.809500217437744,0,0.0,0.0,,,,,0,,3,,
Raw,552889082,748170980000000,,,-1220393896466678528,0.0,70.1027165632695,21.41433481782977,14.269256039621462,209,3,0.0,207,61649381401750,62,19.1,101.11005401611328,2.698000192642212,0,0.0,0.0,,,,,0,,3,,
Raw,552889082,748170980000000,,,-1220393896466678528,0.0,70.1027165632695,21.41433481782977,14.269256039621462,209,4,0.0,207,61649377897339,103,15.0,-535.3359985351562,3.082000255584717,0,0.0,0.0,,,,,0,,3,,
Raw,552889082,748170980000000,,,-1220393896466678528,0.0,70.1027165632695,21.41433481782977,14.269256039621462,209,10,0.0,15,50867376017547,19,27.7,482.2939758300781,0.06530000269412994,0,0.0,0.0,,,,,0,,1,,
Raw,552889083,748170980000000,,,-1220393896466678528,0.0,70.1027165632695,21.41433481782977,14.269256039621462,209,14,0.0,15,50867375607976,70,17.6,-176.93505859375,1.0989999771118164,0,0.0,0.0,,,,,0,,1,,
Raw,552889083,748170980000000,,,-1220393896466678528,0.0,70.1027165632695,21.41433481782977,14.269256039621462,209,18,0.0,15,50867366999320,80,16.2,261.4730224609375,1.2655000686645508,0,0.0,0.0,,,,,0,,1,,
Raw,552889083,748170980000000,,,-1220393896466678528,0.0,70.1027165632695,21.41433481782977,14.269256039621462,209,25,0.0,15,50867374236418,53,19.4,207.2393341064453,1.0175000429153442,0,0.0,0.0,,,,,0,,1,,
Raw,552889084,748170980000000,,,-1220393896466678528,0.0,70.1027165632695,21.41433481782977,14.269256039621462,209,26,0.0,15,50867368812300,46,20.1,-682.3455200195312,0.9284999966621399,0,0.0,0.0,,,,,0,,1,,
Raw,552889084,748170980000000,,,-1220393896466678528,0.0,70.1027165632695,21.41433481782977,14.269256039621462,209,31,0.0,15,50867378354416,66,21.0,-100.85564422607422,3.873500108718872,0,0.0,0.0,,,,,0,,1,,
Raw,552889084,748170980000000,,,-1220393896466678528,0.0,70.1027165632695,21.41433481782977,14.269256039621462,209,32,0.0,15,50867376766829,27,24.7,10.38051986694336,0.640500009059906,0,0.0,0.0,,,,,0,,1,,
Raw,552889084,748170980000000,,,-1220393896466678528,0.0,70.1027165632695,21.41433481782977,14.269256039621462,209,6,0.0,15,50853325403250,1659,12.4,-45.31171798706055,26.819002151489258,0,0.0,0.0,,,,,0,,5,,
Raw,552889085,748170980000000,,,-1220393896466678528,0.0,70.1027165632695,21.41433481782977,14.269256039621462,209,9,0.0,15,50853325753828,796,12.8,-81.78002166748047,17.86400032043457,0,0.0,0.0,,,,,0,,5,,
Raw,552889085,748170980000000,,,-1220393896466678528,0.0,70.1027165632695,21.41433481782977,14.269256039621462,209,10,0.0,15,50853322534192,3106,13.5,-183.36891174316406,37.25950241088867,0,0.0,0.0,,,,,0,,5,,
Raw,552889085,748170980000000,,,-1220393896466678528,0.0,70.1027165632695,21.41433481782977,14.269256039621462,209,16,0.0,15,50853325969413,287,12.2,-43.02644729614258,8.86400032043457,0,0.0,0.0,,,,,0,,5,,
Raw,552890077,748171980000000,,,-1220393896466678528,0.0,71.35016494430602,22.19383367251753,15.966500239772753,209,14,0.0,207,61650382411826,112,15.9,-113.92793273925781,3.809500217437744,0,0.0,0.0,,,,,0,,3,,
Raw,552890077,748171980000000,,,-1220393896466678528,0.0,71.35016494430602,22.19383367251753,15.966500239772753,209,3,0.0,207,61650381401412,81,19.1,101.11005401611328,4.198000431060791,0,0.0,0.0,,,,,0,,3,,
Raw,552890078,748171980000000,,,-1220393896466678528,0.0,71.35016494430602,22.19383367251753,15.966500239772753,209,4,0.0,207,61650377899181,53,19.1,-535.5040893554688,1.2220001220703125,0,0.0,0.0,,,,,0,,3,,
Raw,552890078,748171980000000,,,-1220393896466678528,0.0,71.35016494430602,22.19383367251753,15.966500239772753,209,10,0.0,15,50868376015893,40,21.4,482.0329284667969,0.8704999685287476,0,0.0,0.0,,,,,0,,1,,
Raw,552890078,748171980000000,,,-1220393896466678528,0.0,71.35016494430602,22.19383367251753,15.966500239772753,209,14,0.0,15,50868375608561,81,16.0,-176.64010620117188,1.2790000438690186,0,0.0,0.0,,,,,0,,1,,
Raw,552890078,748171980000000,,,-1220393896466678528,0.0,71.35016494430602,22.19383367251753,15.966500239772753,209,18,0.0,15,50868366998471,61,18.2,263.4996643066406,1.0855000019073486,0,0.0,0.0,,,,,0,,1,,
Raw,552890079,748171980000000,,,-1220393896466678528,0.0,71.35016494430602,22.19383367251753,15.966500239772753,209,25,0.0,15,50868374235753,27,24.5,208.38108825683594,0.6375000476837158,0,0.0,0.0,,,,,0,,1,,
Raw,552890079,748171980000000,,,-1220393896466678528,0.0,71.35016494430602,22.19383367251753,15.966500239772753,209,26,0.0,15,50868368814445,93,15.5,-682.5738525390625,1.2684999704360962,0,0.0,0.0,,,,,0,,1,,
Raw,552890079,748171980000000,,,-1220393896466678528,0.0,71.35016494430602,22.19383367251753,15.966500239772753,209,31,0.0,15,50868378354721,116,14.6,-100.43699645996094,2.883500099182129,0,0.0,0.0,,,,,0,,1,,
Raw,552890080,748171980000000,,,-1220393896466678528,0.0,71.35016494430602,22.19383367251753,15.966500239772753,209,32,0.0,15,50868376766798,70,17.5,10.751592636108398,1.1004999876022339,0,0.0,0.0,,,,,0,,1,,
Raw,552890080,748171980000000,,,-1220393896466678528,0.0,71.35016494430602,22.19383367251753,15.966500239772753,209,6,0.0,15,50854325403401,1838,12.4,-45.31171798706055,28.319002151489258,0,0.0,0.0,,,,,0,,5,,
Raw,552890080,748171980000000,,,-1220393896466678528,0.0,71.35016494430602,22.19383367251753,15.966500239772753,209,9,0.0,15,50854325754107,238,12.2,-81.10787963867188,7.36400032043457,0,0.0,0.0,,,,,0,,5,,
Raw,552890080,748171980000000,,,-1220393896466678528,0.0,71.35016494430602,22.19383367251753,15.966500239772753,209,16,0.0,15,50854325969556,347,12.2,-43.02644729614258,10.36400032043457,0,0.0,0.0,,,,,0,,5,,
Raw,552891085,748172980000000,,,-1220393896466678528,0.0,66.10848504351452,21.99965999708678,13.360548242170266,209,14,0.0,207,61651382412024,61,18.1,-113.11188507080078,1.2795000076293945,0,0.0,0.0,,,,,0,,3,,
Raw,552891085,748172980000000,,,-1220393896466678528,0.0,66.10848504351452,21.99965999708678,13.360548242170266,209,2,0.0,207,616