# 
# Header Description:
# 
# Version: v2.0.0.1 Platform: Gnss Module Manufacturer: Ublox NEO-M8N
# 
# Raw,ElapsedRealtimeMillis,TimeNanos,LeapSecond,TimeUncertaintyNanos,FullBiasNanos,BiasNanos,BiasUncertaintyNanos,DriftNanosPerSecond,DriftUncertaintyNanosPerSecond,HardwareClockDiscontinuityCount,Svid,TimeOffsetNanos,State,ReceivedSvTimeNanos,ReceivedSvTimeUncertaintyNanos,Cn0DbHz,PseudorangeRateMetersPerSecond,PseudorangeRateUncertaintyMetersPerSecond,AccumulatedDeltaRangeState,AccumulatedDeltaRangeMeters,AccumulatedDeltaRangeUncertaintyMeters,CarrierFrequencyHz,CarrierCycles,CarrierPhase,CarrierPhaseUncertainty,MultipathIndicator,SnrInDb,ConstellationType,AgcDb,CarrierFrequencyHz
# 
# Fix,Provider,Latitude,Longitude,Altitude,Speed,Accuracy,(UTC)TimeInMs
# 
# Nav,Svid,Type,Status,MessageId,Sub-messageId,Data(Bytes)
# 
Raw,2200,2200000000,18,,668776,0.0,,-84.553,,,10,,1,,,14,,,,,,,,,,,,,,
Raw,2200,2200000000,18,,668776,0.0,,-84.553,,,12,,1,,,25,,,,,,,,,,,,,,
Raw,2200,2200000000,18,,668776,0.0,,-84.553,,,14,,1,,,13,,,,,,,,,,,,,,
Raw,2200,2200000000,18,,668776,0.0,,-84.553,,,20,,1,,,12,,,,,,,,,,,,,,
Raw,2300,2300000000,18,,668754,0.0,,-84.583,,,10,,1,,,14,,,,,,,,,,,,,,
Raw,2300,2300000000,18,,668754,0.0,,-84.583,,,12,,1,,,25,,,,,,,,,,,,,,
Raw,2300,2300000000,18,,668754,0.0,,-84.583,,,14,,1,,,13,,,,,,,,,,,,,,
Raw,2300,2300000000,18,,668754,0.0,,-84.583,,,20,,1,,,12,,,,,,,,,,,,,,
Raw,2400,2400000000,18,,668732,0.0,,-84.615,,,10,,1,,,14,,,,,,,,,,,,,,
Raw,2400,2400000000,18,,668732,0.0,,-84.615,,,12,,1,,,25,,,,,,,,,,,,,,
Raw,2400,2400000000,18,,668732,0.0,,-84.615,,,14,,1,,,13,,,,,,,,,,,,,,
Raw,2400,2400000000,18,,668732,0.0,,-84.615,,,20,,1,,,11,,,,,,,,,,,,,,
Raw,2500,2500000000,18,,668711,0.0,,-84.641,,,10,,1,,,14,,,,,,,,,,,,,,
Raw,2500,2500000000,18,,668711,0.0,,-84.641,,,12,,1,,,25,,,,,,,,,,,,,,
Raw,2500,2500000000,18,,668711,0.0,,-84.641,,,14,,1,,,13,,,,,,,,,,,,,,
Raw,2500,2500000000,18,,668711,0.0,,-84.641,,,20,,1,,,11,,,,,,,,,,,,,,
Raw,2600,2600000000,18,,668690,0.0,,-84.693,,,10,,1,,,14,,,,,,,,,,,,,,
Raw,2600,2600000000,18,,668690,0.0,,-84.693,,,12,,1,,,25,,,,,,,,,,,,,,
Raw,2600,2600000000,18,,668690,0.0,,-84.693,,,14,,1,,,13,,,,,,,,,,,,,,
Raw,2600,2600000000,18,,668690,0.0,,-84.693,,,20,,1,,,11,,,,,,,,,,,,,,
Raw,2700,2700000000,18,,668670,0.0,,-84.528,,,10,,1,,,14,,,,,,,,,,,,,,
Raw,2700,2700000000,18,,668670,0.0,,-84.528,,,12,,1,,,25,,,,,,,,,,,,,,
Raw,2700,2700000000,18,,668670,0.0,,-84.528,,,14,,1,,,14,,,,,,,,,,,,,,
Raw,2700,2700000000,18,,668670,0.0,,-84.528,,,20,,1,,,11,,,,,,,,,,,,,,
Raw,2800,2800000000,18,,668651,0.0,,-84.347,,,10,,1,,,14,,,,,,,,,,,,,,
Raw,2800,2800000000,18,,668651,0.0,,-84.347,,,12,,1,,,25,,,,,,,,,,,,,,
Raw,2800,2800000000,18,,668651,0.0,,-84.347,,,14,,1,,,14,,,,,,,,,,,,,,
Raw,2800,2800000000,18,,668651,0.0,,-84.347,,,20,,1,,,11,,,,,,,,,,,,,,
Raw,2900,2900000000,18,,668632,0.0,,-84.187,,,10,,1,,,14,,,,,,,,,,,,,,
Raw,2900,2900000000,18,,668632,0.0,,-84.187,,,12,,1,,,25,,,,,,,,,,,,,,
Raw,2900,2900000000,18,,668632,0.0,,-84.187,,,14,,1,,,14,,,,,,,,,,,,,,
Raw,2900,2900000000,18,,668632,0.0,,-84.187,,,20,,1,,,11,,,,,,,,,,,,,,
Raw,3000,3000000000,18,,668613,0.0,,-84.016,,,10,,1,,,14,,,,,,,,,,,,,,
Raw,3000,3000000000,18,,668613,0.0,,-84.016,,,12,,1,,,25,,,,,,,,,,,,,,
Raw,3000,3000000000,18,,668613,0.0,,-84.016,,,14,,1,,,14,,,,,,,,,,,,,,
Raw,3000,3000000000,18,,668613,0.0,,-84.016,,,20,,1,,,11,,,,,,,,,,,,,,
Raw,3100,3100000000,18,,668594,0.0,,-83.881,,,10,,1,,,14,,,,,,,,,,,,,,
Raw,3100,3100000000,18,,668594,0.0,,-83.881,,,12,,1,,,25,,,,,,,,,,,,,,
Raw,3100,3100000000,18,,668594,0.0,,-83.881,,,14,,1,,,14,,,,,,,,,,,,,,
Raw,3100,3100000000,18,,668594,0.0,,-83.881,,,20,,1,,,11,,,,,,,,,,,,,,
Raw,3200,3200000000,18,,668576,0.0,,-83.711,,,10,,1,,,14,,,,,,,,,,,,,,
Raw,3200,3200000000,18,,668576,0.0,,-83.711,,,12,,1,,,25,,,,,,,,,,,,,,
Raw,3200,3200000000,18,,668576,0.0,,-83.711,,,14,,1,,,14,,,,,,,,,,,,,,
Raw,3200,3200000000,18,,668576,0.0,,-83.711,,,20,,1,,,11,,,,,,,,,,,,,,
Raw,3300,3300000000,18,,668557,0.0,,-83.560,,,10,,1,,,14,,,,,,,,,,,,,,
Raw,3300,3300000000,18,,668557,0.0,,-83.560,,,12,,1,,,25,,,,,,,,,,,,,,
Raw,3300,3300000000,18,,668557,0.0,,-83.560,,,14,,1,,,14,,,,,,,,,,,,,,
Raw,3300,3300000000,18,,668557,0.0,,-83.560,,,20,,1,,,11,,,,,,,,,,,,,,
Raw,3400,3400000000,18,,668539,0.0,,-83.459,,,10,,1,,,13,,,,,,,,,,,,,,
Raw,3400,3400000000,18,,668539,0.0,,-83.459,,,12,,1,,,25,,,,,,,,,,,,,,
Raw,3400,3400000000,18,,668539,0.0,,-83.459,,,14,,1,,,14,,,,,,,,,,,,,,
Raw,3400,3400000000,18,,668539,0.0,,-83.459,,,20,,1,,,11,,,,,,,,,,,,,,
Raw,3500,3500000000,18,,668531,0.0,,-83.459,,,12,,1,,,25,,,,,,,,,,,,,,
Raw,3500,3500000000,18,,668531,0.0,,-83.459,,,14,,1,,,14,,,,,,,,,,,,,,
Raw,3500,3500000000,18,,668531,0.0,,-83.459,,,20,,1,,,11,,,,,,,,,,,,,,
Raw,3600,3600000000,18,,668523,0.0,,-83.459,,,12,,1,,,25,,,,,,,,,,,,,,
Raw,3600,3600000000,18,,668523,0.0,,-83.459,,,14,,1,,,14,,,,,,,,,,,,,,
Raw,3600,3600000000,18,,668523,0.0,,-83.459,,,20,,1,,,11,,,,,,,,,,,,,,
Raw,3700,3700000000,18,,668514,0.0,,-83.459,,,12,,1,,,25,,,,,,,,,,,,,,
Raw,3700,3700000000,18,,668514,0.0,,-83.459,,,14,,1,,,14,,,,,,,,,,,,,,
Raw,3700,3700000000,18,,668514,0.0,,-83.459,,,20,,1,,,11,,,,,,,,,,,,,,
Raw,3800,3800000000,18,,668506,0.0,,-83.459,,,12,,1,,,25,,,,,,,,,,,,,,
Raw,3800,3800000000,18,,668506,0.0,,-83.459,,,14,,1,,,14,,,,,,,,,,,,,,
Raw,3800,3800000000,18,,668506,0.0,,-83.459,,,20,,1,,,11,,,,,,,,,,,,,,
Raw,3900,3900000000,18,,668498,0.0,,-83.459,,,12,,1,,,25,,,,,,,,,,,,,,
Raw,3900,3900000000,18,,668498,0.0,,-83.459,,,14,,1,,,13,,,,,,,,,,,,,,
Raw,3900,3900000000,18,,668498,0.0,,-83.459,,,20,,1,,,11,,,,,,,,,,,,,,
Raw,4000,4000000000,18,,668489,0.0,,-83.459,,,12,,1,,,25,,,,,,,,,,,,,,
Raw,4000,4000000000,18,,668489,0.0,,-83.459,,,14,,1,,,13,,,,,,,,,,,,,,
Raw,4000,4000000000,18,,668489,0.0,,-83.459,,,20,,1,,,11,,,,,,,,,,,,,,
Raw,4100,4100000000,18,,668481,0.0,,-83.459,,,12,,1,,,25,,,,,,,,,,,,,,
Raw,4100,4100000000,18,,668481,0.0,,-83.459,,,14,,1,,,13,,,,,,,,,,,,,,
Raw,4100,4100000000,18,,668481,0.0,,-83.459,,,20,,1,,,11,,,,,,,,,,,,,,
Raw,4200,4200000000,18,,668472,0.0,,-83.459,,,12,,1,,,25,,,,,,,,,,,,,,
Raw,4200,4200000000,18,,668472,0.0,,-83.459,,,14,,1,,,14,,,,,,,,,,,,,,
Raw,4200,4200000000,18,,668472,0.0,,-83.459,,,20,,1,,,11,,,,,,,,,,,,,,
Raw,4300,4300000000,18,,668464,0.0,,-83.459,,,12,,1,,,25,,,,,,,,,,,,,,
Raw,4300,4300000000,18,,668464,0.0,,-83.459,,,14,,1,,,14,,,,,,,,,,,,,,
Raw,4300,4300000000,18,,668464,0.0,,-83.459,,,20,,1,,,11,,,,,,,,,,,,,,
Raw,4400,4400000000,18,,668456,0.0,,-83.459,,,12,,1,,,25,,,,,,,,,,,,,,
Raw,4400,4400000000,18,,668456,0.0,,-83.459,,,14,,1,,,13,,,,,,,,,,,,,,
Raw,4400,4400000000,18,,668456,0.0,,-83.459,,,20,,1,,,12,,,,,,,,,,,,,,
Raw,4500,4500000000,18,,668447,0.0,,-83.459,,,12,,1,,,25,,,,,,,,,,,,,,
Raw,4500,4500000000,18,,668447,0.0,,-83.459,,,14,,1,,,13,,,,,,,,,,,,,,
Raw,4500,4500000000,18,,668447,0.0,,-83.459,,,20,,1,,,12,,,,,,,,,,,,,,
Raw,4600,4600000000,18,,668439,0.0,,-83.459,,,12,,1,,,25,,,,,,,,,,,,,,
Raw,4600,4600000000,18,,668439,0.0,,-83.459,,,14,,1,,,13,,,,,,,,,,,,,,
Raw,4600,4600000000,18,,668439,0.0,,-83.459,,,20,,1,,,12,,,,,,,,,,,,,,
Raw,4700,4700000000,18,,668431,0.0,,-83.459,,,12,,1,,,25,,,,,,,,,,,,,,
Raw,4700,4700000000,18,,668431,0.0,,-83.459,,,14,,1,,,13,,,,,,,,,,,,,,
Raw,4700,4700000000,18,,668431,0.0,,-83.459,,,20,,1,,,12,,,,,,,,,,,,,,
Raw,4800,4800000000,18,,668422,0.0,,-83.459,,,12,,1,,,25,,,,,,,,,,,,,,
Raw,4800,4800000000,18,,668422,0.0,,-83.459,,,14,,1,,,13,,,,,,,,,,,,,,
Raw,4800,4800000000,18,,668422,0.0,,-83.459,,,20,,1,,,12,,,,,,,,,,,,,,
Raw,4900,4900000000,18,,668414,0.0,,-83.459,,,12,,1,,,25,,,,,,,,,,,,,,
Raw,4900,4900000000,18,,668414,0.0,,-83.459,,,14,,1,,,13,,,,,,,,,,,,,,
Raw,4900,4900000000,18,,668414,0.0,,-83.459,,,20,,1,,,12,,,,,,,,,,,,,,
Raw,5000,5000000000,18,,668406,0.0,,-83.459,,,12,,1,,,25,,,,,,,,,,,,,,
Raw,5000,5000000000,18,,668406,0.0,,-83.459,,,14,,1,,,13,,,,,,,,,,,,,,
Raw,5000,5000000000,18,,668406,0.0,,-83.459,,,20,,1,,,12,,,,,,,,,,,,,,
Raw,5100,5100000000,18,,668397,0.0,,-83.459,,,12,,1,,,25,,,,,,,,,,,,,,
Raw,5100,5100000000,18,,668397,0.0,,-83.459,,,14,,1,,,13,,,,,,,,,,,,,,
Raw,5100,5100000000,18,,668397,0.0,,-83.459,,,20,,1,,,12,,,,,,,,,,,,,,
Raw,5200,5200000000,18,,668389,0.0,,-83.459,,,12,,1,,,25,,,,,,,,,,,,,,
Raw,5200,5200000000,18,,668389,0.0,,-83.459,,,14,,1,,,13,,,,,,,,,,,,,,
Raw,5200,5200000000,18,,668389,0.0,,-83.459,,,20,,1,,,12,,,,,,,,,,,,,,
Raw,5300,5300000000,18,,668381,0.0,,-83.459,,,12,,1,,,25,,,,,,,,,,,,,,
Raw,5300,5300000000,18,,668381,0.0,,-83.459,,,14,,1,,,12,,,,,,,,,,,,,,
Raw,5300,5300000000,18,,668381,0.0,,-83.459,,,20,,1,,,13,,,,,,,,,,,,,,
Raw,5400,5400000000,18,,668372,0.0,,-83.459,,,12,,1,,,25,,,,,,,,,,,,,,
Raw,5400,5400000000,18,,668372,0.0,,-83.459,,,14,,1,,,12,,,,,,,,,,,,,,
Raw,5400,5400000000,18,,668372,0.0,,-83.459,,,20,,1,,,12,,,,,,,,,,,,,,
Raw,5500,5500000000,18,,668364,0.0,,-83.459,,,12,,1,,,25,,,,,,,,,,,,,,
Raw,5500,5500000000,18,,668364,0.0,,-83.459,,,14,,1,,,13,,,,,,,,,,,,,,
Raw,5500,5500000000,18,,668364,0.0,,-83.459,,,20,,1,,,12,,,,,,,,,,,,,,
Raw,5600,5600000000,18,,668356,0.0,,-83.459,,,12,,1,,,25,,,,,,,,,,,,,,
Raw,5600,5600000000,18,,668356,0.0,,-83.459,,,14,,1,,,13,,,,,,,,,,,,,,
Raw,5600,5600000000,18,,668356,0.0,,-83.459,,,20,,1,,,13,,,,,,,,,,,,,,
Raw,5700,5700000000,18,,668347,0.0,,-83.459,,,12,,1,,,25,,,,,,,,,,,,,,
Raw,5700,5700000000,18,,668347,0.0,,-83.459,,,14,,1,,,13,,,,,,,,,,,,,,
Raw,5700,5700000000,18,,668347,0.0,,-83.459,,,20,,1,,,13,,,,,,,,,,,,,,
Raw,5800,5800000000,18,,668339,0.0,,-83.459,,,12,,1,,,25,,,,,,,,,,,,,,
Raw,5800,5800000000,18,,668339,0.0,,-83.459,,,14,,1,,,13,,,,,,,,,,,,,,
Raw,5800,5800000000,18,,668339,0.0,,-83.459,,,20,,1,,,13,,,,,,,,,,,,,,
Raw,5900,5900000000,18,,668331,0.0,,-83.459,,,12,,1,,,26,,,,,,,,,,,,,,
Raw,5900,5900000000,18,,668331,0.0,,-83.459,,,14,,1,,,13,,,,,,,,,,,,,,
Raw,5900,5900000000,18,,668331,0.0,,-83.459,,,20,,1,,,13,,,,,,,,,,,,,,
Raw,6000,6000000000,18,,668322,0.0,,-83.459,,,12,,1,,,26,,,,,,,,,,,,,,
Raw,6000,6000000000,18,,668322,0.0,,-83.459,,,14,,1,,,12,,,,,,,,,,,,,,
Raw,6000,6000000000,18,,668322,0.0,,-83.459,,,20,,1,,,13,,,,,,,,,,,,,,
Raw,6100,6100000000,18,,668314,0.0,,-83.459,,,12,,1,,,26,,,,,,,,,,,,,,
Raw,6100,6100000000,18,,668314,0.0,,-83.459,,,14,,1,,,13,,,,,,,,,,,,,,
Raw,6100,6100000000,18,,668314,0.0,,-83.459,,,20,,1,,,13,,,,,,,,,,,,,,
Raw,6200,6200000000,18,,668306,0.0,,-83.459,,,12,,1,,,26,,,,,,,,,,,,,,
Raw,6200,6200000000,18,,668306,0.0,,-83.459,,,14,,1,,,12,,,,,,,,,,,,,,
Raw,6200,6200000000,18,,668306,0.0,,-83.459,,,20,,1,,,13,,,,,,,,,,,,,,
Raw,6300,6300000000,18,,668297,0.0,,-83.459,,,12,,1,,,25,,,,,,,,,,,,,,
Raw,6300,6300000000,18,,668297,0.0,,-83.459,,,14,,1,,,12,,,,,,,,,,,,,,
Raw,6300,6300000000,18,,668297,0.0,,-83.459,,,20,,1,,,13,,,,,,,,,,,,,,
Raw,6400,6400000000,18,,668289,0.0,,-83.459,,,12,,1,,,26,,,,,,,,,,,,,,
Raw,6400,6400000000,18,,668289,0.0,,-83.459,,,14,,1,,,12,,,,,,,,,,,,,,
Raw,6400,6400000000,18,,668289,0.0,,-83.459,,,20,,1,,,13,,,,,,,,,,,,,,
Raw,6500,6500000000,18,,668281,0.0,,-83.459,,,12,,1,,,26,,,,,,,,,,,,,,
Raw,6500,6500000000,18,,668281,0.0,,-83.459,,,14,,1,,,12,,,,,,,,,,,,,,
Raw,6500,6500000000,18,,668281,0.0,,-83.459,,,20,,1,,,14,,,,,,,,,,,,,,
Raw,6500,6500000000,18,,668281,0.0,,-83.459,,,32,,1,,,17,,,,,,,,,,,,,,
Raw,6600,6600000000,18,,668272,0.0,,-83.459,,,12,,1,,,26,,,,,,,,,,,,,,
Raw,6600,6600000000,18,,668272,0.0,,-83.459,,,20,,1,,,14,,,,,,,,,,,,,,
Raw,6600,6600000000,18,,668272,0.0,,-83.459,,,32,,1,,,17,,,,,,,,,,,,,,
Raw,6700,6700000000,18,,668264,0.0,,-83.459,,,12,,1,,,26,,,,,,,,,,,,,,
Raw,6700,6700000000,18,,668264,0.0,,-83.459,,,20,,1,,,14,,,,,,,,,,,,,,
Raw,6700,6700000000,18,,668264,0.0,,-83.459,,,32,,1,,,17,,,,,,,,,,,,,,
Raw,6800,6800000000,18,,668255,0.0,,-83.459,,,12,,1,,,26,,,,,,,,,,,,,,
Raw,6800,6800000000,18,,668255,0.0,,-83.459,,,20,,1,,,14,,,,,,,,,,,,,,
Raw,6800,6800000000,18,,668255,0.0,,-83.459,,,31,,1,,,16,,,,,,,,,,,,,,
Raw,6800,6800000000,18,,668255,0.0,,-83.459,,,32,,1,,,17,,,,,,,,,,,,,,
Raw,6900,6900000000,18,,668247,0.0,,-83.459,,,12,,1,,,26,,,,,,,,,,,,,,
Raw,6900,6900000000,18,,668247,0.0,,-83.459,,,20,,1,,,14,,,,,,,,,,,,,,
Raw,6900,6900000000,18,,668247,0.0,,-83.459,,,31,,1,,,16,,,,,,,,,,,,,,
Raw,6900,6900000000,18,,668247,0.0,,-83.459,,,32,,1,,,17,,,,,,,,,,,,,,
Raw,7000,7000000000,18,,668239,0.0,,-83.459,,,12,,1,,,26,,,,,,,,,,,,,,
Raw,7000,7000000000,18,,668239,0.0,,-83.459,,,20,,1,,,14,,,,,,,,,,,,,,
Raw,7000,7000000000,18,,668239,0.0,,-83.459,,,31,,1,,,15,,,,,,,,,,,,,,
Raw,7000,7000000000,18,,668239,0.0,,-83.459,,,32,,1,,,17,,,,,,,,,,,,,,
Raw,7100,7100000000,18,,668230,0.0,,-83.459,,,12,,1,,,26,,,,,,,,,,,,,,
Raw,7100,7100000000,18,,668230,0.0,,-83.459,,,20,,1,,,14,,,,,,,,,,,,,,
Raw,7100,7100000000,18,,668230,0.0,,-83.459,,,31,,1,,,15,,,,,,,,,,,,,,
Raw,7100,7100000000,18,,668230,0.0,,-83.459,,,32,,1,,,17,,,,,,,,,,,,,,
Raw,7200,7200000000,18,,668222,0.0,,-83.459,,,12,,1,,,26,,,,,,,,,,,,,,
Raw,7200,7200000000,18,,668222,0.0,,-83.459,,,20,,1,,,14,,,,,,,,,,,,,,
Raw,7200,7200000000,18,,668222,0.0,,-83.459,,,31,,1,,,15,,,,,,,,,,,,,,
Raw,7200,7200000000,18,,668222,0.0,,-83.459,,,32,,1,,,16,,,,,,,,,,,,,,
Raw,7300,7300000000,18,,668214,0.0,,-83.459,,,10,,1,,,16,,,,,,,,,,,,,,
Raw,7300,7300000000,18,,668214,0.0,,-83.459,,,12,,1,,,26,,,,,,,,,,,,,,
Raw,7300,7300000000,18,,668214,0.0,,-83.459,,,20,,1,,,14,,,,,,,,,,,,,,
Raw,7300,7300000000,18,,668214,0.0,,-83.459,,,31,,1,,,15,,,,,,,,,,,,,,
Raw,7300,7300000000,18,,668214,0.0,,-83.459,,,32,,1,,,16,,,,,,,,,,,,,,
Raw,7400,7400000000,18,,668205,0.0,,-83.459,,,10,,1,,,16,,,,,,,,,,,,,,
Raw,7400,7400000000,18,,668205,0.0,,-83.459,,,12,,1,,,26,,,,,,,,,,,,,,
Raw,7400,7400000000,18,,668205,0.0,,-83.459,,,20,,1,,,14,,,,,,,,,,,,,,
Raw,7400,7400000000,18,,668205,0.0,,-83.459,,,31,,1,,,15,,,,,,,,,,,,,,
Raw,7400,7400000000,18,,668205,0.0,,-83.459,,,32,,1,,,16,,,,,,,,,,,,,,
Raw,7500,7500000000,18,,668197,0.0,,-83.459,,,10,,1,,,16,,,,,,,,,,,,,,
Raw,7500,7500000000,18,,668197,0.0,,-83.459,,,12,,1,,,26,,,,,,,,,,,,,,
Raw,7500,7500000000,18,,668197,0.0,,-83.459,,,20,,1,,,14,,,,,,,,,,,,,,
Raw,7500,7500000000,18,,668197,0.0,,-83.459,,,31,,1,,,15,,,,,,,,,,,,,,
Raw,7500,7500000000,18,,668197,0.0,,-83.459,,,32,,1,,,16,,,,,,,,,,,,,,
Raw,7600,7600000000,18,,668189,0.0,,-83.459,,,10,,1,,,16,,,,,,,,,,,,,,
Raw,7600,7600000000,18,,668189,0.0,,-83.459,,,12,,1,,,26,,,,,,,,,,,,,,
Raw,7600,7600000000,18,,668189,0.0,,-83.459,,,20,,1,,,14,,,,,,,,,,,,,,
Raw,7600,7600000000,18,,668189,0.0,,-83.459,,,31,,1,,,15,,,,,,,,,,,,,,
Raw,7600,7600000000,18,,668189,0.0,,-83.459,,,32,,1,,,16,,,,,,,,,,,,,,
Raw,7700,7700000000,18,,668180,0.0,,-83.459,,,10,,1,,,16,,,,,,,,,,,,,,
Raw,7700,7700000000,18,,668180,0.0,,-83.459,,,12,,1,,,26,,,,,,,,,,,,,,
Raw,7700,7700000000,18,,668180,0.0,,-83.459,,,20,,1,,,14,,,,,,,,,,,,,,
Raw,7700,7700000000,18,,668180,0.0,,-83.459,,,31,,1,,,15,,,,,,,,,,,,,,
Raw,7700,7700000000,18,,668180,0.0,,-83.459,,,32,,1,,,16,,,,,,,,,,,,,,
Raw,7800,7800000000,18,,668172,0.0,,-83.459,,,10,,1,,,16,,,,,,,,,,,,,,
Raw,7800,7800000000,18,,668172,0.0,,-83.459,,,12,,1,,,26,,,,,,,,,,,,,,
Raw,7800,7800000000,18,,668172,0.0,,-83.459,,,20,,1,,,14,,,,,,,,,,,,,,
Raw,7800,7800000000,18,,668172,0.0,,-83.459,,,31,,1,,,15,,,,,,,,,,,,,,
Raw,7800,7800000000,18,,668172,0.0,,-83.459,,,32,,1,,,16,,,,,,,,,,,,,,
Raw,7900,7900000000,18,,668164,0.0,,-83.459,,,10,,1,,,16,,,,,,,,,,,,,,
Raw,7900,7900000000,18,,668164,0.0,,-83.459,,,12,,1,,,26,,,,,,,,,,,,,,
Raw,7900,7900000000,18,,668164,0.0,,-83.459,,,20,,1,,,14,,,,,,,,,,,,,,
Raw,7900,7900000000,18,,668164,0.0,,-83.459,,,31,,1,,,15,,,,,,,,,,,,,,
Raw,7900,7900000000,18,,668164,0.0,,-83.459,,,32,,1,,,16,,,,,,,,,,,,,,
Raw,8000,8000000000,18,,668155,0.0,,-83.459,,,10,,1,,,16,,,,,,,,,,,,,,
Raw,8000,8000000000,18,,668155,0.0,,-83.459,,,12,,1,,,26,,,,,,,,,,,,,,
Raw,8000,8000000000,18,,668155,0.0,,-83.459,,,20,,1,,,14,,,,,,,,,,,,,,
Raw,8000,8000000000,18,,668155,0.0,,-83.459,,,31,,1,,,15,,,,,,,,,,,,,,
Raw,8000,8000000000,18,,668155,0.0,,-83.459,,,32,,1,,,16,,,,,,,,,,,,,,
Raw,8100,8100000000,18,,668147,0.0,,-83.459,,,10,,1,,,16,,,,,,,,,,,,,,
Raw,8100,8100000000,18,,668147,0.0,,-83.459,,,12,,1,,,26,,,,,,,,,,,,,,
Raw,8100,8100000000,18,,668147,0.0,,-83.459,,,20,,1,,,14,,,,,,,,,,,,,,
Raw,8100,8100000000,18,,668147,0.0,,-83.459,,,31,,1,,,15,,,,,,,,,,,,,,
Raw,8100,8100000000,18,,668147,0.0,,-83.459,,,32,,1,,,16,,,,,,,,,,,,,,
Raw,8200,8200000000,18,,668139,0.0,,-83.459,,,10,,1,,,16,,,,,,,,,,,,,,
Raw,8200,8200000000,18,,668139,0.0,,-83.459,,,12,,1,,,26,,,,,,,,,,,,,,
Raw,8200,8200000000,18,,668139,0.0,,-83.459,,,20,,1,,,15,,,,,,,,,,,,,,
Raw,8200,8200000000,18,,668139,0.0,,-83.459,,,31,,1,,,15,,,,,,,,,,,,,,
Raw,8200,8200000000,18,,668139,0.0,,-83.459,,,32,,1,,,16,,,,,,,,,,,,,,
Raw,8300,8300000000,18,,668130,0.0,,-83.459,,,10,,1,,,16,,,,,,,,,,,,,,
Raw,8300,8300000000,18,,668130,0.0,,-83.459,,,12,,1,,,26,,,,,,,,,,,,,,
Raw,8300,8300000000,18,,668130,0.0,,-83.459,,,20,,1,,,15,,,,,,,,,,,,,,
Raw,8300,8300000000,18,,668130,0.0,,-83.459,,,31,,1,,,15,,,,,,,,,,,,,,
Raw,8300,8300000000,18,,668130,0.0,,-83.459,,,32,,1,,,15,,,,,,,,,,,,,,
Raw,8400,8400000000,18,,668122,0.0,,-83.459,,,10,,1,,,16,,,,,,,,,,,,,,
Raw,8400,8400000000,18,,668122,0.0,,-83.459,,,12,,1,,,26,,,,,,,,,,,,,,
Raw,8400,8400000000,18,,668122,0.0,,-83.459,,,20,,1,,,15,,,,,,,,,,,,,,
Raw,8400,8400000000,18,,668122,0.0,,-83.459,,,31,,1,,,15,,,,,,,,,,,,,,
Raw,8400,8400000000,18,,668122,0.0,,-83.459,,,32,,1,,,15,,,,,,,,,,,,,,
Raw,8500,8500000000,18,,668114,0.0,,-83.459,,,10,,1,,,15,,,,,,,,,,,,,,
Raw,8500,8500000000,18,,668114,0.0,,-83.459,,,12,,1,,,26,,,,,,,,,,,,,,
Raw,8500,8500000000,18,,668114,0.0,,-83.459,,,20,,1,,,15,,,,,,,,,,,,,,
Raw,8500,8500000000,18,,668114,0.0,,-83.459,,,31,,1,,,15,,,,,,,,,,,,,,
Raw,8500,8500000000,18,,668114,0.0,,-83.459,,,32,,1,,,15,,,,,,,,,,,,,,
Raw,8600,8600000000,18,,668105,0.0,,-83.459,,,10,,1,,,15,,,,,,,,,,,,,,
Raw,8600,8600000000,18,,668105,0.0,,-83.459,,,12,,1,,,26,,,,,,,,,,,,,,
Raw,8600,8600000000,18,,668105,0.0,,-83.459,,,20,,1,,,15,,,,,,,,,,,,,,
Raw,8600,8600000000,18,,668105,0.0,,-83.459,,,31,,1,,,15,,,,,,,,,,,,,,
Raw,8600,8600000000,18,,668105,0.0,,-83.459,,,32,,1,,,15,,,,,,,,,,,,,,
Raw,8700,8700000000,18,,668097,0.0,,-83.459,,,10,,1,,,16,,,,,,,,,,,,,,
Raw,8700,8700000000,18,,668097,0.0,,-83.459,,,12,,1,,,26,,,,,,,,,,,,,,
Raw,8700,8700000000,18,,668097,0.0,,-83.459,,,20,,1,,,15,,,,,,,,,,,,,,
Raw,8700,8700000000,18,,668097,0.0,,-83.459,,,22,,1,,,17,,,,,,,,,,,,,,
Raw,8700,8700000000,18,,668097,0.0,,-83.459,,,31,,1,,,15,,,,,,,,,,,,,,
Raw,8700,8700000000,18,,668097,0.0,,-83.459,,,32,,1,,,15,,,,,,,,,,,,,,
Raw,8800,8800000000,18,,668089,0.0,,-83.459,,,10,,1,,,16,,,,,,,,,,,,,,
Raw,8800,8800000000,18,,668089,0.0,,-83.459,,,12,,1,,,26,,,,,,,,,,,,,,
Raw,8800,8800000000,18,,668089,0.0,,-83.459,,,20,,1,,,15,,,,,,,,,,,,,,
Raw,8800,8800000000,18,,668089,0.0,,-83.459,,,22,,1,,,17,,,,,,,,,,,,,,
Raw,8800,8800000000,18,,668089,0.0,,-83.459,,,31,,1,,,15,,,,,,,,,,,,,,
Raw,8800,8800000000,18,,668089,0.0,,-83.459,,,32,,1,,,15,,,,,,,,,,,,,,
Raw,8900,8900000000,18,,668080,0.0,,-83.459,,,10,,1,,,16,,,,,,,,,,,,,,
Raw,8900,8900000000,18,,668080,0.0,,-83.459,,,12,,1,,,26,,,,,,,,,,,,,,
Raw,8900,8900000000,18,,668080,0.0,,-83.459,,,20,,1,,,15,,,,,,,,,,,,,,
Raw,8900,8900000000,18,,668080,0.0,,-83.459,,,22,,1,,,17,,,,,,,,,,,,,,
Raw,8900,8900000000,18,,668080,0.0,,-83.459,,,31,,1,,,15,,,,,,,,,,,,,,
Raw,8900,8900000000,18,,668080,0.0,,-83.459,,,32,,1,,,15,,,,,,,,,,,,,,
Raw,9000,9000000000,18,,668072,0.0,,-83.459,,,10,,1,,,15,,,,,,,,,,,,,,
Raw,9000,9000000000,18,,668072,0.0,,-83.459,,,12,,1,,,26,,,,,,,,,,,,,,
Raw,9000,9000000000,18,,668072,0.0,,-83.459,,,20,,1,,,15,,,,,,,,,,,,,,
Raw,9000,9000000000,18,,668072,0.0,,-83.459,,,22,,1,,,17,,,,,,,,,,,,,,
Raw,9000,9000000000,18,,668072,0.0,,-83.459,,,25,,1,,,14,,,,,,,,,,,,,,
Raw,9000,9000000000,18,,668072,0.0,,-83.459,,,31,,1,,,15,,,,,,,,,,,,,,
Raw,9000,9000000000,18,,668072,0.0,,-83.459,,,32,,1,,,15,,,,,,,,,,,,,,
Raw,9200,9200000000,18,,668055,0.0,,-83.459,,,10,,1,,,15,,,,,,,,,,,,,,
Raw,9200,9200000000,18,,668055,0.0,,-83.459,,,12,,1,,,26,,,,,,,,,,,,,,
Raw,9200,9200000000,18,,668055,0.0,,-83.459,,,20,,1,,,14,,,,,,,,,,,,,,
Raw,9200,9200000000,18,,668055,0.0,,-83.459,,,22,,1,,,17,,,,,,,,,,,,,,
Raw,9200,9200000000,18,,668055,0.0,,-83.459,,,25,,1,,,13,,,,,,,,,,,,,,
Raw,9200,9200000000,18,,668055,0.0,,-83.459,,,31,,1,,,15,,,,,,,,,,,,,,
Raw,9200,9200000000,18,,668055,0.0,,-83.459,,,32,,1,,,15,,,,,,,,,,,,,,
Raw,9300,9300000000,18,,668047,0.0,,-83.459,,,10,,1,,,15,,,,,,,,,,,,,,
Raw,9300,9300000000,18,,668047,0.0,,-83.459,,,12,,1,,,26,,,,,,,,,,,,,,
Raw,9300,9300000000,18,,668047,0.0,,-83.459,,,20,,1,,,14,,,,,,,,,,,,,,
Raw,9300,9300000000,18,,668047,0.0,,-83.459,,,22,,1,,,17,,,,,,,,,,,,,,
Raw,9300,9300000000,18,,668047,0.0,,-83.459,,,25,,1,,,13,,,,,,,,,,,,,,
Raw,9300,9300000000,18,,668047,0.0,,-83.459,,,31,,1,,,15,,,,,,,,,,,,,,
Raw,9300,9300000000,18,,668047,0.0,,-83.459,,,32,,1,,,15,,,,,,,,,,,,,,
Raw,9400,9400000000,18,,668038,0.0,,-83.459,,,10,,1,,,15,,,,,,,,,,,,,,
Raw,9400,9400000000,18,,668038,0.0,,-83.459,,,12,,1,,,26,,,,,,,,,,,,,,
Raw,9400,9400000000,18,,668038,0.0,,-83.459,,,20,,1,,,14,,,,,,,,,,,,,,
Raw,9400,9400000000,18,,668038,0.0,,-83.459,,,22,,1,,,17,,,,,,,,,,,,,,
Raw,9400,9400000000,18,,668038,0.0,,-83.459,,,25,,1,,,13,,,,,,,,,,,,,,
Raw,9400,9400000000,18,,668038,0.0,,-83.459,,,31,,1,,,15,,,,,,,,,,,,,,
Raw,9400,9400000000,18,,668038,0.0,,-83.459,,,32,,1,,,15,,,,,,,,,,,,,,
Raw,9500,9500000000,18,,668030,0.0,,-83.459,,,10,,1,,,15,,,,,,,,,,,,,,
Raw,9500,9500000000,18,,668030,0.0,,-83.459,,,12,,1,,,26,,,,,,,,,,,,,,
Raw,9500,9500000000,18,,668030,0.0,,-83.459,,,20,,1,,,14,,,,,,,,,,,,,,
Raw,9500,9500000000,18,,668030,0.0,,-83.459,,,22,,1,,,17,,,,,,,,,,,,,,
Raw,9500,9500000000,18,,668030,0.0,,-83.459,,,25,,1,,,14,,,,,,,,,,,,,,
Raw,9500,9500000000,18,,668030,0.0,,-83.459,,,31,,1,,,15,,,,,,,,,,,,,,
Raw,9500,9500000000,18,,668030,0.0,,-83.459,,,32,,1,,,15,,,,,,,,,,,,,,
Raw,9600,9600000000,18,,668022,0.0,,-83.459,,,10,,1,,,15,,,,,,,,,,,,,,
Raw,9600,9600000000,18,,668022,0.0,,-83.459,,,12,,1,,,26,,,,,,,,,,,,,,
Raw,9600,9600000000,18,,668022,0.0,,-83.459,,,20,,1,,,14,,,,,,,,,,,,,,
Raw,9600,9600000000,18,,668022,0.0,,-83.459,,,22,,1,,,17,,,,,,,,,,,,,,
Raw,9600,9600000000,18,,668022,0.0,,-83.459,,,25,,1,,,14,,,,,,,,,,,,,,
Raw,9600,9600000000,18,,668022,0.0,,-83.459,,,31,,1,,,15,,,,,,,,,,,,,,
Raw,9700,9700000000,18,,668013,0.0,,-83.459,,,10,,1,,,15,,,,,,,,,,,,,,
Raw,9700,9700000000,18,,668013,0.0,,-83.459,,,12,,1,,,26,,,,,,,,,,,,,,
Raw,9700,9700000000,18,,668013,0.0,,-83.459,,,22,,1,,,17,,,,,,,,,,,,,,
Raw,9700,9700000000,18,,668013,0.0,,-83.459,,,25,,1,,,14,,,,,,,,,,,,,,
Raw,9700,9700000000,18,,668013,0.0,,-83.459,,,31,,1,,,15,,,,,,,,,,,,,,
Raw,9800,9800000000,18,,668005,0.0,,-83.459,,,10,,1,,,15,,,,,,,,,,,,,,
Raw,9800,9800000000,18,,668005,0.0,,-83.459,,,12,,1,,,26,,,,,,,,,,,,,,
Raw,9800,9800000000,18,,668005,0.0,,-83.459,,,22,,1,,,17,,,,,,,,,,,,,,
Raw,9800,9800000000,18,,668005,0.0,,-83.459,,,25,,1,,,14,,,,,,,,,,,,,,
Raw,9800,9800000000,18,,668005,0.0,,-83.459,,,31,,1,,,15,,,,,,,,,,,,,,
Raw,9900,9900000000,18,,667997,0.0,,-83.459,,,10,,1,,,15,,,,,,,,,,,,,,
Raw,9900,9900000000,18,,667997,0.0,,-83.459,,,12,,1,,,26,,,,,,,,,,,,,,
Raw,9900,9900000000,18,,667997,0.0,,-83.459,,,22,,1,,,17,,,,,,,,,,,,,,
Raw,9900,9900000000,18,,667997,0.0,,-83.459,,,25,,1,,,15,,,,,,,,,,,,,,
Raw,9900,9900000000,18,,667997,0.0,,-83.459,,,31,,1,,,15,,,,,,,,,,,,,,
Raw,10000,10000000000,18,,667988,0.0,,-83.459,,,10,,1,,,15,,,,,,,,,,,,,,
Raw,10000,10000000000,18,,667988,0.0,,-83.459,,,12,,1,,,26,,,,,,,,,,,,,,
Raw,10000,10000000000,18,,667988,0.0,,-83.459,,,22,,1,,,17,,,,,,,,,,,,,,
Raw,10000,10000000000,18,,667988,0.0,,-83.459,,,25,,1,,,14,,,,,,,,,,,,,,
Raw,10000,10000000000,18,,667988,0.0,,-83.459,,,31,,1,,,15,,,,,,,,,,,,,,
Raw,10100,10100000000,18,,667980,0.0,,-83.459,,,10,,1,,,15,,,,,,,,,,,,,,
Raw,10100,10100000000,18,,667980,0.0,,-83.459,,,12,,1,,,26,,,,,,,,,,,,,,
Raw,10100,10100000000,18,,667980,0.0,,-83.459,,,22,,1,,,17,,,,,,,,,,,,,,
Raw,10100,10100000000,18,,667980,0.0,,-83.459,,,25,,1,,,14,,,,,,,,,,,,,,
Raw,10100,10100000000,18,,667980,0.0,,-83.459,,,31,,1,,,15,,,,,,,,,,,,,,
Raw,10200,10200000000,18,,667972,0.0,,-83.459,,,10,,1,,,15,,,,,,,,,,,,,,
Raw,10200,10200000000,18,,667972,0.0,,-83.459,,,12,,1,,,26,,,,,,,,,,,,,,
Raw,10200,10200000000,18,,667972,0.0,,-83.459,,,22,,1,,,17,,,,,,,,,,,,,,
Raw,10200,10200000000,18,,667972,0.0,,-83.459,,,25,,1,,,15,,,,,,,,,,,,,,
Raw,10200,10200000000,18,,667972,0.0,,-83.459,,,31,,1,,,15,,,,,,,,,,,,,,
Raw,10300,10300000000,18,,667963,0.0,,-83.459,,,10,,1,,,15,,,,,,,,,,,,,,
Raw,10300,10300000000,18,,667963,0.0,,-83.459,,,12,,1,,,26,,,,,,,,,,,,,,
Raw,10300,10300000000,18,,667963,0.0,,-83.459,,,20,,1,,,18,,,,,,,,,,,,,,
Raw,10300,10300000000,18,,667963,0.0,,-83.459,,,22,,1,,,17,,,,,,,,,,,,,,
Raw,10300,10300000000,18,,667963,0.0,,-83.459,,,25,,1,,,14,,,,,,,,,,,,,,
Raw,10300,10300000000,18,,667963,0.0,,-83.459,,,31,,1,,,15,,,,,,,,,,,,,,
Raw,10400,10400000000,18,,667955,0.0,,-83.459,,,10,,1,,,15,,,,,,,,,,,,,,
Raw,10400,10400000000,18,,667955,0.0,,-83.459,,,12,,1,,,26,,,,,,,,,,,,,,
Raw,10400,10400000000,18,,667955,0.0,,-83.459,,,20,,1,,,17,,,,,,,,,,,,,,
Raw,10400,10400000000,18,,667955,0.0,,-83.459,,,22,,1,,,17,,,,,,,,,,,,,,
Raw,10400,10400000000,18,,667955,0.0,,-83.459,,,25,,1,,,15,,,,,,,,,,,,,,
Raw,10400,10400000000,18,,667955,0.0,,-83.459,,,31,,1,,,16,,,,,,,,,,,,,,
Raw,10500,10500000000,18,,667947,0.0,,-83.459,,,10,,1,,,15,,,,,,,,,,,,,,
Raw,10500,10500000000,18,,667947,0.0,,-83.459,,,12,,1,,,26,,,,,,,,,,,,,,
Raw,10500,10500000000,18,,667947,0.0,,-83.459,,,20,,1,,,17,,,,,,,,,,,,,,
Raw,10500,10500000000,18,,667947,0.0,,-83.459,,,22,,1,,,17,,,,,,,,,,,,,,
Raw,10500,10500000000,18,,667947,0.0,,-83.459,,,25,,1,,,15,,,,,,,,,,,,,,
Raw,10500,10500000000,18,,667947,0.0,,-83.459,,,31,,1,,,16,,,,,,,,,,,,,,
Raw,10500,10500000000,18,,667947,0.0,,-83.459,,,32,,1,,,17,,,,,,,,,,,,,,
Raw,10600,10600000000,18,,667938,0.0,,-83.459,,,10,,1,,,15,,,,,,,,,,,,,,
Raw,10600,10600000000,18,,667938,0.0,,-83.459,,,12,,1,,,26,,,,,,,,,,,,,,
Raw,10600,10600000000,18,,667938,0.0,,-83.459,,,20,,1,,,17,,,,,,,,,,,,,,
Raw,10600,10600000000,18,,667938,0.0,,-83.459,,,22,,1,,,17,,,,,,,,,,,,,,
Raw,10600,10600000000,18,,667938,0.0,,-83.459,,,25,,1,,,15,,,,,,,,,,,,,,
Raw,10600,10600000000,18,,667938,0.0,,-83.459,,,31,,1,,,16,,,,,,,,,,,,,,
Raw,10600,10600000000,18,,667938,0.0,,-83.459,,,32,,1,,,16,,,,,,,,,,,,,,
Raw,10700,10700000000,18,,667930,0.0,,-83.459,,,10,,1,,,15,,,,,,,,,,,,,,
Raw,10700,10700000000,18,,667930,0.0,,-83.459,,,12,,1,,,26,,,,,,,,,,,,,,
Raw,10700,10700000000,18,,667930,0.0,,-83.459,,,20,,1,,,17,,,,,,,,,,,,,,
Raw,10700,10700000000,18,,667930,0.0,,-83.459,,,22,,1,,,17,,,,,,,,,,,,,,
Raw,10700,10700000000,18,,667930,0.0,,-83.459,,,25,,1,,,15,,,,,,,,,,,,,,
Raw,10700,10700000000,18,,667930,0.0,,-83.459,,,31,,1,,,15,,,,,,,,,,,,,,
Raw,10700,10700000000,18,,667930,0.0,,-83.459,,,32,,1,,,16,,,,,,,,,,,,,,
Raw,10800,10800000000,18,,667922,0.0,,-83.459,,,10,,1,,,15,,,,,,,,,,,,,,
Raw,10800,10800000000,18,,667922,0.0,,-83.459,,,12,,1,,,26,,,,,,,,,,,,,,
Raw,10800,10800000000,18,,667922,0.0,,-83.459,,,20,,1,,,16,,,,,,,,,,,,,,
Raw,10800,10800000000,18,,667922,0.0,,-83.459,,,22,,1,,,17,,,,,,,,,,,,,,
Raw,10800,10800000000,18,,667922,0.0,,-83.459,,,25,,1,,,15,,,,,,,,,,,,,,
Raw,10800,10800000000,18,,667922,0.0,,-83.459,,,31,,1,,,15,,,,,,,,,,,,,,
Raw,10800,10800000000,18,,667922,0.0,,-83.459,,,32,,1,,,16,,,,,,,,,,,,,,
Raw,10900,10900000000,18,,667913,0.0,,-83.459,,,10,,1,,,15,,,,,,,,,,,,,,
Raw,10900,10900000000,18,,667913,0.0,,-83.459,,,12,,1,,,26,,,,,,,,,,,,,,
Raw,10900,10900000000,18,,667913,0.0,,-83.459,,,20,,1,,,16,,,,,,,,,,,,,,
Raw,10900,10900000000,18,,667913,0.0,,-83.459,,,22,,1,,,17,,,,,,,,,,,,,,
Raw,10900,10900000000,18,,667913,0.0,,-83.459,,,25,,1,,,15,,,,,,,,,,,,,,
Raw,10900,10900000000,18,,667913,0.0,,-83.459,,,31,,1,,,15,,,,,,,,,,,,,,
Raw,10900,10900000000,18,,667913,0.0,,-83.459,,,32,,1,,,16,,,,,,,,,,,,,,
Raw,11000,11000000000,18,,667905,0.0,,-83.459,,,10,,1,,,16,,,,,,,,,,,,,,
Raw,11000,11000000000,18,,667905,0.0,,-83.459,,,12,,1,,,26,,,,,,,,,,,,,,
Raw,11000,11000000000,18,,667905,0.0,,-83.459,,,14,,1,,,18,,,,,,,,,,,,,,
Raw,11000,11000000000,18,,667905,0.0,,-83.459,,,20,,1,,,16,,,,,,,,,,,,,,
Raw,11000,11000000000,18,,667905,0.0,,-83.459,,,22,,1,,,17,,,,,,,,,,,,,,
Raw,11000,11000000000,18,,667905,0.0,,-83.459,,,31,,1,,,15,,,,,,,,,,,,,,
Raw,11000,11000000000,18,,667905,0.0,,-83.459,,,32,,1,,,16,,,,,,,,,,,,,,
Raw,11100,11100000000,18,,667897,0.0,,-83.459,,,10,,1,,,16,,,,,,,,,,,,,,
Raw,11100,11100000000,18,,667897,0.0,,-83.459,,,12,,1,,,26,,,,,,,,,,,,,,
Raw,11100,11100000000,18,,667897,0.0,,-83.459,,,14,,1,,,18,,,,,,,,,,,,,,
Raw,11100,11100000000,18,,667897,0.0,,-83.459,,,20,,1,,,16,,,,,,,,,,,,,,
Raw,11100,11100000000,18,,667897,0.0,,-83.459,,,22,,1,,,16,,,,,,,,,,,,,,
Raw,11100,11100000000,18,,667897,0.0,,-83.459,,,31,,1,,,15,,,,,,,,,,,,,,
Raw,11100,11100000000,18,,667897,0.0,,-83.459,,,32,,1,,,16,,,,,,,,,,,,,,
Raw,11200,11200000000,18,,668825,0.0,,-82.630,,,10,,1,,,16,,,,,,,,,,,,,,
Raw,11200,11200000000,18,,668825,0.0,,-82.630,,,12,,1,,,26,,,,,,,,,,,,,,
Raw,11200,11200000000,18,,668825,0.0,,-82.630,,,14,,1,,,18,,,,,,,,,,,,,,
Raw,11200,11200000000,18,,668825,0.0,,-82.630,,,20,,1,,,16,,,,,,,,,,,,,,
Raw,11200,11200000000,18,,668825,0.0,,-82.630,,,22,,1,,,16,,,,,,,,,,,,,,
Raw,11200,11200000000,18,,668825,0.0,,-82.630,,,31,,1,,,15,,,,,,,,,,,,,,
Raw,11200,11200000000,18,,668825,0.0,,-82.630,,,32,,1,,,16,,,,,,,,,,,,,,
Raw,11300,11300000000,18,,669156,0.0,,-81.671,,,10,,1,,,16,,,,,,,,,,,,,,
Raw,11300,11300000000,18,,669156,0.0,,-81.671,,,12,,1,,,26,,,,,,,,,,,,,,
Raw,11300,11300000000,18,,669156,0.0,,-81.671,,,14,,1,,,18,,,,,,,,,,,,,,
Raw,11300,11300000000,18,,669156,0.0,,-81.671,,,20,,1,,,16,,,,,,,,,,,,,,
Raw,11300,11300000000,18,,669156,0.0,,-81.671,,,22,,1,,,16,,,,,,,,,,,,,,
Raw,11300,11300000000,18,,669156,0.0,,-81.671,,,31,,1,,,15,,,,,,,,,,,,,,
Raw,11300,11300000000,18,,669156,0.0,,-81.671,,,32,,1,,,16,,,,,,,,,,,,,,
Raw,11400,11400000000,18,,669323,0.0,,-80.848,,,10,,1,,,16,,,,,,,,,,,,,,
Raw,11400,11400000000,18,,669323,0.0,,-80.848,,,12,,1,,,26,,,,,,,,,,,,,,
Raw,11400,11400000000,18,,669323,0.0,,-80.848,,,14,,1,,,18,,,,,,,,,,,,,,
Raw,11400,11400000000,18,,669323,0.0,,-80.848,,,20,,1,,,15,,,,,,,,,,,,,,
Raw,11400,11400000000,18,,669323,0.0,,-80.848,,,22,,1,,,16,,,,,,,,,,,,,,
Raw,11400,11400000000,18,,669323,0.0,,-80.848,,,31,,1,,,15,,,,,,,,,,,,,,
Raw,11400,11400000000,18,,669323,0.0,,-80.848,,,32,,1,,,16,,,,,,,,,,,,,,
Raw,11500,11500000000,18,,669425,0.0,,-80.604,,,10,,1,,,16,,,,,,,,,,,,,,
Raw,11500,11500000000,18,,669425,0.0,,-80.604,,,12,,1,,,26,,,,,,,,,,,,,,
Raw,11500,11500000000,18,,669425,0.0,,-80.604,,,14,,1,,,17,,,,,,,,,,,,,,
Raw,11500,11500000000,18,,669425,0.0,,-80.604,,,20,,1,,,15,,,,,,,,,,,,,,
Raw,11500,11500000000,18,,669425,0.0,,-80.604,,,22,,1,,,15,,,,,,,,,,,,,,
Raw,11500,11500000000,18,,669425,0.0,,-80.604,,,31,,1,,,15,,,,,,,,,,,,,,
Raw,11500,11500000000,18,,669425,0.0,,-80.604,,,32,,1,,,16,,,,,,,,,,,,,,
Raw,11600,11600000000,18,,669493,0.0,,-80.471,,,10,,1,,,16,,,,,,,,,,,,,,
Raw,11600,11600000000,18,,669493,0.0,,-80.471,,,12,,1,,,26,,,,,,,,,,,,,,
Raw,11600,11600000000,18,,669493,0.0,,-80.471,,,14,,1,,,17,,,,,,,,,,,,,,
Raw,11600,11600000000,18,,669493,0.0,,-80.471,,,20,,1,,,15,,,,,,,,,,,,,,
Raw,11600,11600000000,18,,669493,0.0,,-80.471,,,22,,1,,,15,,,,,,,,,,,,,,
Raw,11600,11600000000,18,,669493,0.0,,-80.471,,,31,,1,,,15,,,,,,,,,,,,,,
Raw,11600,11600000000,18,,669493,0.0,,-80.471,,,32,,1,,,16,,,,,,,,,,,,,,
Raw,11700,11700000000,18,,669542,0.0,,-80.463,,,10,,1,,,16,,,,,,,,,,,,,,
Raw,11700,11700000000,18,,669542,0.0,,-80.463,,,12,,1,,,26,,,,,,,,,,,,,,
Raw,11700,11700000000,18,,669542,0.0,,-80.463,,,14,,1,,,17,,,,,,,,,,,,,,
Raw,11700,11700000000,18,,669542,0.0,,-80.463,,,20,,1,,,15,,,,,,,,,,,,,,
Raw,11700,11700000000,18,,669542,0.0,,-80.463,,,22,,1,,,15,,,,,,,,,,,,,,
Raw,11700,11700000000,18,,669542,0.0,,-80.463,,,31,,1,,,15,,,,,,,,,,,,,,
Raw,11700,11700000000,18,,669542,0.0,,-80.463,,,32,,1,,,16,,,,,,,,,,,,,,
Raw,11800,11800000000,18,,669577,0.0,,-80.420,,,10,,1,,,16,,,,,,,,,,,,,,
Raw,11800,11800000000,18,,669577,0.0,,-80.420,,,12,,1,,,26,,,,,,,,,,,,,,
Raw,11800,11800000000,18,,669577,0.0,,-80.420,,,14,,1,,,17,,,,,,,,,,,,,,
Raw,11800,11800000000,18,,669577,0.0,,-80.420,,,20,,1,,,15,,,,,,,,,,,,,,
Raw,11800,11800000000,18,,669577,0.0,,-80.420,,,22,,1,,,15,,,,,,,,,,,,,,
Raw,11800,11800000000,18,,669577,0.0,,-80.420,,,31,,1,,,14,,,,,,,,,,,,,,
Raw,11800,11800000000,18,,669577,0.0,,-80.420,,,32,,1,,,16,,,,,,,,,,,,,,
Raw,11900,11900000000,18,,669604,0.0,,-80.439,,,10,,1,,,16,,,,,,,,,,,,,,
Raw,11900,11900000000,18,,669604,0.0,,-80.439,,,12,,1,,,26,,,,,,,,,,,,,,
Raw,11900,11900000000,18,,669604,0.0,,-80.439,,,14,,1,,,17,,,,,,,,,,,,,,
Raw,11900,11900000000,18,,669604,0.0,,-80.439,,,20,,1,,,15,,,,,,,,,,,,,,
Raw,11900,11900000000,18,,669604,0.0,,-80.439,,,22,,1,,,15,,,,,,,,,,,,,,
Raw,11900,11900000000,18,,669604,0.0,,-80.439,,,31,,1,,,14,,,,,,,,,,,,,,
Raw,11900,11900000000,18,,669604,0.0,,-80.439,,,32,,1,,,16,,,,,,,,,,,,,,
