# 
# Header Description:
# 
# Version: v2.0.0.1 Platform: 8.0.0 Manufacturer: Xiaomi Model: MIX 2
# 
# Raw,ElapsedRealtimeMillis,TimeNanos,LeapSecond,TimeUncertaintyNanos,FullBiasNanos,BiasNanos,BiasUncertaintyNanos,DriftNanosPerSecond,DriftUncertaintyNanosPerSecond,HardwareClockDiscontinuityCount,Svid,TimeOffsetNanos,State,ReceivedSvTimeNanos,ReceivedSvTimeUncertaintyNanos,Cn0DbHz,PseudorangeRateMetersPerSecond,PseudorangeRateUncertaintyMetersPerSecond,AccumulatedDeltaRangeState,AccumulatedDeltaRangeMeters,AccumulatedDeltaRangeUncertaintyMeters,CarrierFrequencyHz,CarrierCycles,CarrierPhase,CarrierPhaseUncertainty,MultipathIndicator,SnrInDb,ConstellationType,AgcDb,CarrierFrequencyHz
# 
# Fix,Provider,Latitude,Longitude,Altitude,Speed,Accuracy,(UTC)TimeInMs
# 
# Nav,Svid,Type,Status,MessageId,Sub-messageId,Data(Bytes)
# 
Raw,254356017,32837180000000,,,-1221706151265885952,0.0,25.6287312367931,-7.253294747117328,8.02458712011385,51,10,0.0,15,42988377151196,5,48.3,-326.45166015625,0.06430000066757202,0,0.0,0.0,,,,,0,,1,,
Raw,254356018,32837180000000,,,-1221706151265885952,0.0,25.6287312367931,-7.253294747117328,8.02458712011385,51,12,0.0,15,42988371937636,5,46.4,2.5037636756896973,0.07349999994039536,0,0.0,0.0,,,,,0,,1,,
Raw,254356019,32837180000000,,,-1221706151265885952,0.0,25.6287312367931,-7.253294747117328,8.02458712011385,51,14,0.0,15,42988366641131,4,44.6,-267.1430358886719,0.08130000531673431,0,0.0,0.0,,,,,0,,1,,
Raw,254356020,32837180000000,,,-1221706151265885952,0.0,25.6287312367931,-7.253294747117328,8.02458712011385,51,15,0.0,15,42988364187013,4,42.6,366.4209899902344,0.08480000495910645,0,0.0,0.0,,,,,0,,1,,
Raw,254356021,32837180000000,,,-1221706151265885952,0.0,25.6287312367931,-7.253294747117328,8.02458712011385,51,20,0.0,15,42988379240548,4,51.0,77.41407012939453,0.06130000203847885,0,0.0,0.0,,,,,0,,1,,
Raw,254356021,32837180000000,,,-1221706151265885952,0.0,25.6287312367931,-7.253294747117328,8.02458712011385,51,21,0.0,15,42988369949539,4,45.6,466.0833740234375,0.07660000026226044,0,0.0,0.0,,,,,0,,1,,
Raw,254356022,32837180000000,,,-1221706151265885952,0.0,25.6287312367931,-7.253294747117328,8.02458712011385,51,24,0.0,15,42988367824540,4,43.6,611.3135375976562,0.08009999990463257,0,0.0,0.0,,,,,0,,1,,
Raw,254356023,32837180000000,,,-1221706151265885952,0.0,25.6287312367931,-7.253294747117328,8.02458712011385,51,25,0.0,15,42988373078405,5,47.6,-412.2433166503906,0.07030000537633896,0,0.0,0.0,,,,,0,,1,,
Raw,254356023,32837180000000,,,-1221706151265885952,0.0,25.6287312367931,-7.253294747117328,8.02458712011385,51,31,0.0,15,42988369497347,4,45.4,-537.3536987304688,0.07660000026226044,0,0.0,0.0,,,,,0,,1,,
Raw,254356024,32837180000000,,,-1221706151265885952,0.0,25.6287312367931,-7.253294747117328,8.02458712011385,51,32,0.0,15,42988370877823,5,47.0,-234.17803955078125,0.07480000704526901,0,0.0,0.0,,,,,0,,1,,
Raw,254357010,32838180000000,,,-1221706151265885952,0.0,22.759964849683456,-6.8665236387901825,10.6502858897285,51,10,0.0,15,42989377152288,5,48.3,-328.1649169921875,0.04330000281333923,0,0.0,0.0,,,,,0,,1,,
Raw,254357010,32838180000000,,,-1221706151265885952,0.0,22.759964849683456,-6.8665236387901825,10.6502858897285,51,12,0.0,15,42989371937625,5,46.1,0.8305608034133911,0.03450000286102295,0,0.0,0.0,,,,,0,,1,,
Raw,254357011,32838180000000,,,-1221706151265885952,0.0,22.759964849683456,-6.8665236387901825,10.6502858897285,51,14,0.0,15,42989366642027,4,44.6,-268.9253845214844,0.027300002053380013,0,0.0,0.0,,,,,0,,1,,
Raw,254357011,32838180000000,,,-1221706151265885952,0.0,22.759964849683456,-6.8665236387901825,10.6502858897285,51,15,0.0,15,42989364185799,5,41.1,364.6569519042969,0.025100000202655792,0,0.0,0.0,,,,,0,,1,,
Raw,254357012,32838180000000,,,-1221706151265885952,0.0,22.759964849683456,-6.8665236387901825,10.6502858897285,51,20,0.0,15,42989379240294,4,51.0,75.7286605834961,0.046300001442432404,0,0.0,0.0,,,,,0,,1,,
Raw,254357013,32838180000000,,,-1221706151265885952,0.0,22.759964849683456,-6.8665236387901825,10.6502858897285,51,21,0.0,15,42989369947989,4,45.0,464.3263244628906,0.03160000219941139,0,0.0,0.0,,,,,0,,1,,
Raw,254357013,32838180000000,,,-1221706151265885952,0.0,22.759964849683456,-6.8665236387901825,10.6502858897285,51,24,0.0,15,42989367822504,4,43.5,609.5410766601562,0.029100000858306885,0,0.0,0.0,,,,,0,,1,,
Raw,254357014,32838180000000,,,-1221706151265885952,0.0,22.759964849683456,-6.8665236387901825,10.6502858897285,51,25,0.0,15,42989373079777,5,46.7,-413.9556884765625,0.03750000149011612,0,0.0,0.0,,,,,0,,1,,
Raw,254357014,32838180000000,,,-1221706151265885952,0.0,22.759964849683456,-6.8665236387901825,10.6502858897285,51,31,0.0,15,42989369499137,4,45.1,-539.0786743164062,0.03160000219941139,0,0.0,0.0,,,,,0,,1,,
Raw,254357015,32838180000000,,,-1221706151265885952,0.0,22.759964849683456,-6.8665236387901825,10.6502858897285,51,32,0.0,15,42989370878603,5,46.4,-235.95306396484375,0.032999999821186066,0,0.0,0.0,,,,,0,,1,,
Raw,254357967,32839180000000,,,-1221706151265885952,0.0,20.314140783739276,-12.780239681433299,10.49218765014212,51,10,0.0,15,42990377153376,5,48.4,-326.8855285644531,0.04330000281333923,0,0.0,0.0,,,,,0,,1,,
Raw,254357968,32839180000000,,,-1221706151265885952,0.0,20.314140783739276,-12.780239681433299,10.49218765014212,51,12,0.0,15,42990371937616,5,46.5,2.1571133136749268,0.03450000286102295,0,0.0,0.0,,,,,0,,1,,
Raw,254357968,32839180000000,,,-1221706151265885952,0.0,20.314140783739276,-12.780239681433299,10.49218765014212,51,14,0.0,15,42990366642920,4,44.7,-267.7127990722656,0.027300002053380013,0,0.0,0.0,,,,,0,,1,,
Raw,254357969,32839180000000,,,-1221706151265885952,0.0,20.314140783739276,-12.780239681433299,10.49218765014212,51,15,0.0,15,42990364184571,5,41.0,365.8726806640625,0.025100000202655792,0,0.0,0.0,,,,,0,,1,,
Raw,254357969,32839180000000,,,-1221706151265885952,0.0,20.314140783739276,-12.780239681433299,10.49218765014212,51,20,0.0,15,42990379240030,4,50.4,77.03411865234375,0.046300001442432404,0,0.0,0.0,,,,,0,,1,,
Raw,254357970,32839180000000,,,-1221706151265885952,0.0,20.314140783739276,-12.780239681433299,10.49218765014212,51,21,0.0,15,42990369946436,4,44.5,465.5625305175781,0.03180000185966492,0,0.0,0.0,,,,,0,,1,,
Raw,254357970,32839180000000,,,-1221706151265885952,0.0,20.314140783739276,-12.780239681433299,10.49218765014212,51,24,0.0,15,42990367820465,4,43.4,610.7552490234375,0.029100000858306885,0,0.0,0.0,,,,,0,,1,,
Raw,254357971,32839180000000,,,-1221706151265885952,0.0,20.314140783739276,-12.780239681433299,10.49218765014212,51,25,0.0,15,42990373081156,5,47.4,-412.6680908203125,0.037300001829862595,0,0.0,0.0,,,,,0,,1,,
Raw,254357971,32839180000000,,,-1221706151265885952,0.0,20.314140783739276,-12.780239681433299,10.49218765014212,51,31,0.0,15,42990369500929,4,44.6,-537.8006591796875,0.03180000185966492,0,0.0,0.0,,,,,0,,1,,
Raw,254357972,32839180000000,,,-1221706151265885952,0.0,20.314140783739276,-12.780239681433299,10.49218765014212,51,32,0.0,15,42990370879384,5,46.8,-234.74758911132812,0.032999999821186066,0,0.0,0.0,,,,,0,,1,,
Raw,254359005,32840180000000,,,-1221706151265885952,0.0,18.033359083347023,-8.724636034505236,9.515058043183618,51,10,0.0,15,42991377154461,5,47.4,-325.89508056640625,0.04330000281333923,0,0.0,0.0,,,,,0,,1,,
Raw,254359005,32840180000000,,,-1221706151265885952,0.0,18.033359083347023,-8.724636034505236,9.515058043183618,51,12,0.0,15,42991371937597,5,46.3,3.181373119354248,0.03450000286102295,0,0.0,0.0,,,,,0,,1,,
Raw,254359006,32840180000000,,,-1221706151265885952,0.0,18.033359083347023,-8.724636034505236,9.515058043183618,51,14,0.0,15,42991366643811,4,43.9,-266.8138427734375,0.0276000015437603,0,0.0,0.0,,,,,0,,1,,
Raw,254359006,32840180000000,,,-1221706151265885952,0.0,18.033359083347023,-8.724636034505236,9.515058043183618,51,15,0.0,15,42991364183350,5,41.0,366.7727966308594,0.025100000202655792,0,0.0,0.0,,,,,0,,1,,
Raw,254359006,32840180000000,,,-1221706151265885952,0.0,18.033359083347023,-8.724636034505236,9.515058043183618,51,20,0.0,15,42991379239769,4,50.2,78.05809783935547,0.046300001442432404,0,0.0,0.0,,,,,0,,1,,
Raw,254359007,32840180000000,,,-1221706151265885952,0.0,18.033359083347023,-8.724636034505236,9.515058043183618,51,21,0.0,15,42991369944871,4,44.3,466.4955139160156,0.03180000185966492,0,0.0,0.0,,,,,0,,1,,
Raw,254359008,32840180000000,,,-1221706151265885952,0.0,18.033359083347023,-8.724636034505236,9.515058043183618,51,24,0.0,15,42991367818416,4,42.9,611.6656494140625,0.02930000051856041,0,0.0,0.0,,,,,0,,1,,
Raw,254359008,32840180000000,,,-1221706151265885952,0.0,18.033359083347023,-8.724636034505236,9.515058043183618,51,25,0.0,15,42991373082526,5,47.0,-411.6799011230469,0.037300001829862595,0,0.0,0.0,,,,,0,,1,,
Raw,254359008,32840180000000,,,-1221706151265885952,0.0,18.033359083347023,-8.724636034505236,9.515058043183618,51,31,0.0,15,42991369502723,4,44.6,-536.829833984375,0.03180000185966492,0,0.0,0.0,,,,,0,,1,,
Raw,254359009,32840180000000,,,-1221706151265885952,0.0,18.033359083347023,-8.724636034505236,9.515058043183618,51,32,0.0,15,42991370880161,5,46.7,-233.8462677001953,0.032999999821186066,0,0.0,0.0,,,,,0,,1,,
Raw,254359994,32841180000000,,,-1221706151265885952,0.0,17.176811525132507,-5.747292029549071,9.51503895649299,51,10,0.0,15,42992377155546,5,46.7,-325.5442810058594,0.04350000247359276,0,0.0,0.0,,,,,0,,1,,
Raw,254359994,32841180000000,,,-1221706151265885952,0.0,17.176811525132507,-5.747292029549071,9.51503895649299,51,12,0.0,15,42992371937586,4,45.1,3.568476676940918,0.03460000082850456,0,0.0,0.0,,,,,0,,1,,
Raw,254359995,32841180000000,,,-1221706151265885952,0.0,17.176811525132507,-5.747292029549071,9.51503895649299,51,14,0.0,15,42992366644696,4,43.9,-266.546875,0.0276000015437603,0,0.0,0.0,,,,,0,,1,,
Raw,254359995,32841180000000,,,-1221706151265885952,0.0,17.176811525132507,-5.747292029549071,9.51503895649299,51,15,0.0,15,42992364182112,4,42.1,367.04925537109375,0.024800000712275505,0,0.0,0.0,,,,,0,,1,,
Raw,254359995,32841180000000,,,-1221706151265885952,0.0,17.176811525132507,-5.747292029549071,9.51503895649299,51,20,0.0,15,42992379239504,4,49.9,78.43560028076172,0.046300001442432404,0,0.0,0.0,,,,,0,,1,,
Raw,254359996,32841180000000,,,-1221706151265885952,0.0,17.176811525132507,-5.747292029549071,9.51503895649299,51,21,0.0,15,42992369943308,4,44.9,466.794921875,0.03180000185966492,0,0.0,0.0,,,,,0,,1,,
Raw,254359996,32841180000000,,,-1221706151265885952,0.0,17.176811525132507,-5.747292029549071,9.51503895649299,51,24,0.0,15,42992367816374,4,42.9,611.9376831054688,0.02930000051856041,0,0.0,0.0,,,,,0,,1,,
Raw,254359997,32841180000000,,,-1221706151265885952,0.0,17.176811525132507,-5.747292029549071,9.51503895649299,51,25,0.0,15,42992373083894,5,47.0,-411.3282775878906,0.037300001829862595,0,0.0,0.0,,,,,0,,1,,
Raw,254359997,32841180000000,,,-1221706151265885952,0.0,17.176811525132507,-5.747292029549071,9.51503895649299,51,31,0.0,15,42992369504506,4,44.7,-536.4923706054688,0.03180000185966492,0,0.0,0.0,,,,,0,,1,,
Raw,254359997,32841180000000,,,-1221706151265885952,0.0,17.176811525132507,-5.747292029549071,9.51503895649299,51,32,0.0,15,42992370880937,5,46.1,-233.57720947265625,0.032999999821186066,0,0.0,0.0,,,,,0,,1,,
Raw,254360957,32842180000000,,,-1221706151265885952,0.0,16.5673245646758,-4.85021717239622,9.515019074523586,51,10,0.0,15,42993377156628,4,44.4,-325.4386901855469,0.043800003826618195,0,0.0,0.0,,,,,0,,1,,
Raw,254360957,32842180000000,,,-1221706151265885952,0.0,16.5673245646758,-4.85021717239622,9.515019074523586,51,12,0.0,15,42993371937576,5,41.1,3.7191007137298584,0.035600002855062485,0,0.0,0.0,,,,,0,,1,,
Raw,254360958,32842180000000,,,-1221706151265885952,0.0,16.5673245646758,-4.85021717239622,9.515019074523586,51,14,0.0,15,42993366645582,6,39.2,-266.6209411621094,0.028600001707673073,0,0.0,0.0,,,,,0,,1,,
Raw,254360958,32842180000000,,,-1221706151265885952,0.0,16.5673245646758,-4.85021717239622,9.515019074523586,51,15,0.0,15,42993364180890,7,37.2,366.9757080078125,0.026600001379847527,0,0.0,0.0,,,,,0,,1,,
Raw,254360959,32842180000000,,,-1221706151265885952,0.0,16.5673245646758,-4.85021717239622,9.515019074523586,51,20,0.0,15,42993379239241,5,46.6,78.47005462646484,0.04650000110268593,0,0.0,0.0,,,,,0,,1,,
Raw,254360959,32842180000000,,,-1221706151265885952,0.0,16.5673245646758,-4.85021717239622,9.515019074523586,51,21,0.0,15,42993369941762,5,40.1,466.74395751953125,0.03290000185370445,0,0.0,0.0,,,,,0,,1,,
Raw,254360959,32842180000000,,,-1221706151265885952,0.0,16.5673245646758,-4.85021717239622,9.515019074523586,51,24,0.0,15,42993367814341,6,39.2,611.8716430664062,0.030100001022219658,0,0.0,0.0,,,,,0,,1,,
Raw,254360960,32842180000000,,,-1221706151265885952,0.0,16.5673245646758,-4.85021717239622,9.515019074523586,51,25,0.0,15,42993373085273,4,42.6,-411.31976318359375,0.03830000013113022,0,0.0,0.0,,,,,0,,1,,
Raw,254360960,32842180000000,,,-1221706151265885952,0.0,16.5673245646758,-4.85021717239622,9.515019074523586,51,31,0.0,15,42993369506295,5,40.1,-536.6032104492188,0.03290000185370445,0,0.0,0.0,,,,,0,,1,,
Raw,254360961,32842180000000,,,-1221706151265885952,0.0,16.5673245646758,-4.85021717239622,9.515019074523586,51,32,0.0,15,42993370881717,5,41.7,-233.656494140625,0.0340999998152256,0,0.0,0.0,,,,,0,,1,,
Raw,254361955,32843180000000,,,-1221706151265885952,0.0,16.110567230498418,-5.275678195544376,9.514999987832958,51,10,0.0,15,42994377157719,5,47.2,-324.9743957519531,0.04330000281333923,0,0.0,0.0,,,,,0,,1,,
Raw,254361955,32843180000000,,,-1221706151265885952,0.0,16.110567230498418,-5.275678195544376,9.514999987832958,51,12,0.0,15,42994371937557,4,45.4,4.2147040367126465,0.03460000082850456,0,0.0,0.0,,,,,0,,1,,
Raw,254361956,32843180000000,,,-1221706151265885952,0.0,16.110567230498418,-5.275678195544376,9.514999987832958,51,14,0.0,15,42994366646473,4,43.9,-266.14703369140625,0.0276000015437603,0,0.0,0.0,,,,,0,,1,,
Raw,254361956,32843180000000,,,-1221706151265885952,0.0,16.110567230498418,-5.275678195544376,9.514999987832958,51,15,0.0,15,42994364179680,5,41.5,367.4618225097656,0.025100000202655792,0,0.0,0.0,,,,,0,,1,,
Raw,254361956,32843180000000,,,-1221706151265885952,0.0,16.110567230498418,-5.275678195544376,9.514999987832958,51,20,0.0,15,42994379238983,4,50.6,79.06214904785156,0.046300001442432404,0,0.0,0.0,,,,,0,,1,,
Raw,254361957,32843180000000,,,-1221706151265885952,0.0,16.110567230498418,-5.275678195544376,9.514999987832958,51,21,0.0,15,42994369940205,4,44.2,467.2540588378906,0.03180000185966492,0,0.0,0.0,,,,,0,,1,,
Raw,254361957,32843180000000,,,-1221706151265885952,0.0,16.110567230498418,-5.275678195544376,9.514999987832958,51,24,0.0,15,42994367812294,4,43.0,612.3544311523438,0.029100000858306885,0,0.0,0.0,,,,,0,,1,,
Raw,254361958,32843180000000,,,-1221706151265885952,0.0,16.110567230498418,-5.275678195544376,9.514999987832958,51,25,0.0,15,42994373086644,5,46.9,-410.75390625,0.03750000149011612,0,0.0,0.0,,,,,0,,1,,
Raw,254361958,32843180000000,,,-1221706151265885952,0.0,16.110567230498418,-5.275678195544376,9.514999987832958,51,31,0.0,15,42994369508089,4,43.8,-535.9525146484375,0.032099999487400055,0,0.0,0.0,,,,,0,,1,,
Raw,254361958,32843180000000,,,-1221706151265885952,0.0,16.110567230498418,-5.275678195544376,9.514999987832958,51,32,0.0,15,42994370882497,5,46.3,-233.1683349609375,0.032999999821186066,0,0.0,0.0,,,,,0,,1,,
Raw,254362956,32844180000000,,,-1221706151265885952,0.0,15.755391359562054,-3.523387979622088,9.514980105863554,51,10,0.0,15,42995377158797,4,49.2,-324.9726257324219,0.04330000281333923,0,0.0,0.0,,,,,0,,1,,
Raw,254362956,32844180000000,,,-1221706151265885952,0.0,15.755391359562054,-3.523387979622088,9.514980105863554,51,12,0.0,15,42995371937543,5,46.3,4.25919771194458,0.03450000286102295,0,0.0,0.0,,,,,0,,1,,
Raw,254362956,32844180000000,,,-1221706151265885952,0.0,15.755391359562054,-3.523387979622088,9.514980105863554,51,14,0.0,15,42995366647355,4,44.7,-266.2200622558594,0.027300002053380013,0,0.0,0.0,,,,,0,,1,,
Raw,254362957,32844180000000,,,-1221706151265885952,0.0,15.755391359562054,-3.523387979622088,9.514980105863554,51,15,0.0,15,42995364178448,4,42.1,367.3924255371094,0.024800000712275505,0,0.0,0.0,,,,,0,,1,,
Raw,254362957,32844180000000,,,-1221706151265885952,0.0,15.755391359562054,-3.523387979622088,9.514980105863554,51,20,0.0,15,42995379238714,4,51.7,79.1008071899414,0.046300001442432404,0,0.0,0.0,,,,,0,,1,,
Raw,254362958,32844180000000,,,-1221706151265885952,0.0,15.755391359562054,-3.523387979622088,9.514980105863554,51,21,0.0,15,42995369938640,4,45.0,467.21044921875,0.03160000219941139,0,0.0,0.0,,,,,0,,1,,
Raw,254362958,32844180000000,,,-1221706151265885952,0.0,15.755391359562054,-3.523387979622088,9.514980105863554,51,24,0.0,15,42995367810252,4,42.9,612.2931518554688,0.02930000051856041,0,0.0,0.0,,,,,0,,1,,
Raw,254362959,32844180000000,,,-1221706151265885952,0.0,15.755391359562054,-3.523387979622088,9.514980105863554,51,25,0.0,15,42995373088005,5,47.5,-410.74761962890625,0.037300001829862595,0,0.0,0.0,,,,,0,,1,,
Raw,254362959,32844180000000,,,-1221706151265885952,0.0,15.755391359562054,-3.523387979622088,9.514980105863554,51,31,0.0,15,42995369509868,4,44.6,-535.9569702148438,0.03180000185966492,0,0.0,0.0,,,,,0,,1,,
Raw,254362960,32844180000000,,,-1221706151265885952,0.0,15.755391359562054,-3.523387979622088,9.514980105863554,51,32,0.0,15,42995370883271,5,46.6,-233.2346954345703,0.032999999821186066,0,0.0,0.0,,,,,0,,1,,
Raw,254363954,32845180000000,,,-1221706151265885952,0.0,15.47142892377451,-3.7571804554844106,9.514961019172926,51,10,0.0,15,42996377159873,5,47.4,-324.6133117675781,0.04330000281333923,0,0.0,0.0,,,,,0,,1,,
Raw,254363954,32845180000000,,,-1221706151265885952,0.0,15.47142892377451,-3.7571804554844106,9.514961019172926,51,12,0.0,15,42996371937524,5,46.0,4.658111572265625,0.03450000286102295,0,0.0,0.0,,,,,0,,1,,
Raw,254363954,32845180000000,,,-1221706151265885952,0.0,15.47142892377451,-3.7571804554844106,9.514961019172926,51,14,0.0,15,42996366648239,4,44.7,-265.93994140625,0.027300002053380013,0,0.0,0.0,,,,,0,,1,,
Raw,254363955,32845180000000,,,-1221706151265885952,0.0,15.47142892377451,-3.7571804554844106,9.514961019172926,51,15,0.0,15,42996364177212,4,42.6,367.6767578125,0.024800000712275505,0,0.0,0.0,,,,,0,,1,,
Raw,254363955,32845180000000,,,-1221706151265885952,0.0,15.47142892377451,-3.7571804554844106,9.514961019172926,51,20,0.0,15,42996379238444,4,51.2,79.49011993408203,0.046300001442432404,0,0.0,0.0,,,,,0,,1,,
Raw,254363955,32845180000000,,,-1221706151265885952,0.0,15.47142892377451,-3.7571804554844106,9.514961019172926,51,21,0.0,15,42996369937075,4,45.0,467.5161437988281,0.03160000219941139,0,0.0,0.0,,,,,0,,1,,
Raw,254363956,32845180000000,,,-1221706151265885952,0.0,15.47142892377451,-3.7571804554844106,9.514961019172926,51,24,0.0,15,42996367808198,4,43.4,612.5712280273438,0.029100000858306885,0,0.0,0.0,,,,,0,,1,,
Raw,254363956,32845180000000,,,-1221706151265885952,0.0,15.47142892377451,-3.7571804554844106,9.514961019172926,51,25,0.0,15,42996373089371,5,47.6,-410.38482666015625,0.037300001829862595,0,0.0,0.0,,,,,0,,1,,
Raw,254363957,32845180000000,,,-1221706151265885952,0.0,15.47142892377451,-3.7571804554844106,9.514961019172926,51,31,0.0,15,42996369511652,4,45.4,-535.6128540039062,0.03160000219941139,0,0.0,0.0,,,,,0,,1,,
Raw,254363957,32845180000000,,,-1221706151265885952,0.0,15.47142892377451,-3.7571804554844106,9.514961019172926,51,32,0.0,15,42996370884039,5,46.8,-232.95840454101562,0.032999999821186066,0,0.0,0.0,,,,,0,,1,,
Raw,254364975,32846180000000,,,-1221706151265885952,0.0,15.239427739288658,-2.838809225624041,9.514941932482298,51,10,0.0,15,42997377160955,5,47.0,-324.83514404296875,0.04330000281333923,0,0.0,0.0,,,,,0,,1,,
Raw,254364976,32846180000000,,,-1221706151265885952,0.0,15.239427739288658,-2.838809225624041,9.514941932482298,51,12,0.0,15,42997371937505,4,44.8,4.469328880310059,0.03480000048875809,0,0.0,0.0,,,,,0,,1,,
Raw,254364977,32846180000000,,,-1221706151265885952,0.0,15.239427739288658,-2.838809225624041,9.514941932482298,51,14,0.0,15,42997366649121,4,43.2,-266.2540283203125,0.0276000015437603,0,0.0,0.0,,,,,0,,1,,
Raw,254364977,32846180000000,,,-1221706151265885952,0.0,15.239427739288658,-2.838809225624041,9.514941932482298,51,15,0.0,15,42997364175990,5,41.3,367.3750915527344,0.025100000202655792,0,0.0,0.0,,,,,0,,1,,
Raw,254364978,32846180000000,,,-1221706151265885952,0.0,15.239427739288658,-2.838809225624041,9.514941932482298,51,20,0.0,15,42997379238176,4,49.9,79.29398345947266,0.046300001442432404,0,0.0,0.0,,,,,0,,1,,
Raw,254364978,32846180000000,,,-1221706151265885952,0.0,15.239427739288658,-2.838809225624041,9.514941932482298,51,21,0.0,15,42997369935508,4,43.7,467.23980712890625,0.032099999487400055,0,0.0,0.0,,,,,0,,1,,
Raw,254364979,32846180000000,,,-1221706151265885952,0.0,15.239427739288658,-2.838809225624041,9.514941932482298,51,24,0.0,15,42997367806152,5,41.7,612.2786865234375,0.029600001871585846,0,0.0,0.0,,,,,0,,1,,
Raw,254364979,32846180000000,,,-1221706151265885952,0.0,15.239427739288658,-2.838809225624041,9.514941932482298,51,25,0.0,15,42997373090735,5,46.1,-410.607177734375,0.03750000149011612,0,0.0,0.0,,,,,0,,1,,
Raw,254364980,32846180000000,,,-1221706151265885952,0.0,15.239427739288658,-2.838809225624041,9.514941932482298,51,31,0.0,15,42997369513439,4,44.1,-535.8511962890625,0.03180000185966492,0,0.0,0.0,,,,,0,,1,,
Raw,254364980,32846180000000,,,-1221706151265885952,0.0,15.239427739288658,-2.838809225624041,9.514941932482298,51,32,0.0,15,42997370884816,4,45.1,-233.2657012939453,0.03310000151395798,0,0.0,0.0,,,,,0,,1,,
Raw,254365987,32847180000000,,,-1221706151265885952,0.0,15.046569387777708,-3.8668971154440537,9.51492284579167,51,10,0.0,15,42998377162043,5,47.1,-324.8074035644531,0.04330000281333923,0,0.0,0.0,,,,,0,,1,,
Raw,254365988,32847180000000,,,-1221706151265885952,0.0,15.046569387777708,-3.8668971154440537,9.51492284579167,51,12,0.0,15,42998371937492,4,44.8,4.5332350730896,0.03480000048875809,0,0.0,0.0,,,,,0,,1,,
Raw,254365988,32847180000000,,,-1221706151265885952,0.0,15.046569387777708,-3.8668971154440537,9.51492284579167,51,14,0.0,15,42998366650017,4,42.4,-266.31732177734375,0.027800001204013824,0,0.0,0.0,,,,,0,,1,,
Raw,254365989,32847180000000,,,-1221706151265885952,0.0,15.046569387777708,-3.8668971154440537,9.51492284579167,51,15,0.0,15,42998364174762,5,40.6,367.3250732421875,0.02540000155568123,0,0.0,0.0,,,,,0,,1,,
Raw,254365989,32847180000000,,,-1221706151265885952,0.0,15.046569387777708,-3.8668971154440537,9.51492284579167,51,20,0.0,15,42998379237914,4,50.0,79.35089874267578,0.046300001442432404,0,0.0,0.0,,,,,0,,1,,
Raw,254365990,32847180000000,,,-1221706151265885952,0.0,15.046569387777708,-3.8668971154440537,9.51492284579167,51,21,0.0,15,42998369933959,4,43.6,467.2149963378906,0.032099999487400055,0,0.0,0.0,,,,,0,,1,,
Raw,254365991,32847180000000,,,-1221706151265885952,0.0,15.046569387777708,-3.8668971154440537,9.51492284579167,51,24,0.0,15,42998367804119,5,41.9,612.225341796875,0.029600001871585846,0,0.0,0.0,,,,,0,,1,,
Raw,254365992,32847180000000,,,-1221706151265885952,0.0,15.046569387777708,-3.8668971154440537,9.51492284579167,51,25,0.0,15,42998373092110,4,45.7,-410.57781982421875,0.03760000318288803,0,0.0,0.0,,,,,0,,1,,
Raw,254365992,32847180000000,,,-1221706151265885952,0.0,15.046569387777708,-3.8668971154440537,9.51492284579167,51,31,0.0,15,42998369515226,4,43.0,-535.8377685546875,0.032099999487400055,0,0.0,0.0,,,,,0,,1,,
Raw,254365993,32847180000000,,,-1221706151265885952,0.0,15.046569387777708,-3.8668971154440537,9.51492284579167,51,32,0.0,15,42998370885599,4,45.0,-233.31851196289062,0.03310000151395798,0,0.0,0.0,,,,,0,,1,,
Raw,254366988,32848180000000,,,-1221706151265885952,0.0,14.883966287015937,-4.068378209909592,9.514902963822266,51,10,0.0,15,42999377163121,5,48.7,-324.53411865234375,0.04330000281333923,0,0.0,0.0,,,,,0,,1,,
Raw,254366989,32848180000000,,,-1221706151265885952,0.0,14.883966287015937,-4.068378209909592,9.514902963822266,51,12,0.0,15,42999371937462,4,45.6,4.849847316741943,0.03460000082850456,0,0.0,0.0,,,,,0,,1,,
Raw,254366989,32848180000000,,,-1221706151265885952,0.0,14.883966287015937,-4.068378209909592,9.514902963822266,51,14,0.0,15,42999366650897,4,44.0,-266.125732421875,0.027300002053380013,0,0.0,0.0,,,,,0,,1,,
Raw,254366990,32848180000000,,,-1221706151265885952,0.0,14.883966287015937,-4.068378209909592,9.514902963822266,51,15,0.0,15,42999364173532,5,41.6,367.5267333984375,0.025100000202655792,0,0.0,0.0,,,,,0,,1,,
Raw,254366990,32848180000000,,,-1221706151265885952,0.0,14.883966287015937,-4.068378209909592,9.514902963822266,51,20,0.0,15,42999379237646,4,51.0,79.65193176269531,0.046300001442432404,0,0.0,0.0,,,,,0,,1,,
Raw,254366990,32848180000000,,,-1221706151265885952,0.0,14.883966287015937,-4.068378209909592,9.514902963822266,51,21,0.0,15,42999369932390,4,43.7,467.4332580566406,0.032099999487400055,0,0.0,0.0,,,,,0,,1,,
Raw,254366991,32848180000000,,,-1221706151265885952,0.0,14.883966287015937,-4.068378209909592,9.514902963822266,51,24,0.0,15,42999367802066,4,42.4,612.4342651367188,0.02930000051856041,0,0.0,0.0,,,,,0,,1,,
Raw,254366992,32848180000000,,,-1221706151265885952,0.0,14.883966287015937,-4.068378209909592,9.514902963822266,51,25,0.0,15,42999373093474,5,46.8,-410.3009948730469,0.03750000149011612,0,0.0,0.0,,,,,0,,1,,
Raw,254366992,32848180000000,,,-1221706151265885952,0.0,14.883966287015937,-4.068378209909592,9.514902963822266,51,31,0.0,15,42999369517010,4,44.0,-535.5808715820312,0.03180000185966492,0,0.0,0.0,,,,,0,,1,,
Raw,254366993,32848180000000,,,-1221706151265885952,0.0,14.883966287015937,-4.068378209909592,9.514902963822266,51,32,0.0,15,42999370886373,5,46.1,-233.12548828125,0.032999999821186066,0,0.0,0.0,,,,,0,,1,,
Raw,254367951,32849180000000,,,-1221706151265885952,0.0,14.745249245606828,-3.4178183008407546,9.514883877131638,51,10,0.0,15,43000377164198,5,47.4,-324.2484436035156,0.04330000281333923,0,0.0,0.0,,,,,0,,1,,
Raw,254367951,32849180000000,,,-1221706151265885952,0.0,14.745249245606828,-3.4178183008407546,9.514883877131638,51,12,0.0,15,43000371937444,4,45.8,5.1738481521606445,0.03460000082850456,0,0.0,0.0,,,,,0,,1,,
Raw,254367952,32849180000000,,,-1221706151265885952,0.0,14.745249245606828,-3.4178183008407546,9.514883877131638,51,14,0.0,15,43000366651781,4,43.9,-265.92108154296875,0.0276000015437603,0,0.0,0.0,,,,,0,,1,,
Raw,254367952,32849180000000,,,-1221706151265885952,0.0,14.745249245606828,-3.4178183008407546,9.514883877131638,51,15,0.0,15,43000364172292,5,41.7,367.7344665527344,0.025100000202655792,0,0.0,0.0,,,,,0,,1,,
Raw,254367952,32849180000000,,,-1221706151265885952,0.0,14.745249245606828,-3.4178183008407546,9.514883877131638,51,20,0.0,15,43000379237374,4,51.1,79.96871948242188,0.046300001442432404,0,0.0,0.0,,,,,0,,1,,
Raw,254367953,32849180000000,,,-1221706151265885952,0.0,14.745249245606828,-3.4178183008407546,9.514883877131638,51,21,0.0,15,43000369930832,4,44.1,467.6702575683594,0.03180000185966492,0,0.0,0.0,,,,,0,,1,,
Raw,254367953,32849180000000,,,-1221706151265885952,0.0,14.745249245606828,-3.4178183008407546,9.514883877131638,51,24,0.0,15,43000367800021,4,42.6,612.642578125,0.02930000051856041,0,0.0,0.0,,,,,0,,1,,
Raw,254367954,32849180000000,,,-1221706151265885952,0.0,14.745249245606828,-3.4178183008407546,9.514883877131638,51,25,0.0,15,43000373094834,5,46.8,-410.0123291015625,0.03750000149011612,0,0.0,0.0,,,,,0,,1,,
Raw,254367954,32849180000000,,,-1221706151265885952,0.0,14.745249245606828,-3.4178183008407546,9.514883877131638,51,31,0.0,15,43000369518791,4,45.2,-535.3043212890625,0.03160000219941139,0,0.0,0.0,,,,,0,,1,,
Raw,254367954,32849180000000,,,-1221706151265885952,0.0,14.745249245606828,-3.4178183008407546,9.514883877131638,51,32,0.0,15,43000370887144,4,45.9,-232.9148712158203,0.03310000151395798,0,0.0,0.0,,,,,0,,1,,
Raw,254368985,32850180000000,,,-1221706151265885952,0.0,14.625732546846848,-2.736488061823645,9.51486479044101,51,10,0.0,15,43001377165278,5,47.5,-324.7745666503906,0.04330000281333923,0,0.0,0.0,,,,,0,,1,,
Raw,254368986,32850180000000,,,-1221706151265885952,0.0,14.625732546846848,-2.736488061823645,9.51486479044101,51,12,0.0,15,43001371937430,4,45.3,4.686882972717285,0.03460000082850456,0,0.0,0.0,,,,,0,,1,,
Raw,254368986,32850180000000,,,-1221706151265885952,0.0,14.625732546846848,-2.736488061823645,9.51486479044101,51,14,0.0,15,43001366652665,4,44.1,-266.53076171875,0.027300002053380013,0,0.0,0.0,,,,,0,,1,,
Raw,254368987,32850180000000,,,-1221706151265885952,0.0,14.625732546846848,-2.736488061823645,9.51486479044101,51,15,0.0,15,43001364171072,5,41.4,367.1291198730469,0.025100000202655792,0,0.0,0.0,,,,,0,,1,,
Raw,254368987,32850180000000,,,-1221706151265885952,0.0,14.625732546846848,-2.736488061823645,9.51486479044101,51,20,0.0,15,43001379237101,4,50.6,79.47270965576172,0.046300001442432404,0,0.0,0.0,,,,,0,,1,,
Raw,254368988,32850180000000,,,-1221706151265885952,0.0,14.625732546846848,-2.736488061823645,9.51486479044101,51,21,0.0,15,43001369929270,4,44.1,467.0897521972656,0.03180000185966492,0,0.0,0.0,,,,,0,,1,,
Raw,254368988,32850180000000,,,-1221706151265885952,0.0,14.625732546846848,-2.736488061823645,9.51486479044101,51,24,0.0,15,43001367797976,4,42.3,612.0413208007812,0.02930000051856041,0,0.0,0.0,,,,,0,,1,,
Raw,254368989,32850180000000,,,-1221706151265885952,0.0,14.625732546846848,-2.736488061823645,9.51486479044101,51,25,0.0,15,43001373096204,5,46.4,-410.5406494140625,0.03750000149011612,0,0.0,0.0,,,,,0,,1,,
Raw,254368989,32850180000000,,,-1221706151265885952,0.0,14.625732546846848,-2.736488061823645,9.51486479044101,51,31,0.0,15,43001369520572,4,44.0,-535.8419799804688,0.03180000185966492,0,0.0,0.0,,,,,0,,1,,
Raw,254368990,32850180000000,,,-1221706151265885952,0.0,14.625732546846848,-2.736488061823645,9.51486479044101,51,32,0.0,15,43001370887918,4,45.8,-233.51449584960938,0.03310000151395798,0,0.0,0.0,,,,,0,,1,,
Raw,254369986,32851180000000,,,-1221706151265885952,0.0,14.521885532303713,-4.769373506044613,9.514844908471606,51,10,0.0,15,43002377166363,5,47.9,-324.3280944824219,0.04330000281333923,0,0.0,0.0,,,,,0,,1,,
Raw,254369987,32851180000000,,,-1221706151265885952,0.0,14.521885532303713,-4.769373506044613,9.514844908471606,51,12,0.0,15,43002371937411,5,46.3,5.174825668334961,0.03450000286102295,0,0.0,0.0,,,,,0,,1,,
Raw,254369988,32851180000000,,,-1221706151265885952,0.0,14.521885532303713,-4.769373506044613,9.514844908471606,51,14,0.0,15,43002366653555,4,44.7,-266.1646423339844,0.027300002053380013,0,0.0,0.0,,,,,0,,1,,
Raw,254369989,32851180000000,,,-1221706151265885952,0.0,14.521885532303713,-4.769373506044613,9.514844908471606,51,15,0.0,15,43002364169849,4,42.2,367.5045166015625,0.024800000712275505,0,0.0,0.0,,,,,0,,1,,
Raw,254369989,32851180000000,,,-1221706151265885952,0.0,14.521885532303713,-4.769373506044613,9.514844908471606,51,20,0.0,15,43002379236840,4,51.0,79.94993591308594,0.046300001442432404,0,0.0,0.0,,,,,0,,1,,
Raw,254369990,32851180000000,,,-1221706151265885952,0.0,14.521885532303713,-4.769373506044613,9.514844908471606,51,21,0.0,15,43002369927711,4,44.9,467.48651123046875,0.03180000185966492,0,0.0,0.0,,,,,0,,1,,
Raw,254369991,32851180000000,,,-1221706151265885952,0.0,14.521885532303713,-4.769373506044613,9.514844908471606,51,24,0.0,15,43002367795934,4,43.9,612.4164428710938,0.029100000858306885,0,0.0,0.0,,,,,0,,1,,
Raw,254369991,32851180000000,,,-1221706151265885952,0.0,14.521885532303713,-4.769373506044613,9.514844908471606,51,25,0.0,15,43002373097573,5,47.4,-410.0894470214844,0.037300001829862595,0,0.0,0.0,,,,,0,,1,,
Raw,254369992,32851180000000,,,-1221706151265885952,0.0,14.521885532303713,-4.769373506044613,9.514844908471606,51,31,0.0,15,43002369522361,4,45.6,-535.4100952148438,0.03160000219941139,0,0.0,0.0,,,,,0,,1,,
Raw,254369993,32851180000000,,,-1221706151265885952,0.0,14.521885532303713,-4.769373506044613,9.514844908471606,51,32,0.0,15,43002370888701,5,46.7,-233.1487274169922,0.032999999821186066,0,0.0,0.0,,,,,0,,1,,
Raw,254370985,32852180000000,,,-1221706151265885952,0.0,14.518286661768798,-3.544898679959783,9.514825821780978,51,10,0.0,15,43003377167442,5,47.4,-324.9117431640625,0.04330000281333923,0,0.0,0.0,,,,,0,,1,,
Raw,254370986,32852180000000,,,-1221706151265885952,0.0,14.518286661768798,-3.544898679959783,9.514825821780978,51,12,0.0,15,43003371937393,4,45.8,4.628488063812256,0.03460000082850456,0,0.0,0.0,,,,,0,,1,,
Raw,254370986,32852180000000,,,-1221706151265885952,0.0,14.518286661768798,-3.544898679959783,9.514825821780978,51,14,0.0,15,43003366654447,4,44.2,-266.8279724121094,0.027300002053380013,0,0.0,0.0,,,,,0,,1,,
Raw,254370987,32852180000000,,,-1221706151265885952,0.0,14.518286661768798,-3.544898679959783,9.514825821780978,51,15,0.0,15,43003364168620,4,42.6,366.8417053222656,0.024800000712275505,0,0.0,0.0,,,,,0,,1,,
Raw,254370988,32852180000000,,,-1221706151265885952,0.0,14.518286661768798,-3.544898679959783,9.514825821780978,51,20,0.0,15,43003379236570,4,51.2,79.3945541381836,0.046300001442432404,0,0.0,0.0,,,,,0,,1,,
Raw,254370989,32852180000000,,,-1221706151265885952,0.0,14.518286661768798,-3.544898679959783,9.514825821780978,51,21,0.0,15,43003369926150,4,45.0,466.8547058105469,0.03160000219941139,0,0.0,0.0,,,,,0,,1,,
Raw,254370989,32852180000000,,,-1221706151265885952,0.0,14.518286661768798,-3.544898679959783,9.514825821780978,51,24,0.0,15,43003367793886,4,43.5,611.7604370117188,0.029100000858306885,0,0.0,0.0,,,,,0,,1,,
Raw,254370990,32852180000000,,,-1221706151265885952,0.0,14.518286661768798,-3.544898679959783,9.514825821780978,51,25,0.0,15,43003373098935,5,46.7,-410.6686096191406,0.03750000149011612,0,0.0,0.0,,,,,0,,1,,
Raw,254370990,32852180000000,,,-1221706151265885952,0.0,14.518286661768798,-3.544898679959783,9.514825821780978,51,31,0.0,15,43003369524144,4,44.3,-536.0029907226562,0.03180000185966492,0,0.0,0.0,,,,,0,,1,,
Raw,254370991,32852180000000,,,-1221706151265885952,0.0,14.518286661768798,-3.544898679959783,9.514825821780978,51,32,0.0,15,43003370889472,5,46.0,-233.81539916992188,0.032999999821186066,0,0.0,0.0,,,,,0,,1,,
Raw,254371982,32853180000000,,,-1221706151265885952,0.0,14.51826756238006,-5.755690173425367,9.51480673509035,51,10,0.0,15,43004377168518,5,48.5,-324.7942810058594,0.04330000281333923,0,0.0,0.0,,,,,0,,1,,
Raw,254371982,32853180000000,,,-1221706151265885952,0.0,14.51826756238006,-5.755690173425367,9.51480673509035,51,12,0.0,15,43004371937378,5,46.7,4.781904220581055,0.03450000286102295,0,0.0,0.0,,,,,0,,1,,
Raw,254371983,32853180000000,,,-1221706151265885952,0.0,14.51826756238006,-5.755690173425367,9.51480673509035,51,14,0.0,15,43004366655324,4,45.0,-266.7983093261719,0.02710000053048134,0,0.0,0.0,,,,,0,,1,,
Raw,254371984,32853180000000,,,-1221706151265885952,0.0,14.51826756238006,-5.755690173425367,9.51480673509035,51,15,0.0,15,43004364167386,4,42.8,366.8856506347656,0.024800000712275505,0,0.0,0.0,,,,,0,,1,,
Raw,254371984,32853180000000,,,-1221706151265885952,0.0,14.51826756238006,-5.755690173425367,9.51480673509035,51,20,0.0,15,43004379236299,4,50.9,79.53998565673828,0.046300001442432404,0,0.0,0.0,,,,,0,,1,,
Raw,254371985,32853180000000,,,-1221706151265885952,0.0,14.51826756238006,-5.755690173425367,9.51480673509035,51,21,0.0,15,43004369924583,4,45.6,466.91302490234375,0.03160000219941139,0,0.0,0.0,,,,,0,,1,,
Raw,254371985,32853180000000,,,-1221706151265885952,0.0,14.51826756238006,-5.755690173425367,9.51480673509035,51,24,0.0,15,43004367791846,4,43.3,611.7954711914062,0.029100000858306885,0,0.0,0.0,,,,,0,,1,,
Raw,254371986,32853180000000,,,-1221706151265885952,0.0,14.51826756238006,-5.755690173425367,9.51480673509035,51,25,0.0,15,43004373100303,5,47.6,-410.5508728027344,0.037300001829862595,0,0.0,0.0,,,,,0,,1,,
Raw,254371986,32853180000000,,,-1221706151265885952,0.0,14.51826756238006,-5.755690173425367,9.51480673509035,51,31,0.0,15,43004369525927,5,46.1,-535.9008178710938,0.03150000050663948,0,0.0,0.0,,,,,0,,1,,
Raw,254371987,32853180000000,,,-1221706151265885952,0.0,14.51826756238006,-5.755690173425367,9.51480673509035,51,32,0.0,15,43004370890251,5,47.1,-233.7813720703125,0.03280000016093254,0,0.0,0.0,,,,,0,,1,,
Raw,254372981,32854180000000,,,-1221706151265885952,0.0,14.518247553496622,-5.655075479058925,9.514786853120945,51,10,0.0,15,43005377169598,5,48.5,-324.86505126953125,0.04330000281333923,0,0.0,0.0,,,,,0,,1,,
Raw,254372982,32854180000000,,,-1221706151265885952,0.0,14.518247553496622,-5.655075479058925,9.514786853120945,51,12,0.0,15,43005371937356,5,46.9,4.755527973175049,0.03450000286102295,0,0.0,0.0,,,,,0,,1,,
Raw,254372982,32854180000000,,,-1221706151265885952,0.0,14.518247553496622,-5.655075479058925,9.514786853120945,51,14,0.0,15,43005366656212,4,45.0,-266.9477233886719,0.02710000053048134,0,0.0,0.0,,,,,0,,1,,
Raw,254372983,32854180000000,,,-1221706151265885952,0.0,14.518247553496622,-5.655075479058925,9.514786853120945,51,15,0.0,15,43005364166160,4,42.9,366.73809814453125,0.024800000712275505,0,0.0,0.0,,,,,0,,1,,
Raw,254372983,32854180000000,,,-1221706151265885952,0.0,14.518247553496622,-5.655075479058925,9.514786853120945,51,20,0.0,15,43005379236030,4,51.0,79.49906921386719,0.046300001442432404,0,0.0,0.0,,,,,0,,1,,
Raw,254372983,32854180000000,,,-1221706151265885952,0.0,14.518247553496622,-5.655075479058925,9.514786853120945,51,21,0.0,15,43005369923018,4,45.8,466.79144287109375,0.03160000219941139,0,0.0,0.0,,,,,0,,1,,
Raw,254372984,32854180000000,,,-1221706151265885952,0.0,14.518247553496622,-5.655075479058925,9.514786853120945,51,24,0.0,15,43005367789794,4,43.1,611.6563110351562,0.029100000858306885,0,0.0,0.0,,,,,0,,1,,
Raw,254372984,32854180000000,,,-1221706151265885952,0.0,14.518247553496622,-5.655075479058925,9.514786853120945,51,25,0.0,15,43005373101670,5,48.2,-410.618896484375,0.037300001829862595,0,0.0,0.0,,,,,0,,1,,
Raw,254372984,32854180000000,,,-1221706151265885952,0.0,14.518247553496622,-5.655075479058925,9.514786853120945,51,31,0.0,15,43005369527711,5,46.3,-535.9835815429688,0.03150000050663948,0,0.0,0.0,,,,,0,,1,,
Raw,254372985,32854180000000,,,-1221706151265885952,0.0,14.518247553496622,-5.655075479058925,9.514786853120945,51,32,0.0,15,43005370891027,5,47.3,-233.9342498779297,0.03280000016093254,0,0.0,0.0,,,,,0,,1,,
Raw,254373982,32855180000000,,,-1221706151265885952,0.0,14.518228454107884,-6.153659999839071,9.514767766430317,51,10,0.0,15,43006377170675,5,48.4,-324.44256591796875,0.04330000281333923,0,0.0,0.0,,,,,0,,1,,
Raw,254373982,32855180000000,,,-1221706151265885952,0.0,14.518228454107884,-6.153659999839071,9.514767766430317,51,12,0.0,15,43006371937337,5,46.5,5.215510845184326,0.03450000286102295,0,0.0,0.0,,,,,0,,1,,
Raw,254373983,32855180000000,,,-1221706151265885952,0.0,14.518228454107884,-6.153659999839071,9.514767766430317,51,14,0.0,15,43006366657097,4,45.1,-266.6039123535156,0.02710000053048134,0,0.0,0.0,,,,,0,,1,,
Raw,254373984,32855180000000,,,-1221706151265885952,0.0,14.518228454107884,-6.153659999839071,9.514767766430317,51,15,0.0,15,43006364164930,4,42.8,367.0898132324219,0.024800000712275505,0,0.0,0.0,,,,,0,,1,,
Raw,254373984,32855180000000,,,-1221706151265885952,0.0,14.518228454107884,-6.153659999839071,9.514767766430317,51,20,0.0,15,43006379235761,4,50.9,79.94976043701172,0.046300001442432404,0,0.0,0.0,,,,,0,,1,,
Raw,254373985,32855180000000,,,-1221706151265885952,0.0,14.518228454107884,-6.153659999839071,9.514767766430317,51,21,0.0,15,43006369921461,4,45.5,467.1673889160156,0.03160000219941139,0,0.0,0.0,,,,,0,,1,,
Raw,254373985,32855180000000,,,-1221706151265885952,0.0,14.518228454107884,-6.153659999839071,9.514767766430317,51,24,0.0,15,43006367787753,4,43.3,612.0079956054688,0.029100000858306885,0,0.0,0.0,,,,,0,,1,,
Raw,254373986,32855180000000,,,-1221706151265885952,0.0,14.518228454107884,-6.153659999839071,9.514767766430317,51,25,0.0,15,43006373103033,5,48.0,-410.1940002441406,0.037300001829862595,0,0.0,0.0,,,,,0,,1,,
Raw,254373986,32855180000000,,,-1221706151265885952,0.0,14.518228454107884,-6.153659999839071,9.514767766430317,51,31,0.0,15,43006369529496,4,44.5,-535.571533203125,0.03180000185966492,0,0.0,0.0,,,,,0,,1,,
Raw,254373987,32855180000000,,,-1221706151265885952,0.0,14.518228454107884,-6.153659999839071,9.514767766430317,51,32,0.0,15,43006370891801,5,47.5,-233.58103942871094,0.03280000016093254,0,0.0,0.0,,,,,0,,1,,
Raw,254374977,32856180000000,,,-1221706151265885952,0.0,14.518209354719147,-4.993409501880951,9.51474867973969,51,10,0.0,15,43007377171755,5,47.6,-325.1011962890625,0.04330000281333923,0,0.0,0.0,,,,,0,,1,,
Raw,254374978,32856180000000,,,-1221706151265885952,0.0,14.518209354719147,-4.993409501880951,9.51474867973969,51,12,0.0,15,43007371937315,5,46.2,4.583901882171631,0.03450000286102295,0,0.0,0.0,,,,,0,,1,,
Raw,254374978,32856180000000,,,-1221706151265885952,0.0,14.518209354719147,-4.993409501880951,9.51474867973969,51,14,0.0,15,43007366657983,4,44.2,-267.3619079589844,0.027300002053380013,0,0.0,0.0,,,,,0,,1,,
Raw,254374979,32856180000000,,,-1221706151265885952,0.0,14.518209354719147,-4.993409501880951,9.51474867973969,51,15,0.0,15,43007364163705,5,41.5,366.3330078125,0.025100000202655792,0,0.0,0.0,,,,,0,,1,,
Raw,254374980,32856180000000,,,-1221706151265885952,0.0,14.518209354719147,-4.993409501880951,9.51474867973969,51,20,0.0,15,43007379235489,4,50.7,79.32505798339844,0.046300001442432404,0,0.0,0.0,,,,,0,,1,,
Raw,254374981,32856180000000,,,-1221706151265885952,0.0,14.518209354719147,-4.993409501880951,9.51474867973969,51,21,0.0,15,43007369919895,4,43.7,466.4439697265625,0.032099999487400055,0,0.0,0.0,,,,,0,,1,,
Raw,254374982,32856180000000,,,-1221706151265885952,0.0,14.518209354719147,-4.993409501880951,9.51474867973969,51,24,0.0,15,43007367785700,4,42.6,611.2566528320312,0.02930000051856041,0,0.0,0.0,,,,,0,,1,,
Raw,254374982,32856180000000,,,-1221706151265885952,0.0,14.518209354719147,-4.993409501880951,9.51474867973969,51,25,0.0,15,43007373104397,5,47.1,-410.85540771484375,0.037300001829862595,0,0.0,0.0,,,,,0,,1,,
Raw,254374983,32856180000000,,,-1221706151265885952,0.0,14.518209354719147,-4.993409501880951,9.51474867973969,51,31,0.0,15,43007369531280,4,44.0,-536.2584838867188,0.03180000185966492,0,0.0,0.0,,,,,0,,1,,
Raw,254374984,32856180000000,,,-1221706151265885952,0.0,14.518209354719147,-4.993409501880951,9.51474867973969,51,32,0.0,15,43007370892575,5,46.7,-234.3261260986328,0.032999999821186066,0,0.0,0.0,,,,,0,,1,,
Raw,254375949,32857180000000,,,-1221706151265885952,0.0,14.51819025533041,-7.560956294464295,9.514728797770285,51,10,0.0,15,43008377172837,5,47.0,-325.3236083984375,0.04330000281333923,0,0.0,0.0,,,,,0,,1,,
Raw,254375950,32857180000000,,,-1221706151265885952,0.0,14.51819025533041,-7.560956294464295,9.514728797770285,51,12,0.0,15,43008371937298,4,45.9,4.413879871368408,0.03460000082850456,0,0.0,0.0,,,,,0,,1,,
Raw,254375951,32857180000000,,,-1221706151265885952,0.0,14.51819025533041,-7.560956294464295,9.514728797770285,51,14,0.0,15,43008366658874,4,44.0,-267.64447021484375,0.027300002053380013,0,0.0,0.0,,,,,0,,1,,
Raw,254375952,32857180000000,,,-1221706151265885952,0.0,14.51819025533041,-7.560956294464295,9.514728797770285,51,15,0.0,15,43008364162473,4,42.0,366.0585632324219,0.024800000712275505,0,0.0,0.0,,,,,0,,1,,
Raw,254375953,32857180000000,,,-1221706151265885952,0.0,14.51819025533041,-7.560956294464295,9.514728797770285,51,20,0.0,15,43008379235219,4,50.2,79.12802124023438,0.046300001442432404,0,0.0,0.0,,,,,0,,1,,
Raw,254375954,32857180000000,,,-1221706151265885952,0.0,14.51819025533041,-7.560956294464295,9.514728797770285,51,21,0.0,15,43008369918337,4,44.7,466.18377685546875,0.03180000185966492,0,0.0,0.0,,,,,0,,1,,
Raw,254375954,32857180000000,,,-1221706151265885952,0.0,14.51819025533041,-7.560956294464295,9.514728797770285,51,24,0.0,15,43008367783666,4,42.8,610.98095703125,0.02930000051856041,0,0.0,0.0,,,,,0,,1,,
Raw,254375955,32857180000000,,,-1221706151265885952,0.0,14.51819025533041,-7.560956294464295,9.514728797770285,51,25,0.0,15,43008373105763,5,47.1,-411.06689453125,0.037300001829862595,0,0.0,0.0,,,,,0,,1,,
Raw,254375956,32857180000000,,,-1221706151265885952,0.0,14.51819025533041,-7.560956294464295,9.514728797770285,51,31,0.0,15,43008369533063,4,44.6,-536.4761352539062,0.03180000185966492,0,0.0,0.0,,,,,0,,1,,
Raw,254375956,32857180000000,,,-1221706151265885952,0.0,14.51819025533041,-7.560956294464295,9.514728797770285,51,32,0.0,15,43008370893356,5,46.2,-234.61534118652344,0.032999999821186066,0,0.0,0.0,,,,,0,,1,,
Raw,254376949,32858180000000,,,-1221706151265885952,0.0,14.518171155941673,-8.462117691608467,9.514709711079657,51,10,0.0,15,43009377173912,5,46.2,-324.3792419433594,0.04350000247359276,0,0.0,0.0,,,,,0,,1,,
Raw,254376949,32858180000000,,,-1221706151265885952,0.0,14.518171155941673,-8.462117691608467,9.514709711079657,51,12,0.0,15,43009371937281,4,43.5,5.397313594818115,0.035100001841783524,0,0.0,0.0,,,,,0,,1,,
Raw,254376949,32858180000000,,,-1221706151265885952,0.0,14.518171155941673,-8.462117691608467,9.514709711079657,51,14,0.0,15,43009366659761,5,41.4,-266.7812194824219,0.02810000069439411,0,0.0,0.0,,,,,0,,1,,
Raw,254376950,32858180000000,,,-1221706151265885952,0.0,14.518171155941673,-8.462117691608467,9.514709711079657,51,15,0.0,15,43009364161250,6,39.4,366.92938232421875,0.025600001215934753,0,0.0,0.0,,,,,0,,1,,
Raw,254376950,32858180000000,,,-1221706151265885952,0.0,14.518171155941673,-8.462117691608467,9.514709711079657,51,20,0.0,15,43009379234955,5,48.6,80.10493469238281,0.046300001442432404,0,0.0,0.0,,,,,0,,1,,
Raw,254376950,32858180000000,,,-1221706151265885952,0.0,14.518171155941673,-8.462117691608467,9.514709711079657,51,21,0.0,15,43009369916776,5,41.7,467.07257080078125,0.032600000500679016,0,0.0,0.0,,,,,0,,1,,
Raw,254376951,32858180000000,,,-1221706151265885952,0.0,14.518171155941673,-8.462117691608467,9.514709711079657,51,24,0.0,15,43009367781619,5,40.8,611.848388671875,0.029900001361966133,0,0.0,0.0,,,,,0,,1,,
Raw,254376951,32858180000000,,,-1221706151265885952,0.0,14.518171155941673,-8.462117691608467,9.514709711079657,51,25,0.0,15,43009373107126,4,44.7,-410.1184997558594,0.037800002843141556,0,0.0,0.0,,,,,0,,1,,
Raw,254376951,32858180000000,,,-1221706151265885952,0.0,14.518171155941673,-8.462117691608467,9.514709711079657,51,31,0.0,15,43009369534841,4,42.0,-535.5506591796875,0.03230000287294388,0,0.0,0.0,,,,,0,,1,,
Raw,254376952,32858180000000,,,-1221706151265885952,0.0,14.518171155941673,-8.462117691608467,9.514709711079657,51,32,0.0,15,43009370894131,4,43.6,-233.7574920654297,0.03360000252723694,0,0.0,0.0,,,,,0,,1,,
Raw,254377979,32859180000000,,,-1221706151265885952,0.0,14.518151147058234,-5.598713674552765,9.514689829110253,51,10,0.0,15,43010377175007,5,46.8,-324.0101013183594,0.04350000247359276,0,0.0,0.0,,,,,0,,1,,
Raw,254377979,32859180000000,,,-1221706151265885952,0.0,14.518151147058234,-5.598713674552765,9.514689829110253,51,12,0.0,15,43010371937266,4,44.3,5.798887252807617,0.03480000048875809,0,0.0,0.0,,,,,0,,1,,
Raw,254377980,32859180000000,,,-1221706151265885952,0.0,14.518151147058234,-5.598713674552765,9.514689829110253,51,14,0.0,15,43010366660655,4,42.6,-266.50262451171875,0.027800001204013824,0,0.0,0.0,,,,,0,,1,,
Raw,254377980,32859180000000,,,-1221706151265885952,0.0,14.518151147058234,-5.598713674552765,9.514689829110253,51,15,0.0,15,43010364160043,5,40.4,367.1195983886719,0.02540000155568123,0,0.0,0.0,,,,,0,,1,,
Raw,254377981,32859180000000,,,-1221706151265885952,0.0,14.518151147058234,-5.598713674552765,9.514689829110253,51,20,0.0,15,43010379234692,5,48.8,80.50275421142578,0.046300001442432404,0,0.0,0.0,,,,,0,,1,,
Raw,254377982,32859180000000,,,-1221706151265885952,0.0,14.518151147058234,-5.598713674552765,9.514689829110253,51,21,0.0,15,43010369915231,4,43.1,467.3785400390625,0.032099999487400055,0,0.0,0.0,,,,,0,,1,,
Raw,254377982,32859180000000,,,-1221706151265885952,0.0,14.518151147058234,-5.598713674552765,9.514689829110253,51,24,0.0,15,43010367779593,4,42.2,612.1408081054688,0.02930000051856041,0,0.0,0.0,,,,,0,,1,,
Raw,254377983,32859180000000,,,-1221706151265885952,0.0,14.518151147058234,-5.598713674552765,9.514689829110253,51,25,0.0,15,43010373108507,4,45.6,-409.7521667480469,0.03760000318288803,0,0.0,0.0,,,,,0,,1,,
Raw,254377984,32859180000000,,,-1221706151265885952,0.0,14.518151147058234,-5.598713674552765,9.514689829110253,51,31,0.0,15,43010369536639,4,43.5,-535.194091796875,0.032099999487400055,0,0.0,0.0,,,,,0,,1,,
Raw,254377984,32859180000000,,,-1221706151265885952,0.0,14.518151147058234,-5.598713674552765,9.514689829110253,51,32,0.0,15,43010370894920,4,44.5,-233.47451782226562,0.0333000011742115,0,0.0,0.0,,,,,0,,1,,
Raw,254378978,32860180000000,,,-1221706151265885952,0.0,14.518132047669496,-4.804338732717459,9.514670742419625,51,10,0.0,15,43011377176078,5,47.8,-324.48028564453125,0.04330000281333923,0,0.0,0.0,,,,,0,,1,,
Raw,254378979,32860180000000,,,-1221706151265885952,0.0,14.518132047669496,-4.804338732717459,9.514670742419625,51,12,0.0,15,43011371937243,5,46.1,5.36470365524292,0.03450000286102295,0,0.0,0.0,,,,,0,,1,,
Raw,254378979,32860180000000,,,-1221706151265885952,0.0,14.518132047669496,-4.804338732717459,9.514670742419625,51,14,0.0,15,43011366661544,4,44.4,-267.0564270019531,0.027300002053380013,0,0.0,0.0,,,,,0,,1,,
Raw,254378980,32860180000000,,,-1221706151265885952,0.0,14.518132047669496,-4.804338732717459,9.514670742419625,51,15,0.0,15,43011364158805,5,41.4,366.66497802734375,0.025100000202655792,0,0.0,0.0,,,,,0,,1,,
Raw,254378981,32860180000000,,,-1221706151265885952,0.0,14.518132047669496,-4.804338732717459,9.514670742419625,51,20,0.0,15,43011379234417,4,50.5,80.0614242553711,0.046300001442432404,0,0.0,0.0,,,,,0,,1,,
Raw,254378982,32860180000000,,,-1221706151265885952,0.0,14.518132047669496,-4.804338732717459,9.514670742419625,51,21,0.0,15,43011369913668,4,45.0,466.85955810546875,0.03160000219941139,0,0.0,0.0,,,,,0,,1,,
Raw,254378983,32860180000000,,,-1221706151265885952,0.0,14.518132047669496,-4.804338732717459,9.514670742419625,51,24,0.0,15,43011367777544,4,43.0,611.59033203125,0.029100000858306885,0,0.0,0.0,,,,,0,,1,,
Raw,254378983,32860180000000,,,-1221706151265885952,0.0,14.518132047669496,-4.804338732717459,9.514670742419625,51,25,0.0,15,43011373109864,5,47.3,-410.22125244140625,0.037300001829862595,0,0.0,0.0,,,,,0,,1,,
Raw,254378984,32860180000000,,,-1221706151265885952,0.0,14.518132047669496,-4.804338732717459,9.514670742419625,51,31,0.0,15,43011369538417,4,44.7,-535.68115234375,0.03180000185966492,0,0.0,0.0,,,,,0,,1,,
Raw,254378985,32860180000000,,,-1221706151265885952,0.0,14.518132047669496,-4.804338732717459,9.514670742419625,51,32,0.0,15,43011370895693,5,46.3,-234.02774047851562,0.032999999821186066,0,0.0,0.0,,,,,0,,1,,
Raw,254379949,32861180000000,,,-1221706151265885952,0.0,14.51811294828076,-6.525096145164827,9.514651655728997,51,10,0.0,15,43012377177157,5,48.1,-324.268310546875,0.04330000281333923,0,0.0,0.0,,,,,0,,1,,
Raw,254379949,32861180000000,,,-1221706151265885952,0.0,14.51811294828076,-6.525096145164827,9.514651655728997,51,12,0.0,15,43012371937216,5,46.3,5.62210750579834,0.03450000286102295,0,0.0,0.0,,,,,0,,1,,
Raw,254379950,32861180000000,,,-1221706151265885952,0.0,14.51811294828076,-6.525096145164827,9.514651655728997,51,14,0.0,15,43012366662427,4,45.1,-266.91912841796875,0.02710000053048134,0,0.0,0.0,,,,,0,,1,,
Raw,254379950,32861180000000,,,-1221706151265885952,0.0,14.51811294828076,-6.525096145164827,9.514651655728997,51,15,0.0,15,43012364157575,4,42.4,366.81231689453125,0.024800000712275505,0,0.0,0.0,,,,,0,,1,,
Raw,254379950,32861180000000,,,-1221706151265885952,0.0,14.51811294828076,-6.525096145164827,9.514651655728997,51,20,0.0,15,43012379234149,4,51.8,80.30225372314453,0.046300001442432404,0,0.0,0.0,,,,,0,,1,,
Raw,254379951,32861180000000,,,-1221706151265885952,0.0,14.51811294828076,-6.525096145164827,9.514651655728997,51,21,0.0,15,43012369912102,4,44.7,467.0224304199219,0.03180000185966492,0,0.0,0.0,,,,,0,,1,,
Raw,254379951,32861180000000,,,-1221706151265885952,0.0,14.51811294828076,-6.525096145164827,9.514651655728997,51,24,0.0,15,43012367775497,4,43.4,611.7396240234375,0.029100000858306885,0,0.0,0.0,,,,,0,,1,,
Raw,254379951,32861180000000,,,-1221706151265885952,0.0,14.51811294828076,-6.525096145164827,9.514651655728997,51,25,0.0,15,43012373111232,5,47.5,-410.000244140625,0.037300001829862595,0,0.0,0.0,,,,,0,,1,,
Raw,254379951,32861180000000,,,-1221706151265885952,0.0,14.51811294828076,-6.525096145164827,9.514651655728997,51,31,0.0,15,43012369540200,4,44.6,-535.475830078125,0.03180000185966492,0,0.0,0.0,,,,,0,,1,,
Raw,254379953,32861180000000,,,-1221706151265885952,0.0,14.51811294828076,-6.525096145164827,9.514651655728997,51,32,0.0,15,43012370896469,5,46.7,-233.88267517089844,0.032999999821186066,0,0.0,0.0,,,,,0,,1,,
Raw,254380948,32862180000000,,,-1221706151265885952,0.0,14.51809293939732,-6.043750087136821,9.514631773759593,51,10,0.0,15,43013377178234,5,48.3,-323.7798156738281,0.04330000281333923,0,0.0,0.0,,,,,0,,1,,
Raw,254380949,32862180000000,,,-1221706151265885952,0.0,14.51809293939732,-6.043750087136821,9.514631773759593,51,12,0.0,15,43013371937191,5,46.5,6.150121688842773,0.03450000286102295,0,0.0,0.0,,,,,0,,1,,
Raw,254380949,32862180000000,,,-1221706151265885952,0.0,14.51809293939732,-6.043750087136821,9.514631773759593,51,14,0.0,15,43013366663312,4,44.9,-266.5104064941406,0.027300002053380013,0,0.0,0.0,,,,,0,,1,,
Raw,254380949,32862180000000,,,-1221706151265885952,0.0,14.51809293939732,-6.043750087136821,9.514631773759593,51,15,0.0,15,43013364156352,4,42.3,367.2169189453125,0.024800000712275505,0,0.0,0.0,,,,,0,,1,,
Raw,254380949,32862180000000,,,-1221706151265885952,0.0,14.51809293939732,-6.043750087136821,9.514631773759593,51,20,0.0,15,43013379233875,4,51.3,80.82218170166016,0.046300001442432404,0,0.0,0.0,,,,,0,,1,,
Raw,254380950,32862180000000,,,-1221706151265885952,0.0,14.51809293939732,-6.043750087136821,9.514631773759593,51,21,0.0,15,43013369910536,4,45.1,467.4581298828125,0.03160000219941139,0,0.0,0.0,,,,,0,,1,,
Raw,254380950,32862180000000,,,-1221706151265885952,0.0,14.51809293939732,-6.043750087136821,9.514631773759593,51,24,0.0,15,43013367773451,4,43.7,612.14990234375,0.029100000858306885,0,0.0,0.0,,,,,0,,1,,
Raw,254380950,32862180000000,,,-1221706151265885952,0.0,14.51809293939732,-6.043750087136821,9.514631773759593,51,25,0.0,15,43013373112591,5,47.8,-409.5140075683594,0.037300001829862595,0,0.0,0.0,,,,,0,,1,,
Raw,254380951,32862180000000,,,-1221706151265885952,0.0,14.51809293939732,-6.043750087136821,9.514631773759593,51,31,0.0,15,43013369541983,4,44.8,-535.0018310546875,0.03180000185966492,0,0.0,0.0,,,,,0,,1,,
Raw,254380951,32862180000000,,,-1221706151265885952,0.0,14.51809293939732,-6.043750087136821,9.514631773759593,51,32,0.0,15,43013370897241,5,47.3,-233.47007751464844,0.03280000016093254,0,0.0,0.0,,,,,0,,1,,
Raw,254381984,32863180000000,,,-1221706151265885952,0.0,14.518073840008583,-4.701883763262972,9.514612687068965,51,10,0.0,15,43014377179309,5,48.3,-323.72296142578125,0.04330000281333923,0,0.0,0.0,,,,,0,,1,,
Raw,254381985,32863180000000,,,-1221706151265885952,0.0,14.518073840008583,-4.701883763262972,9.514612687068965,51,12,0.0,15,43014371937166,5,47.1,6.239803791046143,0.034300003200769424,0,0.0,0.0,,,,,0,,1,,
Raw,254381986,32863180000000,,,-1221706151265885952,0.0,14.518073840008583,-4.701883763262972,9.514612687068965,51,14,0.0,15,43014366664192,4,44.9,-266.5495910644531,0.027300002053380013,0,0.0,0.0,,,,,0,,1,,
Raw,254381987,32863180000000,,,-1221706151265885952,0.0,14.518073840008583,-4.701883763262972,9.514612687068965,51,15,0.0,15,43014364155117,4,42.1,367.18536376953125,0.024800000712275505,0,0.0,0.0,,,,,0,,1,,
Raw,254381987,32863180000000,,,-1221706151265885952,0.0,14.518073840008583,-4.701883763262972,9.514612687068965,51,20,0.0,15,43014379233595,4,51.5,80.91109466552734,0.046300001442432404,0,0.0,0.0,,,,,0,,1,,
Raw,254381988,32863180000000,,,-1221706151265885952,0.0,14.518073840008583,-4.701883763262972,9.514612687068965,51,21,0.0,15,43014369908973,4,45.2,467.449951171875,0.03160000219941139,0,0.0,0.0,,,,,0,,1,,
Raw,254381988,32863180000000,,,-1221706151265885952,0.0,14.518073840008583,-4.701883763262972,9.514612687068965,51,24,0.0,15,43014367771404,4,44.0,612.1187744140625,0.028800001367926598,0,0.0,0.0,,,,,0,,1,,
Raw,254381989,32863180000000,,,-1221706151265885952,0.0,14.518073840008583,-4.701883763262972,9.514612687068965,51,25,0.0,15,43014373113949,5,47.5,-409.455810546875,0.037300001829862595,0,0.0,0.0,,,,,0,,1,,
Raw,254381990,32863180000000,,,-1221706151265885952,0.0,14.518073840008583,-4.701883763262972,9.514612687068965,51,31,0.0,15,43014369543761,4,45.2,-534.96630859375,0.03160000219941139,0,0.0,0.0,,,,,0,,1,,
Raw,254381993,32863180000000,,,-1221706151265885952,0.0,14.518073840008583,-4.701883763262972,9.514612687068965,51,32,0.0,15,43014370898017,5,46.7,-233.50335693359375,0.032999999821186066,0,0.0,0.0,,,,,0,,1,,
Raw,254382948,32864180000000,,,-1221706151265885952,0.0,14.518054740619846,-4.853984010319522,9.51459280509956,51,10,0.0,15,43015377180391,5,47.2,-324.5228576660156,0.04330000281333923,0,0.0,0.0,,,,,0,,1,,
Raw,254382948,32864180000000,,,-1221706151265885952,0.0,14.518054740619846,-4.853984010319522,9.51459280509956,51,12,0.0,15,43015371937150,4,45.6,5.479540824890137,0.03460000082850456,0,0.0,0.0,,,,,0,,1,,
Raw,254382949,32864180000000,,,-1221706151265885952,0.0,14.518054740619846,-4.853984010319522,9.51459280509956,51,14,0.0,15,43015366665087,4,44.0,-267.4269714355469,0.027300002053380013,0,0.0,0.0,,,,,0,,1,,
Raw,254382949,32864180000000,,,-1221706151265885952,0.0,14.518054740619846,-4.853984010319522,9.51459280509956,51,15,0.0,15,43015364153900,5,41.5,366.314208984375,0.025100000202655792,0,0.0,0.0,,,,,0,,1,,
Raw,254382950,32864180000000,,,-1221706151265885952,0.0,14.518054740619846,-4.853984010319522,9.51459280509956,51,20,0.0,15,43015379233331,4,50.5,80.13870239257812,0.046300001442432404,0,0.0,0.0,,,,,0,,1,,
Raw,254382950,32864180000000,,,-1221706151265885952,0.0,14.518054740619846,-4.853984010319522,9.51459280509956,51,21,0.0,15,43015369907415,4,44.1,466.6056213378906,0.03180000185966492,0,0.0,0.0,,,,,0,,1,,
Raw,254382950,32864180000000,,,-1221706151265885952,0.0,14.518054740619846,-4.853984010319522,9.51459280509956,51,24,0.0,15,43015367769371,4,43.2,611.2479858398438,0.029100000858306885,0,0.0,0.0,,,,,0,,1,,
Raw,254382951,32864180000000,,,-1221706151265885952,0.0,14.518054740619846,-4.853984010319522,9.51459280509956,51,25,0.0,15,43015373115324,5,46.7,-410.2543029785156,0.03750000149011612,0,0.0,0.0,,,,,0,,1,,
Raw,254382951,32864180000000,,,-1221706151265885952,0.0,14.518054740619846,-4.853984010319522,9.51459280509956,51,31,0.0,15,43015369545553,4,43.9,-535.7739868164062,0.032099999487400055,0,0.0,0.0,,,,,0,,1,,
Raw,254382951,32864180000000,,,-1221706151265885952,0.0,14.518054740619846,-4.853984010319522,9.51459280509956,51,32,0.0,15,43015370898802,5,46.0,-234.382568359375,0.032999999821186066,0,0.0,0.0,,,,,0,,1,,
Raw,254383948,32865180000000,,,-1221706151265885952,0.0,14.518034731736407,-7.764454613545574,9.514573718408933,51,10,0.0,15,43016377181470,5,47.2,-323.8778991699219,0.04330000281333923,0,0.0,0.0,,,,,0,,1,,
Raw,254383948,32865180000000,,,-1221706151265885952,0.0,14.518034731736407,-7.764454613545574,9.514573718408933,51,12,0.0,15,43016371937114,4,44.9,6.170796871185303,0.03480000048875809,0,0.0,0.0,,,,,0,,1,,
Raw,254383949,32865180000000,,,-1221706151265885952,0.0,14.518034731736407,-7.764454613545574,9.514573718408933,51,14,0.0,15,43016366665976,4,43.6,-266.8505859375,0.0276000015437603,0,0.0,0.0,,,,,0,,1,,
Raw,254383949,32865180000000,,,-1221706151265885952,0.0,14.518034731736407,-7.764454613545574,9.514573718408933,51,15,0.0,15,43016364152667,5,41.3,366.9049072265625,0.025100000202655792,0,0.0,0.0,,,,,0,,1,,
Raw,254383949,32865180000000,,,-1221706151265885952,0.0,14.518034731736407,-7.764454613545574,9.514573718408933,51,20,0.0,15,43016379233063,4,49.6,80.80811309814453,0.046300001442432404,0,0.0,0.0,,,,,0,,1,,
Raw,254383950,32865180000000,,,-1221706151265885952,0.0,14.518034731736407,-7.764454613545574,9.514573718408933,51,21,0.0,15,43016369905856,4,43.7,467.2121276855469,0.032099999487400055,0,0.0,0.0,,,,,0,,1,,
