# 
# Header Description:
# 
# Version: v2.0.0.1 Platform: 8.0.0 Manufacturer: Xiaomi Model: MIX 2
# 
# Raw,ElapsedRealtimeMillis,TimeNanos,LeapSecond,TimeUncertaintyNanos,FullBiasNanos,BiasNanos,BiasUncertaintyNanos,DriftNanosPerSecond,DriftUncertaintyNanosPerSecond,HardwareClockDiscontinuityCount,Svid,TimeOffsetNanos,State,ReceivedSvTimeNanos,ReceivedSvTimeUncertaintyNanos,Cn0DbHz,PseudorangeRateMetersPerSecond,PseudorangeRateUncertaintyMetersPerSecond,AccumulatedDeltaRangeState,AccumulatedDeltaRangeMeters,AccumulatedDeltaRangeUncertaintyMeters,CarrierFrequencyHz,CarrierCycles,CarrierPhase,CarrierPhaseUncertainty,MultipathIndicator,SnrInDb,ConstellationType,AgcDb,CarrierFrequencyHz
# 
# Fix,Provider,Latitude,Longitude,Altitude,Speed,Accuracy,(UTC)TimeInMs
# 
# Nav,Svid,Type,Status,MessageId,Sub-messageId,Data(Bytes)
# 
Raw,257649732,34848040000000,,,-1221704259398109696,0.0,14.516243027173914,-2.0306097540029744,9.51278275060501,85,10,0.0,15,43107369501729,4,45.5,-316.1439514160156,0.03160000219941139,0,0.0,0.0,,,,,0,,1,,
Raw,257649732,34848040000000,,,-1221704259398109696,0.0,14.516243027173914,-2.0306097540029744,9.51278275060501,85,12,0.0,15,43107364156677,4,43.2,17.358110427856445,0.02460000105202198,0,0.0,0.0,,,,,0,,1,,
Raw,257649733,34848040000000,,,-1221704259398109696,0.0,14.516243027173914,-2.0306097540029744,9.51278275060501,85,14,0.0,15,43107358970083,5,41.4,-266.71282958984375,0.04610000178217888,0,0.0,0.0,,,,,0,,1,,
Raw,257649734,34848040000000,,,-1221704259398109696,0.0,14.516243027173914,-2.0306097540029744,9.51278275060501,85,15,0.0,15,43107356264329,6,39.5,367.66619873046875,0.04360000044107437,0,0.0,0.0,,,,,0,,1,,
Raw,257649734,34848040000000,,,-1221704259398109696,0.0,14.516243027173914,-2.0306097540029744,9.51278275060501,85,20,0.0,15,43107371430087,5,48.5,91.15222930908203,0.034300003200769424,0,0.0,0.0,,,,,0,,1,,
Raw,257649735,34848040000000,,,-1221704259398109696,0.0,14.516243027173914,-2.0306097540029744,9.51278275060501,85,21,0.0,15,43107361986758,5,41.9,469.951171875,0.020600000396370888,0,0.0,0.0,,,,,0,,1,,
Raw,257649735,34848040000000,,,-1221704259398109696,0.0,14.516243027173914,-2.0306097540029744,9.51278275060501,85,24,0.0,15,43107359804617,5,40.9,612.6366577148438,0.017900001257658005,0,0.0,0.0,,,,,0,,1,,
Raw,257649736,34848040000000,,,-1221704259398109696,0.0,14.516243027173914,-2.0306097540029744,9.51278275060501,85,25,0.0,15,43107365462936,4,44.4,-401.6451721191406,0.025800000876188278,0,0.0,0.0,,,,,0,,1,,
Raw,257649736,34848040000000,,,-1221704259398109696,0.0,14.516243027173914,-2.0306097540029744,9.51278275060501,85,31,0.0,15,43107361931898,4,42.0,-528.6470336914062,0.0203000009059906,0,0.0,0.0,,,,,0,,1,,
Raw,257649737,34848040000000,,,-1221704259398109696,0.0,14.516243027173914,-2.0306097540029744,9.51278275060501,85,32,0.0,15,43107363193607,4,43.7,-233.4027099609375,0.023100001737475395,0,0.0,0.0,,,,,0,,1,,
Raw,257650727,34849040000000,,,-1221704259398109696,0.0,14.516223927785177,-5.201702159064338,9.512762868635606,85,10,0.0,15,43108369502780,5,47.2,-316.50384521484375,0.031300000846385956,0,0.0,0.0,,,,,0,,1,,
Raw,257650728,34849040000000,,,-1221704259398109696,0.0,14.516223927785177,-5.201702159064338,9.512762868635606,85,12,0.0,15,43108364156618,4,45.8,17.054779052734375,0.02410000190138817,0,0.0,0.0,,,,,0,,1,,
Raw,257650729,34849040000000,,,-1221704259398109696,0.0,14.516223927785177,-5.201702159064338,9.512762868635606,85,14,0.0,15,43108358970965,4,44.9,-267.1878967285156,0.04530000314116478,0,0.0,0.0,,,,,0,,1,,
Raw,257650730,34849040000000,,,-1221704259398109696,0.0,14.516223927785177,-5.201702159064338,9.512762868635606,85,15,0.0,15,43108356263090,4,43.1,367.2087707519531,0.04260000213980675,0,0.0,0.0,,,,,0,,1,,
Raw,257650730,34849040000000,,,-1221704259398109696,0.0,14.516223927785177,-5.201702159064338,9.512762868635606,85,20,0.0,15,43108371429778,4,51.2,90.81300354003906,0.034300003200769424,0,0.0,0.0,,,,,0,,1,,
Raw,257650731,34849040000000,,,-1221704259398109696,0.0,14.516223927785177,-5.201702159064338,9.512762868635606,85,21,0.0,15,43108361985185,4,44.4,469.56304931640625,0.01979999989271164,0,0.0,0.0,,,,,0,,1,,
Raw,257650732,34849040000000,,,-1221704259398109696,0.0,14.516223927785177,-5.201702159064338,9.512762868635606,85,24,0.0,15,43108359802566,4,43.2,612.2364501953125,0.017100000753998756,0,0.0,0.0,,,,,0,,1,,
Raw,257650732,34849040000000,,,-1221704259398109696,0.0,14.516223927785177,-5.201702159064338,9.512762868635606,85,25,0.0,15,43108365464268,5,47.8,-401.9853820800781,0.025300001725554466,0,0.0,0.0,,,,,0,,1,,
Raw,257650733,34849040000000,,,-1221704259398109696,0.0,14.516223927785177,-5.201702159064338,9.512762868635606,85,31,0.0,15,43108361933661,4,44.9,-528.9934692382812,0.01979999989271164,0,0.0,0.0,,,,,0,,1,,
Raw,257650734,34849040000000,,,-1221704259398109696,0.0,14.516223927785177,-5.201702159064338,9.512762868635606,85,32,0.0,15,43108363194379,5,47.2,-233.8226776123047,0.022300001233816147,0,0.0,0.0,,,,,0,,1,,
Raw,257651723,34850040000000,,,-1221704259398109696,0.0,14.516203918901738,-6.6431767520133915,9.512742986666202,85,10,0.0,15,43109369503827,5,48.2,-314.69287109375,0.031300000846385956,0,0.0,0.0,,,,,0,,1,,
Raw,257651724,34850040000000,,,-1221704259398109696,0.0,14.516203918901738,-6.6431767520133915,9.512742986666202,85,12,0.0,15,43109364156547,5,47.0,18.903247833251953,0.023800000548362732,0,0.0,0.0,,,,,0,,1,,
Raw,257651725,34850040000000,,,-1221704259398109696,0.0,14.516203918901738,-6.6431767520133915,9.512742986666202,85,14,0.0,15,43109358971849,4,44.9,-265.4495544433594,0.04530000314116478,0,0.0,0.0,,,,,0,,1,,
Raw,257651726,34850040000000,,,-1221704259398109696,0.0,14.516203918901738,-6.6431767520133915,9.512742986666202,85,15,0.0,15,43109356261863,4,42.7,368.94549560546875,0.04280000180006027,0,0.0,0.0,,,,,0,,1,,
Raw,257651726,34850040000000,,,-1221704259398109696,0.0,14.516203918901738,-6.6431767520133915,9.512742986666202,85,20,0.0,15,43109371429468,4,51.3,92.65755462646484,0.034300003200769424,0,0.0,0.0,,,,,0,,1,,
Raw,257651727,34850040000000,,,-1221704259398109696,0.0,14.516203918901738,-6.6431767520133915,9.512742986666202,85,21,0.0,15,43109361983609,4,45.2,471.3177795410156,0.019600000232458115,0,0.0,0.0,,,,,0,,1,,
Raw,257651728,34850040000000,,,-1221704259398109696,0.0,14.516203918901738,-6.6431767520133915,9.512742986666202,85,24,0.0,15,43109359800520,4,43.5,613.9686279296875,0.017100000753998756,0,0.0,0.0,,,,,0,,1,,
Raw,257651728,34850040000000,,,-1221704259398109696,0.0,14.516203918901738,-6.6431767520133915,9.512742986666202,85,25,0.0,15,43109365465603,5,48.1,-400.1724548339844,0.025300001725554466,0,0.0,0.0,,,,,0,,1,,
Raw,257651729,34850040000000,,,-1221704259398109696,0.0,14.516203918901738,-6.6431767520133915,9.512742986666202,85,31,0.0,15,43109361935419,4,44.5,-527.2008056640625,0.01979999989271164,0,0.0,0.0,,,,,0,,1,,
Raw,257651730,34850040000000,,,-1221704259398109696,0.0,14.516203918901738,-6.6431767520133915,9.512742986666202,85,32,0.0,15,43109363195154,5,47.8,-232.09901428222656,0.022300001233816147,0,0.0,0.0,,,,,0,,1,,
Raw,257652727,34851040000000,,,-1221704259398109696,0.0,14.516183000523597,-0.8824360613101455,9.512722309418022,85,10,0.0,15,43110369504876,5,48.3,-314.45172119140625,0.031300000846385956,0,0.0,0.0,,,,,0,,1,,
Raw,257652728,34851040000000,,,-1221704259398109696,0.0,14.516183000523597,-0.8824360613101455,9.512722309418022,85,12,0.0,15,43110364156481,5,46.9,19.16429901123047,0.024000000208616257,0,0.0,0.0,,,,,0,,1,,
Raw,257652731,34851040000000,,,-1221704259398109696,0.0,14.516183000523597,-0.8824360613101455,9.512722309418022,85,14,0.0,15,43110358972734,4,45.0,-265.2765808105469,0.045100003480911255,0,0.0,0.0,,,,,0,,1,,
Raw,257652731,34851040000000,,,-1221704259398109696,0.0,14.516183000523597,-0.8824360613101455,9.512722309418022,85,15,0.0,15,43110356260625,4,43.2,369.1287536621094,0.04260000213980675,0,0.0,0.0,,,,,0,,1,,
Raw,257652732,34851040000000,,,-1221704259398109696,0.0,14.516183000523597,-0.8824360613101455,9.512722309418022,85,20,0.0,15,43110371429154,4,52.0,92.92802429199219,0.034300003200769424,0,0.0,0.0,,,,,0,,1,,
Raw,257652733,34851040000000,,,-1221704259398109696,0.0,14.516183000523597,-0.8824360613101455,9.512722309418022,85,21,0.0,15,43110361982036,4,45.4,471.47784423828125,0.019600000232458115,0,0.0,0.0,,,,,0,,1,,
Raw,257652734,34851040000000,,,-1221704259398109696,0.0,14.516183000523597,-0.8824360613101455,9.512722309418022,85,24,0.0,15,43110359798469,4,44.3,614.1039428710938,0.01680000126361847,0,0.0,0.0,,,,,0,,1,,
Raw,257652734,34851040000000,,,-1221704259398109696,0.0,14.516183000523597,-0.8824360613101455,9.512722309418022,85,25,0.0,15,43110365466932,5,48.5,-399.9447021484375,0.025300001725554466,0,0.0,0.0,,,,,0,,1,,
Raw,257652735,34851040000000,,,-1221704259398109696,0.0,14.516183000523597,-0.8824360613101455,9.512722309418022,85,31,0.0,15,43110361937170,4,45.8,-526.994140625,0.019600000232458115,0,0.0,0.0,,,,,0,,1,,
Raw,257652736,34851040000000,,,-1221704259398109696,0.0,14.516183000523597,-0.8824360613101455,9.512722309418022,85,32,0.0,15,43110363195927,5,47.5,-231.95602416992188,0.022300001233816147,0,0.0,0.0,,,,,0,,1,,
Raw,257653725,34852040000000,,,-1221704259398109696,0.0,14.516162991640158,-0.383650807196403,9.512702427448618,85,10,0.0,15,43111369505922,5,48.7,-314.9747009277344,0.031300000846385956,0,0.0,0.0,,,,,0,,1,,
Raw,257653726,34852040000000,,,-1221704259398109696,0.0,14.516162991640158,-0.383650807196403,9.512702427448618,85,12,0.0,15,43111364156418,4,45.5,18.685775756835938,0.02410000190138817,0,0.0,0.0,,,,,0,,1,,
Raw,257653726,34852040000000,,,-1221704259398109696,0.0,14.516162991640158,-0.383650807196403,9.512702427448618,85,14,0.0,15,43111358973619,4,44.2,-265.8922424316406,0.04530000314116478,0,0.0,0.0,,,,,0,,1,,
Raw,257653727,34852040000000,,,-1221704259398109696,0.0,14.516162991640158,-0.383650807196403,9.512702427448618,85,15,0.0,15,43111356259398,4,42.9,368.51141357421875,0.04280000180006027,0,0.0,0.0,,,,,0,,1,,
Raw,257653728,34852040000000,,,-1221704259398109696,0.0,14.516162991640158,-0.383650807196403,9.512702427448618,85,20,0.0,15,43111371428839,4,51.2,92.43171691894531,0.034300003200769424,0,0.0,0.0,,,,,0,,1,,
Raw,257653728,34852040000000,,,-1221704259398109696,0.0,14.516162991640158,-0.383650807196403,9.512702427448618,85,21,0.0,15,43111361980458,4,45.0,470.9088134765625,0.019600000232458115,0,0.0,0.0,,,,,0,,1,,
Raw,257653733,34852040000000,,,-1221704259398109696,0.0,14.516162991640158,-0.383650807196403,9.512702427448618,85,24,0.0,15,43111359796416,4,42.6,613.5195922851562,0.01730000041425228,0,0.0,0.0,,,,,0,,1,,
Raw,257653734,34852040000000,,,-1221704259398109696,0.0,14.516162991640158,-0.383650807196403,9.512702427448618,85,25,0.0,15,43111365468264,5,48.0,-400.45965576171875,0.025300001725554466,0,0.0,0.0,,,,,0,,1,,
Raw,257653735,34852040000000,,,-1221704259398109696,0.0,14.516162991640158,-0.383650807196403,9.512702427448618,85,31,0.0,15,43111361938924,4,44.0,-527.5202026367188,0.01979999989271164,0,0.0,0.0,,,,,0,,1,,
Raw,257653735,34852040000000,,,-1221704259398109696,0.0,14.516162991640158,-0.383650807196403,9.512702427448618,85,32,0.0,15,43111363196697,4,45.9,-232.55868530273438,0.022600000724196434,0,0.0,0.0,,,,,0,,1,,
Raw,257654712,34853040000000,,,-1221704259398109696,0.0,14.51614389225142,-2.401535131534738,9.512682545479214,85,10,0.0,15,43112369506963,4,44.5,-314.55126953125,0.03180000185966492,0,0.0,0.0,,,,,0,,1,,
Raw,257654713,34853040000000,,,-1221704259398109696,0.0,14.51614389225142,-2.401535131534738,9.512682545479214,85,12,0.0,15,43112364156347,5,40.9,19.15154457092285,0.02540000155568123,0,0.0,0.0,,,,,0,,1,,
Raw,257654713,34853040000000,,,-1221704259398109696,0.0,14.51614389225142,-2.401535131534738,9.512682545479214,85,14,0.0,15,43112358974504,6,39.4,-265.5589599609375,0.04660000279545784,0,0.0,0.0,,,,,0,,1,,
Raw,257654714,34853040000000,,,-1221704259398109696,0.0,14.51614389225142,-2.401535131534738,9.512682545479214,85,15,0.0,15,43112356258160,7,37.9,368.85479736328125,0.044600002467632294,0,0.0,0.0,,,,,0,,1,,
Raw,257654714,34853040000000,,,-1221704259398109696,0.0,14.51614389225142,-2.401535131534738,9.512682545479214,85,20,0.0,15,43112371428531,5,46.4,92.88002014160156,0.03450000286102295,0,0.0,0.0,,,,,0,,1,,
Raw,257654715,34853040000000,,,-1221704259398109696,0.0,14.51614389225142,-2.401535131534738,9.512682545479214,85,21,0.0,15,43112361978888,5,40.1,471.2825622558594,0.020899999886751175,0,0.0,0.0,,,,,0,,1,,
Raw,257654715,34853040000000,,,-1221704259398109696,0.0,14.51614389225142,-2.401535131534738,9.512682545479214,85,24,0.0,15,43112359794364,6,39.1,613.8643798828125,0.01810000091791153,0,0.0,0.0,,,,,0,,1,,
Raw,257654716,34853040000000,,,-1221704259398109696,0.0,14.51614389225142,-2.401535131534738,9.512682545479214,85,25,0.0,15,43112365469600,4,43.0,-400.0291748046875,0.026100000366568565,0,0.0,0.0,,,,,0,,1,,
Raw,257654716,34853040000000,,,-1221704259398109696,0.0,14.51614389225142,-2.401535131534738,9.512682545479214,85,31,0.0,15,43112361940681,6,39.9,-527.1011962890625,0.02110000140964985,0,0.0,0.0,,,,,0,,1,,
Raw,257654717,34853040000000,,,-1221704259398109696,0.0,14.51614389225142,-2.401535131534738,9.512682545479214,85,32,0.0,15,43112363197473,5,41.9,-232.2029266357422,0.023600000888109207,0,0.0,0.0,,,,,0,,1,,
Raw,257655721,34854040000000,,,-1221704259398109696,0.0,14.516123883367982,-1.2582186039673335,9.51266266350981,85,10,0.0,15,43113369508016,4,45.3,-314.6318359375,0.03160000219941139,0,0.0,0.0,,,,,0,,1,,
Raw,257655722,34854040000000,,,-1221704259398109696,0.0,14.516123883367982,-1.2582186039673335,9.51266266350981,85,12,0.0,15,43113364156280,5,41.0,19.10118293762207,0.025100000202655792,0,0.0,0.0,,,,,0,,1,,
Raw,257655723,34854040000000,,,-1221704259398109696,0.0,14.516123883367982,-1.2582186039673335,9.51266266350981,85,14,0.0,15,43113358975384,6,39.1,-265.71026611328125,0.04660000279545784,0,0.0,0.0,,,,,0,,1,,
Raw,257655723,34854040000000,,,-1221704259398109696,0.0,14.516123883367982,-1.2582186039673335,9.51266266350981,85,15,0.0,15,43113356256937,7,37.3,368.7080383300781,0.044600002467632294,0,0.0,0.0,,,,,0,,1,,
Raw,257655724,34854040000000,,,-1221704259398109696,0.0,14.516123883367982,-1.2582186039673335,9.51266266350981,85,20,0.0,15,43113371428221,5,46.4,92.8309555053711,0.03450000286102295,0,0.0,0.0,,,,,0,,1,,
Raw,257655725,34854040000000,,,-1221704259398109696,0.0,14.516123883367982,-1.2582186039673335,9.51266266350981,85,21,0.0,15,43113361977309,5,40.0,471.137451171875,0.020899999886751175,0,0.0,0.0,,,,,0,,1,,
Raw,257655725,34854040000000,,,-1221704259398109696,0.0,14.516123883367982,-1.2582186039673335,9.51266266350981,85,24,0.0,15,43113359792316,6,38.9,613.7003173828125,0.01860000006854534,0,0.0,0.0,,,,,0,,1,,
Raw,257655726,34854040000000,,,-1221704259398109696,0.0,14.516123883367982,-1.2582186039673335,9.51266266350981,85,25,0.0,15,43113365470931,4,42.6,-400.1118469238281,0.02630000188946724,0,0.0,0.0,,,,,0,,1,,
Raw,257655727,34854040000000,,,-1221704259398109696,0.0,14.516123883367982,-1.2582186039673335,9.51266266350981,85,31,0.0,15,43113361942447,6,39.5,-527.2095336914062,0.02110000140964985,0,0.0,0.0,,,,,0,,1,,
Raw,257655727,34854040000000,,,-1221704259398109696,0.0,14.516123883367982,-1.2582186039673335,9.51266266350981,85,32,0.0,15,43113363198242,5,41.8,-232.3702392578125,0.023600000888109207,0,0.0,0.0,,,,,0,,1,,
Raw,257656723,34855040000000,,,-1221704259398109696,0.0,14.516104783979245,-1.807228073779726,9.512642781540407,85,10,0.0,15,43114369509052,4,45.2,-315.09857177734375,0.03160000219941139,0,0.0,0.0,,,,,0,,1,,
Raw,257656724,34855040000000,,,-1221704259398109696,0.0,14.516104783979245,-1.807228073779726,9.512642781540407,85,12,0.0,15,43114364156206,5,41.4,18.673046112060547,0.025100000202655792,0,0.0,0.0,,,,,0,,1,,
Raw,257656725,34855040000000,,,-1221704259398109696,0.0,14.516104783979245,-1.807228073779726,9.512642781540407,85,14,0.0,15,43114358976259,6,39.7,-266.2699890136719,0.04660000279545784,0,0.0,0.0,,,,,0,,1,,
Raw,257656726,34855040000000,,,-1221704259398109696,0.0,14.516104783979245,-1.807228073779726,9.512642781540407,85,15,0.0,15,43114356255678,6,38.2,368.1621398925781,0.04410000145435333,0,0.0,0.0,,,,,0,,1,,
Raw,257656726,34855040000000,,,-1221704259398109696,0.0,14.516104783979245,-1.807228073779726,9.512642781540407,85,20,0.0,15,43114371427897,5,47.2,92.38874053955078,0.034300003200769424,0,0.0,0.0,,,,,0,,1,,
Raw,257656727,34855040000000,,,-1221704259398109696,0.0,14.516104783979245,-1.807228073779726,9.512642781540407,85,21,0.0,15,43114361975727,5,40.8,470.6180419921875,0.020899999886751175,0,0.0,0.0,,,,,0,,1,,
Raw,257656730,34855040000000,,,-1221704259398109696,0.0,14.516104783979245,-1.807228073779726,9.512642781540407,85,24,0.0,15,43114359790263,6,39.4,613.16357421875,0.01810000091791153,0,0.0,0.0,,,,,0,,1,,
Raw,257656731,34855040000000,,,-1221704259398109696,0.0,14.516104783979245,-1.807228073779726,9.512642781540407,85,25,0.0,15,43114365472249,4,43.3,-400.5731506347656,0.026100000366568565,0,0.0,0.0,,,,,0,,1,,
Raw,257656731,34855040000000,,,-1221704259398109696,0.0,14.516104783979245,-1.807228073779726,9.512642781540407,85,31,0.0,15,43114361944188,5,40.4,-527.6841430664062,0.020899999886751175,0,0.0,0.0,,,,,0,,1,,
Raw,257656731,34855040000000,,,-1221704259398109696,0.0,14.516104783979245,-1.807228073779726,9.512642781540407,85,32,0.0,15,43114363199000,4,42.5,-232.91513061523438,0.02330000139772892,0,0.0,0.0,,,,,0,,1,,
Raw,257657716,34856040000000,,,-1221704259398109696,0.0,14.516083865601104,-3.6327081931118133,9.512622899571003,85,10,0.0,15,43115369510112,4,44.7,-314.57440185546875,0.03180000185966492,0,0.0,0.0,,,,,0,,1,,
Raw,257657716,34856040000000,,,-1221704259398109696,0.0,14.516083865601104,-3.6327081931118133,9.512622899571003,85,12,0.0,15,43115364156162,5,41.5,19.24150276184082,0.025100000202655792,0,0.0,0.0,,,,,0,,1,,
Raw,257657717,34856040000000,,,-1221704259398109696,0.0,14.516083865601104,-3.6327081931118133,9.512622899571003,85,14,0.0,15,43115358977149,6,39.9,-265.8294372558594,0.04660000279545784,0,0.0,0.0,,,,,0,,1,,
Raw,257657717,34856040000000,,,-1221704259398109696,0.0,14.516083865601104,-3.6327081931118133,9.512622899571003,85,15,0.0,15,43115356254462,6,38.0,368.61480712890625,0.04410000145435333,0,0.0,0.0,,,,,0,,1,,
Raw,257657718,34856040000000,,,-1221704259398109696,0.0,14.516083865601104,-3.6327081931118133,9.512622899571003,85,20,0.0,15,43115371427594,5,47.2,92.94230651855469,0.034300003200769424,0,0.0,0.0,,,,,0,,1,,
Raw,257657719,34856040000000,,,-1221704259398109696,0.0,14.516083865601104,-3.6327081931118133,9.512622899571003,85,21,0.0,15,43115361974165,5,40.9,471.0920104980469,0.020899999886751175,0,0.0,0.0,,,,,0,,1,,
Raw,257657719,34856040000000,,,-1221704259398109696,0.0,14.516083865601104,-3.6327081931118133,9.512622899571003,85,24,0.0,15,43115359788218,6,39.7,613.6093139648438,0.01810000091791153,0,0.0,0.0,,,,,0,,1,,
Raw,257657719,34856040000000,,,-1221704259398109696,0.0,14.516083865601104,-3.6327081931118133,9.512622899571003,85,25,0.0,15,43115365473592,4,43.7,-400.03887939453125,0.026100000366568565,0,0.0,0.0,,,,,0,,1,,
Raw,257657720,34856040000000,,,-1221704259398109696,0.0,14.516083865601104,-3.6327081931118133,9.512622899571003,85,31,0.0,15,43115361945956,5,40.7,-527.1663208007812,0.020899999886751175,0,0.0,0.0,,,,,0,,1,,
Raw,257657720,34856040000000,,,-1221704259398109696,0.0,14.516083865601104,-3.6327081931118133,9.512622899571003,85,32,0.0,15,43115363199793,4,42.8,-232.4681854248047,0.02330000139772892,0,0.0,0.0,,,,,0,,1,,
Raw,257658719,34857040000000,,,-1221704259398109696,0.0,14.516063856717665,-2.145486779121454,9.512603017601599,85,10,0.0,15,43116369511162,5,46.1,-314.402099609375,0.03150000050663948,0,0.0,0.0,,,,,0,,1,,
Raw,257658720,34857040000000,,,-1221704259398109696,0.0,14.516063856717665,-2.145486779121454,9.512603017601599,85,12,0.0,15,43116364156088,4,42.3,19.445194244384766,0.024800000712275505,0,0.0,0.0,,,,,0,,1,,
Raw,257658720,34857040000000,,,-1221704259398109696,0.0,14.516063856717665,-2.145486779121454,9.512603017601599,85,14,0.0,15,43116358978037,5,40.5,-265.7388610839844,0.046400003135204315,0,0.0,0.0,,,,,0,,1,,
Raw,257658721,34857040000000,,,-1221704259398109696,0.0,14.516063856717665,-2.145486779121454,9.512603017601599,85,15,0.0,15,43116356253236,6,39.0,368.7007141113281,0.04360000044107437,0,0.0,0.0,,,,,0,,1,,
Raw,257658722,34857040000000,,,-1221704259398109696,0.0,14.516063856717665,-2.145486779121454,9.512603017601599,85,20,0.0,15,43116371427287,5,47.7,93.14180755615234,0.034300003200769424,0,0.0,0.0,,,,,0,,1,,
Raw,257658722,34857040000000,,,-1221704259398109696,0.0,14.516063856717665,-2.145486779121454,9.512603017601599,85,21,0.0,15,43116361972595,5,40.9,471.1952819824219,0.020899999886751175,0,0.0,0.0,,,,,0,,1,,
Raw,257658723,34857040000000,,,-1221704259398109696,0.0,14.516063856717665,-2.145486779121454,9.512603017601599,85,24,0.0,15,43116359786177,5,40.1,613.7024536132812,0.017900001257658005,0,0.0,0.0,,,,,0,,1,,
Raw,257658724,34857040000000,,,-1221704259398109696,0.0,14.516063856717665,-2.145486779121454,9.512603017601599,85,25,0.0,15,43116365474930,4,44.1,-399.8724060058594,0.025800000876188278,0,0.0,0.0,,,,,0,,1,,
Raw,257658724,34857040000000,,,-1221704259398109696,0.0,14.516063856717665,-2.145486779121454,9.512603017601599,85,31,0.0,15,43116361947716,5,41.4,-527.014892578125,0.020600000396370888,0,0.0,0.0,,,,,0,,1,,
Raw,257658725,34857040000000,,,-1221704259398109696,0.0,14.516063856717665,-2.145486779121454,9.512603017601599,85,32,0.0,15,43116363200565,4,43.2,-232.38580322265625,0.023100001737475395,0,0.0,0.0,,,,,0,,1,,
Raw,257659717,34858040000000,,,-1221704259398109696,0.0,14.516043847834226,-1.8787832816651193,9.512583135632195,85,10,0.0,15,43117369512199,5,47.9,-314.2312316894531,0.031300000846385956,0,0.0,0.0,,,,,0,,1,,
Raw,257659718,34858040000000,,,-1221704259398109696,0.0,14.516043847834226,-1.8787832816651193,9.512583135632195,85,12,0.0,15,43117364156009,4,44.7,19.658859252929688,0.024300001561641693,0,0.0,0.0,,,,,0,,1,,
Raw,257659719,34858040000000,,,-1221704259398109696,0.0,14.516043847834226,-1.8787832816651193,9.512583135632195,85,14,0.0,15,43117358978912,4,42.4,-265.6582336425781,0.04580000042915344,0,0.0,0.0,,,,,0,,1,,
Raw,257659720,34858040000000,,,-1221704259398109696,0.0,14.516043847834226,-1.8787832816651193,9.512583135632195,85,15,0.0,15,43117356251988,5,40.4,368.798095703125,0.04340000078082085,0,0.0,0.0,,,,,0,,1,,
Raw,257659720,34858040000000,,,-1221704259398109696,0.0,14.516043847834226,-1.8787832816651193,9.512583135632195,85,20,0.0,15,43117371426963,4,49.4,93.33458709716797,0.034300003200769424,0,0.0,0.0,,,,,0,,1,,
Raw,257659721,34858040000000,,,-1221704259398109696,0.0,14.516043847834226,-1.8787832816651193,9.512583135632195,85,21,0.0,15,43117361971010,4,43.2,471.32147216796875,0.020100001245737076,0,0.0,0.0,,,,,0,,1,,
Raw,257659722,34858040000000,,,-1221704259398109696,0.0,14.516043847834226,-1.8787832816651193,9.512583135632195,85,24,0.0,15,43117359784118,5,41.9,613.7963256835938,0.01759999990463257,0,0.0,0.0,,,,,0,,1,,
Raw,257659722,34858040000000,,,-1221704259398109696,0.0,14.516043847834226,-1.8787832816651193,9.512583135632195,85,25,0.0,15,43117365476249,5,46.1,-399.697265625,0.02550000138580799,0,0.0,0.0,,,,,0,,1,,
Raw,257659723,34858040000000,,,-1221704259398109696,0.0,14.516043847834226,-1.8787832816651193,9.512583135632195,85,31,0.0,15,43117361949460,4,43.3,-526.8529663085938,0.020100001245737076,0,0.0,0.0,,,,,0,,1,,
Raw,257659723,34858040000000,,,-1221704259398109696,0.0,14.516043847834226,-1.8787832816651193,9.512583135632195,85,32,0.0,15,43117363201333,4,45.0,-232.29640197753906,0.022600000724196434,0,0.0,0.0,,,,,0,,1,,
Raw,257660716,34859040000000,,,-1221704259398109696,0.0,14.516022929456085,-1.564249829823163,9.512562458384014,85,10,0.0,15,43118369513247,5,48.2,-314.0885925292969,0.031300000846385956,0,0.0,0.0,,,,,0,,1,,
Raw,257660717,34859040000000,,,-1221704259398109696,0.0,14.516022929456085,-1.564249829823163,9.512562458384014,85,12,0.0,15,43118364155951,4,44.7,19.8350830078125,0.024300001561641693,0,0.0,0.0,,,,,0,,1,,
Raw,257660717,34859040000000,,,-1221704259398109696,0.0,14.516022929456085,-1.564249829823163,9.512562458384014,85,14,0.0,15,43118358979797,4,42.9,-265.59051513671875,0.04580000042915344,0,0.0,0.0,,,,,0,,1,,
Raw,257660718,34859040000000,,,-1221704259398109696,0.0,14.516022929456085,-1.564249829823163,9.512562458384014,85,15,0.0,15,43118356250765,5,40.8,368.85888671875,0.04340000078082085,0,0.0,0.0,,,,,0,,1,,
Raw,257660719,34859040000000,,,-1221704259398109696,0.0,14.516022929456085,-1.564249829823163,9.512562458384014,85,20,0.0,15,43118371426652,4,49.8,93.50782012939453,0.034300003200769424,0,0.0,0.0,,,,,0,,1,,
Raw,257660721,34859040000000,,,-1221704259398109696,0.0,14.516022929456085,-1.564249829823163,9.512562458384014,85,21,0.0,15,43118361969441,4,43.3,471.4002685546875,0.020100001245737076,0,0.0,0.0,,,,,0,,1,,
Raw,257660721,34859040000000,,,-1221704259398109696,0.0,14.516022929456085,-1.564249829823163,9.512562458384014,85,24,0.0,15,43118359782064,4,42.3,613.8588256835938,0.01730000041425228,0,0.0,0.0,,,,,0,,1,,
Raw,257660721,34859040000000,,,-1221704259398109696,0.0,14.516022929456085,-1.564249829823163,9.512562458384014,85,25,0.0,15,43118365477586,5,46.5,-399.55194091796875,0.02550000138580799,0,0.0,0.0,,,,,0,,1,,
Raw,257660722,34859040000000,,,-1221704259398109696,0.0,14.516022929456085,-1.564249829823163,9.512562458384014,85,31,0.0,15,43118361951217,4,44.0,-526.728271484375,0.01979999989271164,0,0.0,0.0,,,,,0,,1,,
Raw,257660722,34859040000000,,,-1221704259398109696,0.0,14.516022929456085,-1.564249829823163,9.512562458384014,85,32,0.0,15,43118363202104,4,45.6,-232.2374725341797,0.022600000724196434,0,0.0,0.0,,,,,0,,1,,
Raw,257661718,34860040000000,,,-1221704259398109696,0.0,14.516003830067348,-1.3808268322984487,9.51254257641461,85,10,0.0,15,43119369514295,4,49.2,-314.18011474609375,0.031300000846385956,0,0.0,0.0,,,,,0,,1,,
Raw,257661719,34860040000000,,,-1221704259398109696,0.0,14.516003830067348,-1.3808268322984487,9.51254257641461,85,12,0.0,15,43119364155883,5,46.2,19.78449249267578,0.024000000208616257,0,0.0,0.0,,,,,0,,1,,
Raw,257661719,34860040000000,,,-1221704259398109696,0.0,14.516003830067348,-1.3808268322984487,9.51254257641461,85,14,0.0,15,43119358980684,4,44.2,-265.77197265625,0.04530000314116478,0,0.0,0.0,,,,,0,,1,,
Raw,257661720,34860040000000,,,-1221704259398109696,0.0,14.516003830067348,-1.3808268322984487,9.51254257641461,85,15,0.0,15,43119356249532,4,42.2,368.692138671875,0.04280000180006027,0,0.0,0.0,,,,,0,,1,,
Raw,257661720,34860040000000,,,-1221704259398109696,0.0,14.516003830067348,-1.3808268322984487,9.51254257641461,85,20,0.0,15,43119371426339,4,50.9,93.45100402832031,0.034300003200769424,0,0.0,0.0,,,,,0,,1,,
Raw,257661720,34860040000000,,,-1221704259398109696,0.0,14.516003830067348,-1.3808268322984487,9.51254257641461,85,21,0.0,15,43119361967869,4,44.2,471.2557373046875,0.01979999989271164,0,0.0,0.0,,,,,0,,1,,
Raw,257661721,34860040000000,,,-1221704259398109696,0.0,14.516003830067348,-1.3808268322984487,9.51254257641461,85,24,0.0,15,43119359780019,4,43.4,613.5789184570312,0.017100000753998756,0,0.0,0.0,,,,,0,,1,,
Raw,257661721,34860040000000,,,-1221704259398109696,0.0,14.516003830067348,-1.3808268322984487,9.51254257641461,85,25,0.0,15,43119365478914,5,47.8,-399.64105224609375,0.025300001725554466,0,0.0,0.0,,,,,0,,1,,
Raw,257661721,34860040000000,,,-1221704259398109696,0.0,14.516003830067348,-1.3808268322984487,9.51254257641461,85,31,0.0,15,43119361952974,4,44.8,-526.8370971679688,0.01979999989271164,0,0.0,0.0,,,,,0,,1,,
Raw,257661722,34860040000000,,,-1221704259398109696,0.0,14.516003830067348,-1.3808268322984487,9.51254257641461,85,32,0.0,15,43119363202879,5,46.8,-232.39907836914062,0.02250000089406967,0,0.0,0.0,,,,,0,,1,,
Raw,257662717,34861040000000,,,-1221704259398109696,0.0,14.51598473067861,-2.070861198700984,9.512522694445206,85,10,0.0,15,43120369515334,4,49.5,-314.06060791015625,0.031300000846385956,0,0.0,0.0,,,,,0,,1,,
Raw,257662719,34861040000000,,,-1221704259398109696,0.0,14.51598473067861,-2.070861198700984,9.512522694445206,85,12,0.0,15,43120364155813,5,47.1,19.93807601928711,0.023800000548362732,0,0.0,0.0,,,,,0,,1,,
Raw,257662720,34861040000000,,,-1221704259398109696,0.0,14.51598473067861,-2.070861198700984,9.512522694445206,85,14,0.0,15,43120358981567,4,45.5,-265.7479553222656,0.045100003480911255,0,0.0,0.0,,,,,0,,1,,
Raw,257662720,34861040000000,,,-1221704259398109696,0.0,14.51598473067861,-2.070861198700984,9.512522694445206,85,15,0.0,15,43120356248294,4,43.1,368.7343444824219,0.04260000213980675,0,0.0,0.0,,,,,0,,1,,
Raw,257662721,34861040000000,,,-1221704259398109696,0.0,14.51598473067861,-2.070861198700984,9.512522694445206,85,20,0.0,15,43120371426024,4,51.7,93.59149169921875,0.034300003200769424,0,0.0,0.0,,,,,0,,1,,
Raw,257662721,34861040000000,,,-1221704259398109696,0.0,14.51598473067861,-2.070861198700984,9.512522694445206,85,21,0.0,15,43120361966290,4,44.7,471.3152770996094,0.01979999989271164,0,0.0,0.0,,,,,0,,1,,
Raw,257662722,34861040000000,,,-1221704259398109696,0.0,14.51598473067861,-2.070861198700984,9.512522694445206,85,24,0.0,15,43120359777971,4,44.9,613.7333984375,0.01680000126361847,0,0.0,0.0,,,,,0,,1,,
Raw,257662722,34861040000000,,,-1221704259398109696,0.0,14.51598473067861,-2.070861198700984,9.512522694445206,85,25,0.0,15,43120365480244,5,48.3,-399.51904296875,0.025300001725554466,0,0.0,0.0,,,,,0,,1,,
Raw,257662723,34861040000000,,,-1221704259398109696,0.0,14.51598473067861,-2.070861198700984,9.512522694445206,85,31,0.0,15,43120361954726,5,46.1,-526.7314453125,0.019500000402331352,0,0.0,0.0,,,,,0,,1,,
Raw,257662724,34861040000000,,,-1221704259398109696,0.0,14.51598473067861,-2.070861198700984,9.512522694445206,85,32,0.0,15,43120363203650,5,48.0,-232.36329650878906,0.022300001233816147,0,0.0,0.0,,,,,0,,1,,
Raw,257663718,34862040000000,,,-1221704259398109696,0.0,14.515964721795171,-1.8591899984567566,9.512502812475802,85,10,0.0,15,43121369516380,4,50.4,-313.96533203125,0.031300000846385956,0,0.0,0.0,,,,,0,,1,,
Raw,257663719,34862040000000,,,-1221704259398109696,0.0,14.515964721795171,-1.8591899984567566,9.512502812475802,85,12,0.0,15,43121364155742,5,46.7,20.06952476501465,0.024000000208616257,0,0.0,0.0,,,,,0,,1,,
Raw,257663719,34862040000000,,,-1221704259398109696,0.0,14.515964721795171,-1.8591899984567566,9.512502812475802,85,14,0.0,15,43121358982448,4,45.4,-265.7331848144531,0.045100003480911255,0,0.0,0.0,,,,,0,,1,,
Raw,257663720,34862040000000,,,-1221704259398109696,0.0,14.515964721795171,-1.8591899984567566,9.512502812475802,85,15,0.0,15,43121356247069,4,42.6,368.75469970703125,0.04280000180006027,0,0.0,0.0,,,,,0,,1,,
Raw,257663720,34862040000000,,,-1221704259398109696,0.0,14.515964721795171,-1.8591899984567566,9.512502812475802,85,20,0.0,15,43121371425704,4,51.2,93.715087890625,0.034300003200769424,0,0.0,0.0,,,,,0,,1,,
Raw,257663721,34862040000000,,,-1221704259398109696,0.0,14.515964721795171,-1.8591899984567566,9.512502812475802,85,21,0.0,15,43121361964711,4,44.7,471.3510437011719,0.01979999989271164,0,0.0,0.0,,,,,0,,1,,
Raw,257663722,34862040000000,,,-1221704259398109696,0.0,14.515964721795171,-1.8591899984567566,9.512502812475802,85,24,0.0,15,43121359775920,4,45.1,613.7437133789062,0.016600001603364944,0,0.0,0.0,,,,,0,,1,,
Raw,257663722,34862040000000,,,-1221704259398109696,0.0,14.515964721795171,-1.8591899984567566,9.512502812475802,85,25,0.0,15,43121365481572,5,48.6,-399.42236328125,0.025300001725554466,0,0.0,0.0,,,,,0,,1,,
Raw,257663723,34862040000000,,,-1221704259398109696,0.0,14.515964721795171,-1.8591899984567566,9.512502812475802,85,31,0.0,15,43121361956481,4,45.6,-526.6544799804688,0.019600000232458115,0,0.0,0.0,,,,,0,,1,,
Raw,257663723,34862040000000,,,-1221704259398109696,0.0,14.515964721795171,-1.8591899984567566,9.512502812475802,85,32,0.0,15,43121363204423,5,47.6,-232.35694885253906,0.022300001233816147,0,0.0,0.0,,,,,0,,1,,
Raw,257664714,34863040000000,,,-1221704259398109696,0.0,14.51594380341703,-1.8282170712402572,9.512482930506398,85,10,0.0,15,43122369517429,5,48.5,-314.60760498046875,0.031300000846385956,0,0.0,0.0,,,,,0,,1,,
Raw,257664715,34863040000000,,,-1221704259398109696,0.0,14.51594380341703,-1.8282170712402572,9.512482930506398,85,12,0.0,15,43122364155673,4,45.5,19.467350006103516,0.02410000190138817,0,0.0,0.0,,,,,0,,1,,
Raw,257664715,34863040000000,,,-1221704259398109696,0.0,14.51594380341703,-1.8282170712402572,9.512482930506398,85,14,0.0,15,43122358983338,4,44.1,-266.46844482421875,0.04530000314116478,0,0.0,0.0,,,,,0,,1,,
Raw,257664716,34863040000000,,,-1221704259398109696,0.0,14.51594380341703,-1.8282170712402572,9.512482930506398,85,15,0.0,15,43122356245832,4,42.2,368.0316467285156,0.04280000180006027,0,0.0,0.0,,,,,0,,1,,
Raw,257664717,34863040000000,,,-1221704259398109696,0.0,14.51594380341703,-1.8282170712402572,9.512482930506398,85,20,0.0,15,43122371425392,4,50.4,93.09978485107422,0.034300003200769424,0,0.0,0.0,,,,,0,,1,,
Raw,257664718,34863040000000,,,-1221704259398109696,0.0,14.51594380341703,-1.8282170712402572,9.512482930506398,85,21,0.0,15,43122361963139,4,44.3,470.65960693359375,0.01979999989271164,0,0.0,0.0,,,,,0,,1,,
Raw,257664719,34863040000000,,,-1221704259398109696,0.0,14.51594380341703,-1.8282170712402572,9.512482930506398,85,24,0.0,15,43122359773871,4,42.9,613.029052734375,0.01730000041425228,0,0.0,0.0,,,,,0,,1,,
Raw,257664719,34863040000000,,,-1221704259398109696,0.0,14.51594380341703,-1.8282170712402572,9.512482930506398,85,25,0.0,15,43122365482905,5,47.9,-400.0583801269531,0.025300001725554466,0,0.0,0.0,,,,,0,,1,,
Raw,257664720,34863040000000,,,-1221704259398109696,0.0,14.51594380341703,-1.8282170712402572,9.512482930506398,85,31,0.0,15,43122361958235,4,44.7,-527.301513671875,0.01979999989271164,0,0.0,0.0,,,,,0,,1,,
Raw,257664721,34863040000000,,,-1221704259398109696,0.0,14.51594380341703,-1.8282170712402572,9.512482930506398,85,32,0.0,15,43122363205194,5,47.1,-233.07406616210938,0.022300001233816147,0,0.0,0.0,,,,,0,,1,,
Raw,257665716,34864040000000,,,-1221704259398109696,0.0,14.515923794533592,-4.238522934757924,9.512463048536993,85,10,0.0,15,43123369518474,4,45.9,-314.07818603515625,0.03160000219941139,0,0.0,0.0,,,,,0,,1,,
Raw,257665717,34864040000000,,,-1221704259398109696,0.0,14.515923794533592,-4.238522934757924,9.512463048536993,85,12,0.0,15,43123364155607,4,42.0,20.03680992126465,0.024800000712275505,0,0.0,0.0,,,,,0,,1,,
Raw,257665717,34864040000000,,,-1221704259398109696,0.0,14.515923794533592,-4.238522934757924,9.512463048536993,85,14,0.0,15,43123358984229,5,40.3,-266.0207824707031,0.046400003135204315,0,0.0,0.0,,,,,0,,1,,
Raw,257665718,34864040000000,,,-1221704259398109696,0.0,14.515923794533592,-4.238522934757924,9.512463048536993,85,15,0.0,15,43123356244601,6,38.6,368.47412109375,0.04410000145435333,0,0.0,0.0,,,,,0,,1,,
Raw,257665720,34864040000000,,,-1221704259398109696,0.0,14.515923794533592,-4.238522934757924,9.512463048536993,85,20,0.0,15,43123371425086,5,47.1,93.659912109375,0.034300003200769424,0,0.0,0.0,,,,,0,,1,,
Raw,257665720,34864040000000,,,-1221704259398109696,0.0,14.515923794533592,-4.238522934757924,9.512463048536993,85,21,0.0,15,43123361961565,5,41.0,471.1356201171875,0.020600000396370888,0,0.0,0.0,,,,,0,,1,,
Raw,257665721,34864040000000,,,-1221704259398109696,0.0,14.515923794533592,-4.238522934757924,9.512463048536993,85,24,0.0,15,43123359771826,6,39.7,613.4970092773438,0.01810000091791153,0,0.0,0.0,,,,,0,,1,,
Raw,257665721,34864040000000,,,-1221704259398109696,0.0,14.515923794533592,-4.238522934757924,9.512463048536993,85,25,0.0,15,43123365484237,4,43.6,-399.5273132324219,0.026100000366568565,0,0.0,0.0,,,,,0,,1,,
Raw,257665721,34864040000000,,,-1221704259398109696,0.0,14.515923794533592,-4.238522934757924,9.512463048536993,85,31,0.0,15,43123361959993,5,40.7,-526.790771484375,0.020899999886751175,0,0.0,0.0,,,,,0,,1,,
Raw,257665722,34864040000000,,,-1221704259398109696,0.0,14.515923794533592,-4.238522934757924,9.512463048536993,85,32,0.0,15,43123363205973,4,42.8,-232.6326141357422,0.02330000139772892,0,0.0,0.0,,,,,0,,1,,
Raw,257666716,34865040000000,,,-1221704259398109696,0.0,14.515902876155451,-2.755840773202218,9.512442371288813,85,10,0.0,15,43124369519513,4,42.6,-313.3199768066406,0.03230000287294388,0,0.0,0.0,,,,,0,,1,,
Raw,257666717,34865040000000,,,-1221704259398109696,0.0,14.515902876155451,-2.755840773202218,9.512442371288813,85,12,0.0,15,43124364155538,6,38.4,20.829437255859375,0.026100000366568565,0,0.0,0.0,,,,,0,,1,,
Raw,257666717,34865040000000,,,-1221704259398109696,0.0,14.515902876155451,-2.755840773202218,9.512442371288813,85,14,0.0,15,43124358985109,8,36.2,-265.34344482421875,0.04820000380277634,0,0.0,0.0,,,,,0,,1,,
Raw,257666718,34865040000000,,,-1221704259398109696,0.0,14.515902876155451,-2.755840773202218,9.512442371288813,85,15,0.0,15,43124356243363,10,34.7,369.1698913574219,0.04610000178217888,0,0.0,0.0,,,,,0,,1,,
Raw,257666719,34865040000000,,,-1221704259398109696,0.0,14.515902876155451,-2.755840773202218,9.512442371288813,85,20,0.0,15,43124371424768,4,43.8,94.44413757324219,0.035100001841783524,0,0.0,0.0,,,,,0,,1,,
Raw,257666719,34865040000000,,,-1221704259398109696,0.0,14.515902876155451,-2.755840773202218,9.512442371288813,85,21,0.0,15,43124361959998,7,37.7,471.8269348144531,0.022100001573562622,0,0.0,0.0,,,,,0,,1,,
Raw,257666720,34865040000000,,,-1221704259398109696,0.0,14.515902876155451,-2.755840773202218,9.512442371288813,85,24,0.0,15,43124359769767,8,36.2,614.1630859375,0.019700000062584877,0,0.0,0.0,,,,,0,,1,,
Raw,257666721,34865040000000,,,-1221704259398109696,0.0,14.515902876155451,-2.755840773202218,9.512442371288813,85,25,0.0,15,43124365485567,5,40.1,-398.76666259765625,0.026900000870227814,0,0.0,0.0,,,,,0,,1,,
Raw,257666721,34865040000000,,,-1221704259398109696,0.0,14.515902876155451,-2.755840773202218,9.512442371288813,85,31,0.0,15,43124361961742,7,37.5,-526.046142578125,0.022100001573562622,0,0.0,0.0,,,,,0,,1,,
Raw,257666722,34865040000000,,,-1221704259398109696,0.0,14.515902876155451,-2.755840773202218,9.512442371288813,85,32,0.0,15,43124363206746,6,38.9,-231.96426391601562,0.02460000105202198,0,0.0,0.0,,,,,0,,1,,
Raw,257667714,34866040000000,,,-1221704259398109696,0.0,14.515883776766714,-0.5033866128503212,9.512422489319409,85,10,0.0,15,43125369520546,5,46.7,-313.5608215332031,0.03150000050663948,0,0.0,0.0,,,,,0,,1,,
Raw,257667715,34866040000000,,,-1221704259398109696,0.0,14.515883776766714,-0.5033866128503212,9.512422489319409,85,12,0.0,15,43125364155450,4,42.9,20.625282287597656,0.024800000712275505,0,0.0,0.0,,,,,0,,1,,
Raw,257667715,34866040000000,,,-1221704259398109696,0.0,14.515883776766714,-0.5033866128503212,9.512422489319409,85,14,0.0,15,43125358985982,5,40.9,-265.6620788574219,0.046400003135204315,0,0.0,0.0,,,,,0,,1,,
Raw,257667716,34866040000000,,,-1221704259398109696,0.0,14.515883776766714,-0.5033866128503212,9.512422489319409,85,15,0.0,15,43125356242126,6,38.9,368.8504333496094,0.04410000145435333,0,0.0,0.0,,,,,0,,1,,
Raw,257667716,34866040000000,,,-1221704259398109696,0.0,14.515883776766714,-0.5033866128503212,9.512422489319409,85,20,0.0,15,43125371424434,5,48.1,94.23241424560547,0.034300003200769424,0,0.0,0.0,,,,,0,,1,,
Raw,257667717,34866040000000,,,-1221704259398109696,0.0,14.515883776766714,-0.5033866128503212,9.512422489319409,85,21,0.0,15,43125361958399,5,41.6,471.5288391113281,0.020600000396370888,0,0.0,0.0,,,,,0,,1,,
Raw,257667717,34866040000000,,,-1221704259398109696,0.0,14.515883776766714,-0.5033866128503212,9.512422489319409,85,24,0.0,15,43125359767709,5,40.4,613.8441162109375,0.017900001257658005,0,0.0,0.0,,,,,0,,1,,
Raw,257667718,34866040000000,,,-1221704259398109696,0.0,14.515883776766714,-0.5033866128503212,9.512422489319409,85,25,0.0,15,43125365486878,4,44.6,-399.0067443847656,0.025800000876188278,0,0.0,0.0,,,,,0,,1,,
Raw,257667719,34866040000000,,,-1221704259398109696,0.0,14.515883776766714,-0.5033866128503212,9.512422489319409,85,31,0.0,15,43125361963483,5,41.8,-526.3031616210938,0.020600000396370888,0,0.0,0.0,,,,,0,,1,,
Raw,257667720,34866040000000,,,-1221704259398109696,0.0,14.515883776766714,-0.5033866128503212,9.512422489319409,85,32,0.0,15,43125363207505,4,43.5,-232.27603149414062,0.023100001737475395,0,0.0,0.0,,,,,0,,1,,
Raw,257668723,34867040000000,,,-1221704259398109696,0.0,14.515863767883275,-1.5800398911042135,9.512402607350005,85,10,0.0,15,43126369521598,5,46.4,-313.8145751953125,0.03150000050663948,0,0.0,0.0,,,,,0,,1,,
Raw,257668724,34867040000000,,,-1221704259398109696,0.0,14.515863767883275,-1.5800398911042135,9.512402607350005,85,12,0.0,15,43126364155378,4,42.0,20.403329849243164,0.024800000712275505,0,0.0,0.0,,,,,0,,1,,
Raw,257668724,34867040000000,,,-1221704259398109696,0.0,14.515863767883275,-1.5800398911042135,9.512402607350005,85,14,0.0,15,43126358986868,5,40.4,-266.003662109375,0.046400003135204315,0,0.0,0.0,,,,,0,,1,,
Raw,257668725,34867040000000,,,-1221704259398109696,0.0,14.515863767883275,-1.5800398911042135,9.512402607350005,85,15,0.0,15,43126356240892,6,38.5,368.50933837890625,0.04410000145435333,0,0.0,0.0,,,,,0,,1,,
Raw,257668738,34867040000000,,,-1221704259398109696,0.0,14.515863767883275,-1.5800398911042135,9.512402607350005,85,20,0.0,15,43126371424119,5,47.5,94.00325775146484,0.034300003200769424,0,0.0,0.0,,,,,0,,1,,
Raw,257668738,34867040000000,,,-1221704259398109696,0.0,14.515863767883275,-1.5800398911042135,9.512402607350005,85,21,0.0,15,43126361956837,5,41.0,471.21600341796875,0.020600000396370888,0,0.0,0.0,,,,,0,,1,,
Raw,257668739,34867040000000,,,-1221704259398109696,0.0,14.515863767883275,-1.5800398911042135,9.512402607350005,85,24,0.0,15,43126359765663,5,40.3,613.5081176757812,0.017900001257658005,0,0.0,0.0,,,,,0,,1,,
Raw,257668739,34867040000000,,,-1221704259398109696,0.0,14.515863767883275,-1.5800398911042135,9.512402607350005,85,25,0.0,15,43126365488216,4,43.9,-399.26153564453125,0.026100000366568565,0,0.0,0.0,,,,,0,,1,,
Raw,257668739,34867040000000,,,-1221704259398109696,0.0,14.515863767883275,-1.5800398911042135,9.512402607350005,85,31,0.0,15,43126361965242,5,41.1,-526.5697631835938,0.020600000396370888,0,0.0,0.0,,,,,0,,1,,
Raw,257668740,34867040000000,,,-1221704259398109696,0.0,14.515863767883275,-1.5800398911042135,9.512402607350005,85,32,0.0,15,43126363208280,4,42.8,-232.61148071289062,0.02330000139772892,0,0.0,0.0,,,,,0,,1,,
Raw,257669715,34868040000000,,,-1221704259398109696,0.0,14.515843758999836,-2.724730063937748,9.5123827253806,85,10,0.0,15,43127369522653,5,46.6,-313.78326416015625,0.03150000050663948,0,0.0,0.0,,,,,0,,1,,
Raw,257669716,34868040000000,,,-1221704259398109696,0.0,14.515843758999836,-2.724730063937748,9.5123827253806,85,12,0.0,15,43127364155323,4,42.1,20.47406768798828,0.024800000712275505,0,0.0,0.0,,,,,0,,1,,
Raw,257669716,34868040000000,,,-1221704259398109696,0.0,14.515843758999836,-2.724730063937748,9.5123827253806,85,14,0.0,15,43127358987771,5,40.2,-266.0578308105469,0.046400003135204315,0,0.0,0.0,,,,,0,,1,,
Raw,257669718,34868040000000,,,-1221704259398109696,0.0,14.515843758999836,-2.724730063937748,9.5123827253806,85,15,0.0,15,43127356239685,6,38.6,368.472900390625,0.04410000145435333,0,0.0,0.0,,,,,0,,1,,
Raw,257669718,34868040000000,,,-1221704259398109696,0.0,14.515843758999836,-2.724730063937748,9.5123827253806,85,20,0.0,15,43127371423818,5,47.6,94.06826782226562,0.034300003200769424,0,0.0,0.0,,,,,0,,1,,
Raw,257669719,34868040000000,,,-1221704259398109696,0.0,14.515843758999836,-2.724730063937748,9.5123827253806,85,21,0.0,15,43127361955275,5,41.0,471.19512939453125,0.020600000396370888,0,0.0,0.0,,,,,0,,1,,
Raw,257669720,34868040000000,,,-1221704259398109696,0.0,14.515843758999836,-2.724730063937748,9.5123827253806,85,24,0.0,15,43127359763627,6,39.4,613.4583129882812,0.01810000091791153,0,0.0,0.0,,,,,0,,1,,
Raw,257669720,34868040000000,,,-1221704259398109696,0.0,14.515843758999836,-2.724730063937748,9.5123827253806,85,25,0.0,15,43127365489557,4,43.8,-399.2210693359375,0.026100000366568565,0,0.0,0.0,,,,,0,,1,,
Raw,257669721,34868040000000,,,-1221704259398109696,0.0,14.515843758999836,-2.724730063937748,9.5123827253806,85,31,0.0,15,43127361967007,5,41.3,-526.5538330078125,0.020600000396370888,0,0.0,0.0,,,,,0,,1,,
Raw,257669721,34868040000000,,,-1221704259398109696,0.0,14.515843758999836,-2.724730063937748,9.5123827253806,85,32,0.0,15,43127363209070,4,42.5,-232.6594696044922,0.02330000139772892,0,0.0,0.0,,,,,0,,1,,
Raw,257670686,34869040000000,,,-1221704259398109696,0.0,14.515823750116397,-2.8952346524322943,9.512362843411196,85,10,0.0,15,43128369523686,5,48.2,-313.8082275390625,0.031300000846385956,0,0.0,0.0,,,,,0,,1,,
Raw,257670686,34869040000000,,,-1221704259398109696,0.0,14.515823750116397,-2.8952346524322943,9.512362843411196,85,12,0.0,15,43128364155248,4,43.8,20.493520736694336,0.02460000105202198,0,0.0,0.0,,,,,0,,1,,
Raw,257670686,34869040000000,,,-1221704259398109696,0.0,14.515823750116397,-2.8952346524322943,9.512362843411196,85,14,0.0,15,43128358988637,5,41.5,-266.15655517578125,0.04610000178217888,0,0.0,0.0,,,,,0,,1,,
Raw,257670687,34869040000000,,,-1221704259398109696,0.0,14.515823750116397,-2.8952346524322943,9.512362843411196,85,15,0.0,15,43128356238442,5,40.0,368.3760681152344,0.04340000078082085,0,0.0,0.0,,,,,0,,1,,
Raw,257670687,34869040000000,,,-1221704259398109696,0.0,14.515823750116397,-2.8952346524322943,9.512362843411196,85,20,0.0,15,43128371423493,4,49.2,94.07213592529297,0.034300003200769424,0,0.0,0.0,,,,,0,,1,,
Raw,257670687,34869040000000,,,-1221704259398109696,0.0,14.515823750116397,-2.8952346524322943,9.512362843411196,85,21,0.0,15,43128361953685,4,42.2,471.1165466308594,0.0203000009059906,0,0.0,0.0,,,,,0,,1,,
Raw,257670688,34869040000000,,,-1221704259398109696,0.0,14.515823750116397,-2.8952346524322943,9.512362843411196,85,24,0.0,15,43128359761569,5,41.6,613.3734741210938,0.01759999990463257,0,0.0,0.0,,,,,0,,1,,
Raw,257670688,34869040000000,,,-1221704259398109696,0.0,14.515823750116397,-2.8952346524322943,9.512362843411196,85,25,0.0,15,43128365490875,4,45.4,-399.2439270019531,0.025600001215934753,0,0.0,0.0,,,,,0,,1,,
Raw,257670688,34869040000000,,,-1221704259398109696,0.0,14.515823750116397,-2.8952346524322943,9.512362843411196,85,31,0.0,15,43128361968753,4,42.6,-526.5906982421875,0.0203000009059906,0,0.0,0.0,,,,,0,,1,,
Raw,257670689,34869040000000,,,-1221704259398109696,0.0,14.515823750116397,-2.8952346524322943,9.512362843411196,85,32,0.0,15,43128363209832,4,44.5,-232.76699829101562,0.02280000038444996,0,0.0,0.0,,,,,0,,1,,
Raw,257671716,34870040000000,,,-1221704259398109696,0.0,14.515802831738256,-3.217005439366888,9.512342166163016,85,10,0.0,15,43129369524737,4,45.8,-313.3812561035156,0.03160000219941139,0,0.0,0.0,,,,,0,,1,,
Raw,257671717,34870040000000,,,-1221704259398109696,0.0,14.515802831738256,-3.217005439366888,9.512342166163016,85,12,0.0,15,43129364155177,4,42.0,20.957263946533203,0.024800000712275505,0,0.0,0.0,,,,,0,,1,,
Raw,257671718,34870040000000,,,-1221704259398109696,0.0,14.515802831738256,-3.217005439366888,9.512342166163016,85,14,0.0,15,43129358989526,6,39.8,-265.8296813964844,0.04660000279545784,0,0.0,0.0,,,,,0,,1,,
Raw,257671719,34870040000000,,,-1221704259398109696,0.0,14.515802831738256,-3.217005439366888,9.512342166163016,85,15,0.0,15,43129356237219,6,38.3,368.71380615234375,0.04410000145435333,0,0.0,0.0,,,,,0,,1,,
Raw,257671719,34870040000000,,,-1221704259398109696,0.0,14.515802831738256,-3.217005439366888,9.512342166163016,85,20,0.0,15,43129371423183,5,47.2,94.52104949951172,0.034300003200769424,0,0.0,0.0,,,,,0,,1,,
Raw,257671720,34870040000000,,,-1221704259398109696,0.0,14.515802831738256,-3.217005439366888,9.512342166163016,85,21,0.0,15,43129361952118,5,40.8,471.4839782714844,0.020899999886751175,0,0.0,0.0,,,,,0,,1,,
Raw,257671720,34870040000000,,,-1221704259398109696,0.0,14.515802831738256,-3.217005439366888,9.512342166163016,85,24,0.0,15,43129359759526,5,40.3,613.7132568359375,0.017900001257658005,0,0.0,0.0,,,,,0,,1,,
Raw,257671721,34870040000000,,,-1221704259398109696,0.0,14.515802831738256,-3.217005439366888,9.512342166163016,85,25,0.0,15,43129365492209,4,43.4,-398.81549072265625,0.026100000366568565,0,0.0,0.0,,,,,0,,1,,
Raw,257671722,34870040000000,,,-1221704259398109696,0.0,14.515802831738256,-3.217005439366888,9.512342166163016,85,31,0.0,15,43129361970509,5,41.0,-526.1728515625,0.020600000396370888,0,0.0,0.0,,,,,0,,1,,
Raw,257671722,34870040000000,,,-1221704259398109696,0.0,14.515802831738256,-3.217005439366888,9.512342166163016,85,32,0.0,15,43129363210605,4,42.4,-232.4242706298828,0.02330000139772892,0,0.0,0.0,,,,,0,,1,,
Raw,257672684,34871040000000,,,-1221704259398109696,0.0,14.515783732349519,-2.105116241426714,9.512322284193612,85,10,0.0,15,43130369525780,5,48.0,-313.55303955078125,0.031300000846385956,0,0.0,0.0,,,,,0,,1,,
Raw,257672684,34871040000000,,,-1221704259398109696,0.0,14.515783732349519,-2.105116241426714,9.512322284193612,85,12,0.0,15,43130364155108,4,45.0,20.817995071411133,0.02410000190138817,0,0.0,0.0,,,,,0,,1,,
Raw,257672685,34871040000000,,,-1221704259398109696,0.0,14.515783732349519,-2.105116241426714,9.512322284193612,85,14,0.0,15,43130358990410,4,42.8,-266.0784606933594,0.04580000042915344,0,0.0,0.0,,,,,0,,1,,
Raw,257672685,34871040000000,,,-1221704259398109696,0.0,14.515783732349519,-2.105116241426714,9.512322284193612,85,15,0.0,15,43130356235981,5,41.5,368.4647521972656,0.04310000315308571,0,0.0,0.0,,,,,0,,1,,
Raw,257672686,34871040000000,,,-1221704259398109696,0.0,14.515783732349519,-2.105116241426714,9.512322284193612,85,20,0.0,15,43130371422860,4,50.1,94.37969970703125,0.034300003200769424,0,0.0,0.0,,,,,0,,1,,
Raw,257672686,34871040000000,,,-1221704259398109696,0.0,14.515783732349519,-2.105116241426714,9.512322284193612,85,21,0.0,15,43130361950545,4,43.6,471.2555847167969,0.020100001245737076,0,0.0,0.0,,,,,0,,1,,
Raw,257672686,34871040000000,,,-1221704259398109696,0.0,14.515783732349519,-2.105116241426714,9.512322284193612,85,24,0.0,15,43130359757473,4,42.9,613.4639892578125,0.01730000041425228,0,0.0,0.0,,,,,0,,1,,
Raw,257672687,34871040000000,,,-1221704259398109696,0.0,14.515783732349519,-2.105116241426714,9.512322284193612,85,25,0.0,15,43130365493533,5,46.6,-398.9825439453125,0.02550000138580799,0,0.0,0.0,,,,,0,,1,,
Raw,257672687,34871040000000,,,-1221704259398109696,0.0,14.515783732349519,-2.105116241426714,9.512322284193612,85,31,0.0,15,43130361972262,4,43.7,-526.3618774414062,0.020100001245737076,0,0.0,0.0,,,,,0,,1,,
Raw,257672687,34871040000000,,,-1221704259398109696,0.0,14.515783732349519,-2.105116241426714,9.512322284193612,85,32,0.0,15,43130363211378,4,45.6,-232.68060302734375,0.022600000724196434,0,0.0,0.0,,,,,0,,1,,
Raw,257673713,34872040000000,,,-1221704259398109696,0.0,14.51576372346608,-2.9556786228965066,9.512302402224208,85,10,0.0,15,43131369526819,4,50.2,-313.5594787597656,0.031300000846385956,0,0.0,0.0,,,,,0,,1,,
Raw,257673714,34872040000000,,,-1221704259398109696,0.0,14.51576372346608,-2.9556786228965066,9.512302402224208,85,12,0.0,15,43131364155029,5,47.0,20.854839324951172,0.023800000548362732,0,0.0,0.0,,,,,0,,1,,
Raw,257673714,34872040000000,,,-1221704259398109696,0.0,14.51576372346608,-2.9556786228965066,9.512302402224208,85,14,0.0,15,43131358991293,4,44.9,-266.1722717285156,0.04530000314116478,0,0.0,0.0,,,,,0,,1,,
Raw,257673715,34872040000000,,,-1221704259398109696,0.0,14.51576372346608,-2.9556786228965066,9.512302402224208,85,15,0.0,15,43131356234740,4,42.9,368.3885803222656,0.04280000180006027,0,0.0,0.0,,,,,0,,1,,
Raw,257673715,34872040000000,,,-1221704259398109696,0.0,14.51576372346608,-2.9556786228965066,9.512302402224208,85,20,0.0,15,43131371422541,4,52.6,94.400146484375,0.034300003200769424,0,0.0,0.0,,,,,0,,1,,
Raw,257673716,34872040000000,,,-1221704259398109696,0.0,14.51576372346608,-2.9556786228965066,9.512302402224208,85,21,0.0,15,43131361948964,4,44.9,471.1932373046875,0.01979999989271164,0,0.0,0.0,,,,,0,,1,,
Raw,257673717,34872040000000,,,-1221704259398109696,0.0,14.51576372346608,-2.9556786228965066,9.512302402224208,85,24,0.0,15,43131359755423,4,44.4,613.3792114257812,0.01680000126361847,0,0.0,0.0,,,,,0,,1,,
Raw,257673717,34872040000000,,,-1221704259398109696,0.0,14.51576372346608,-2.9556786228965066,9.512302402224208,85,25,0.0,15,43131365494861,5,48.7,-398.9838562011719,0.025300001725554466,0,0.0,0.0,,,,,0,,1,,
Raw,257673718,34872040000000,,,-1221704259398109696,0.0,14.51576372346608,-2.9556786228965066,9.512302402224208,85,31,0.0,15,43131361974014,4,45.6,-526.3790893554688,0.019600000232458115,0,0.0,0.0,,,,,0,,1,,
Raw,257673719,34872040000000,,,-1221704259398109696,0.0,14.51576372346608,-2.9556786228965066,9.512302402224208,85,32,0.0,15,43131363212152,5,47.8,-232.76806640625,0.022300001233816147,0,0.0,0.0,,,,,0,,1,,
Raw,257674716,34873040000000,,,-1221704259398109696,0.0,14.515742805087939,-3.243150030313599,9.512282520254804,85,10,0.0,15,43132369527860,4,50.4,-313.4439697265625,0.031300000846385956,0,0.0,0.0,,,,,0,,1,,
Raw,257674717,34873040000000,,,-1221704259398109696,0.0,14.515742805087939,-3.243150030313599,9.512282520254804,85,12,0.0,15,43132364154950,5,46.9,21.005001068115234,0.024000000208616257,0,0.0,0.0,,,,,0,,1,,
Raw,257674718,34873040000000,,,-1221704259398109696,0.0,14.515742805087939,-3.243150030313599,9.512282520254804,85,14,0.0,15,43132358992180,4,45.2,-266.1390380859375,0.045100003480911255,0,0.0,0.0,,,,,0,,1,,
Raw,257674719,34873040000000,,,-1221704259398109696,0.0,14.515742805087939,-3.243150030313599,9.512282520254804,85,15,0.0,15,43132356233513,4,43.2,368.41766357421875,0.04260000213980675,0,0.0,0.0,,,,,0,,1,,
Raw,257674719,34873040000000,,,-1221704259398109696,0.0,14.515742805087939,-3.243150030313599,9.512282520254804,85,20,0.0,15,43132371422224,4,52.0,94.53968811035156,0.034300003200769424,0,0.0,0.0,,,,,0,,1,,
Raw,257674720,34873040000000,,,-1221704259398109696,0.0,14.515742805087939,-3.243150030313599,9.512282520254804,85,21,0.0,15,43132361947392,4,45.2,471.24981689453125,0.019600000232458115,0,0.0,0.0,,,,,0,,1,,
Raw,257674721,34873040000000,,,-1221704259398109696,0.0,14.515742805087939,-3.243150030313599,9.512282520254804,85,24,0.0,15,43132359753376,4,44.9,613.412353515625,0.01680000126361847,0,0.0,0.0,,,,,0,,1,,
Raw,257674721,34873040000000,,,-1221704259398109696,0.0,14.515742805087939,-3.243150030313599,9.512282520254804,85,25,0.0,15,43132365496190,5,48.3,-398.8687744140625,0.025300001725554466,0,0.0,0.0,,,,,0,,1,,
Raw,257674722,34873040000000,,,-1221704259398109696,0.0,14.515742805087939,-3.243150030313599,9.512282520254804,85,31,0.0,15,43132361975764,4,45.6,-526.2843017578125,0.019600000232458115,0,0.0,0.0,,,,,0,,1,,
Raw,257674722,34873040000000,,,-1221704259398109696,0.0,14.515742805087939,-3.243150030313599,9.512282520254804,85,32,0.0,15,43132363212925,5,47.7,-232.72323608398438,0.022300001233816147,0,0.0,0.0,,,,,0,,1,,
Raw,257675683,34874040000000,,,-1221704259398109696,0.0,14.5157227962045,-3.1525162834077154,9.5122626382854,85,10,0.0,15,43133369528904,5,48.2,-313.24310302734375,0.031300000846385956,0,0.0,0.0,,,,,0,,1,,
Raw,257675684,34874040000000,,,-1221704259398109696,0.0,14.5157227962045,-3.1525162834077154,9.5122626382854,85,12,0.0,15,43133364154883,5,46.1,21.24513816833496,0.024000000208616257,0,0.0,0.0,,,,,0,,1,,
Raw,257675684,34874040000000,,,-1221704259398109696,0.0,14.5157227962045,-3.1525162834077154,9.5122626382854,85,14,0.0,15,43133358993064,4,44.0,-266.0313415527344,0.04530000314116478,0,0.0,0.0,,,,,0,,1,,
Raw,257675684,34874040000000,,,-1221704259398109696,0.0,14.5157227962045,-3.1525162834077154,9.5122626382854,85,15,0.0,15,43133356232279,4,42.2,368.5489501953125,0.04280000180006027,0,0.0,0.0,,,,,0,,1,,
Raw,257675685,34874040000000,,,-1221704259398109696,0.0,14.5157227962045,-3.1525162834077154,9.5122626382854,85,20,0.0,15,43133371421905,4,51.4,94.77254486083984,0.034300003200769424,0,0.0,0.0,,,,,0,,1,,
Raw,257675685,34874040000000,,,-1221704259398109696,0.0,14.5157227962045,-3.1525162834077154,9.5122626382854,85,21,0.0,15,43133361945816,4,44.0,471.3961181640625,0.01979999989271164,0,0.0,0.0,,,,,0,,1,,
Raw,257675685,34874040000000,,,-1221704259398109696,0.0,14.5157227962045,-3.1525162834077154,9.5122626382854,85,24,0.0,15,43133359751327,4,43.2,613.5433349609375,0.017100000753998756,0,0.0,0.0,,,,,0,,1,,
Raw,257675685,34874040000000,,,-1221704259398109696,0.0,14.5157227962045,-3.1525162834077154,9.5122626382854,85,25,0.0,15,43133365497516,5,47.5,-398.66119384765625,0.025300001725554466,0,0.0,0.0,,,,,0,,1,,
Raw,257675686,34874040000000,,,-1221704259398109696,0.0,14.5157227962045,-3.1525162834077154,9.5122626382854,85,31,0.0,15,43133361977517,4,44.7,-526.09228515625,0.01979999989271164,0,0.0,0.0,,,,,0,,1,,
Raw,257675686,34874040000000,,,-1221704259398109696,0.0,14.5157227962045,-3.1525162834077154,9.5122626382854,85,32,0.0,15,43133363213697,5,46.8,-232.6049346923828,0.02250000089406967,0,0.0,0.0,,,,,0,,1,,
Raw,257676712,34875040000000,,,-1221704259398109696,0.0,14.515702787321061,-2.751254400500078,9.512241961037219,85,10,0.0,15,43134369529944,5,46.1,-313.3043518066406,0.03150000050663948,0,0.0,0.0,,,,,0,,1,,
Raw,257676713,34875040000000,,,-1221704259398109696,0.0,14.515702787321061,-2.751254400500078,9.512241961037219,85,12,0.0,15,43134364154817,5,41.7,21.223705291748047,0.025100000202655792,0,0.0,0.0,,,,,0,,1,,
Raw,257676713,34875040000000,,,-1221704259398109696,0.0,14.515702787321061,-2.751254400500078,9.512241961037219,85,14,0.0,15,43134358993954,6,39.7,-266.180908203125,0.04660000279545784,0,0.0,0.0,,,,,0,,1,,
Raw,257676714,34875040000000,,,-1221704259398109696,0.0,14.515702787321061,-2.751254400500078,9.512241961037219,85,15,0.0,15,43134356231043,6,38.1,368.40545654296875,0.04410000145435333,0,0.0,0.0,,,,,0,,1,,
Raw,257676715,34875040000000,,,-1221704259398109696,0.0,14.515702787321061,-2.751254400500078,9.512241961037219,85,20,0.0,15,43134371421589,5,47.0,94.73799133300781,0.034300003200769424,0,0.0,0.0,,,,,0,,1,,
Raw,257676715,34875040000000,,,-1221704259398109696,0.0,14.515702787321061,-2.751254400500078,9.512241961037219,85,21,0.0,15,43134361944239,5,40.5,471.27740478515625,0.020899999886751175,0,0.0,0.0,,,,,0,,1,,
Raw,257676716,34875040000000,,,-1221704259398109696,0.0,14.515702787321061,-2.751254400500078,9.512241961037219,85,24,0.0,15,43134359749268,6,39.1,613.4046630859375,0.01810000091791153,0,0.0,0.0,,,,,0,,1,,
Raw,257676716,34875040000000,,,-1221704259398109696,0.0,14.515702787321061,-2.751254400500078,9.512241961037219,85,25,0.0,15,43134365498842,4,43.2,-398.7173767089844,0.026100000366568565,0,0.0,0.0,,,,,0,,1,,
Raw,257676717,34875040000000,,,-1221704259398109696,0.0,14.515702787321061,-2.751254400500078,9.512241961037219,85,31,0.0,15,43134361979264,5,40.1,-526.16845703125,0.020899999886751175,0,0.0,0.0,,,,,0,,1,,
Raw,257676717,34875040000000,,,-1221704259398109696,0.0,14.515702787321061,-2.751254400500078,9.512241961037219,85,32,0.0,15,43134363214468,5,41.9,-232.74996948242188,0.023600000888109207,0,0.0,0.0,,,,,0,,1,,
Raw,257677717,34876040000000,,,-1221704259398109696,0.0,14.515682778437622,-3.244580935651613,9.512222079067815,85,10,0.0,15,43135369530986,4,45.6,-313.2994079589844,0.03160000219941139,0,0.0,0.0,,,,,0,,1,,
Raw,257677717,34876040000000,,,-1221704259398109696,0.0,14.515682778437622,-3.244580935651613,9.512222079067815,85,12,0.0,15,43135364154737,5,41.3,21.26095199584961,0.025100000202655792,0,0.0,0.0,,,,,0,,1,,
Raw,257677718,34876040000000,,,-1221704259398109696,0.0,14.515682778437622,-3.244580935651613,9.512222079067815,85,14,0.0,15,43135358994834,6,39.2,-266.2572937011719,0.04660000279545784,0,0.0,0.0,,,,,0,,1,,
Raw,257677719,34876040000000,,,-1221704259398109696,0.0,14.515682778437622,-3.244580935651613,9.512222079067815,85,15,0.0,15,43135356229809,7,37.5,368.3388366699219,0.044600002467632294,0,0.0,0.0,,,,,0,,1,,
Raw,257677719,34876040000000,,,-1221704259398109696,0.0,14.515682778437622,-3.244580935651613,9.512222079067815,85,20,0.0,15,43135371421269,5,46.8,94.7710189819336,0.03450000286102295,0,0.0,0.0,,,,,0,,1,,
