# 
# Header Description:
# 
# Version: v2.0.0.1 Platform: 8.0.0 Manufacturer: Xiaomi Model: MIX 2
# 
# Raw,ElapsedRealtimeMillis,TimeNanos,LeapSecond,TimeUncertaintyNanos,FullBiasNanos,BiasNanos,BiasUncertaintyNanos,DriftNanosPerSecond,DriftUncertaintyNanosPerSecond,HardwareClockDiscontinuityCount,Svid,TimeOffsetNanos,State,ReceivedSvTimeNanos,ReceivedSvTimeUncertaintyNanos,Cn0DbHz,PseudorangeRateMetersPerSecond,PseudorangeRateUncertaintyMetersPerSecond,AccumulatedDeltaRangeState,AccumulatedDeltaRangeMeters,AccumulatedDeltaRangeUncertaintyMeters,CarrierFrequencyHz,CarrierCycles,CarrierPhase,CarrierPhaseUncertainty,MultipathIndicator,SnrInDb,ConstellationType,AgcDb,CarrierFrequencyHz
# 
# Fix,Provider,Latitude,Longitude,Altitude,Speed,Accuracy,(UTC)TimeInMs
# 
# Nav,Svid,Type,Status,MessageId,Sub-messageId,Data(Bytes)
# 
Raw,254719786,33093180000000,,,-1221705885260048384,0.0,14.519317119265907,-3.00187795756145,9.51585570779611,56,10,0.0,15,42978371302942,5,46.9,-327.5434265136719,0.03450000286102295,0,0.0,0.0,,,,,0,,1,,
Raw,254719786,33093180000000,,,-1221705885260048384,0.0,14.519317119265907,-3.00187795756145,9.51585570779611,56,12,0.0,15,42978366100336,4,43.9,1.0127843618392944,0.0276000015437603,0,0.0,0.0,,,,,0,,1,,
Raw,254719787,33093180000000,,,-1221705885260048384,0.0,14.519317119265907,-3.00187795756145,9.51585570779611,56,14,0.0,15,42978360794871,4,42.0,-267.4320983886719,0.018800001591444016,0,0.0,0.0,,,,,0,,1,,
Raw,254719787,33093180000000,,,-1221705885260048384,0.0,14.519317119265907,-3.00187795756145,9.51585570779611,56,15,0.0,15,42978358361896,6,39.6,366.1179504394531,0.04660000279545784,0,0.0,0.0,,,,,0,,1,,
Raw,254719787,33093180000000,,,-1221705885260048384,0.0,14.519317119265907,-3.00187795756145,9.51585570779611,56,20,0.0,15,42978373405764,4,49.3,76.03004455566406,0.037300001829862595,0,0.0,0.0,,,,,0,,1,,
Raw,254719788,33093180000000,,,-1221705885260048384,0.0,14.519317119265907,-3.00187795756145,9.51585570779611,56,21,0.0,15,42978364127743,4,42.4,465.5023498535156,0.024800000712275505,0,0.0,0.0,,,,,0,,1,,
Raw,254719788,33093180000000,,,-1221705885260048384,0.0,14.519317119265907,-3.00187795756145,9.51585570779611,56,24,0.0,15,42978362007592,5,40.9,610.9471435546875,0.02240000106394291,0,0.0,0.0,,,,,0,,1,,
Raw,254719788,33093180000000,,,-1221705885260048384,0.0,14.519317119265907,-3.00187795756145,9.51585570779611,56,25,0.0,15,42978367227286,4,45.2,-413.3680725097656,0.028600001707673073,0,0.0,0.0,,,,,0,,1,,
Raw,254719789,33093180000000,,,-1221705885260048384,0.0,14.519317119265907,-3.00187795756145,9.51585570779611,56,31,0.0,15,42978363642054,4,42.5,-538.328369140625,0.02330000139772892,0,0.0,0.0,,,,,0,,1,,
Raw,254719789,33093180000000,,,-1221705885260048384,0.0,14.519317119265907,-3.00187795756145,9.51585570779611,56,32,0.0,15,42978365032656,4,44.3,-234.481201171875,0.025800000876188278,0,0.0,0.0,,,,,0,,1,,
Raw,254720787,33094180000000,,,-1221705885260048384,0.0,14.519297110382468,-7.796440725922907,9.515835825826706,56,10,0.0,15,42979371304040,5,47.1,-328.3427734375,0.034300003200769424,0,0.0,0.0,,,,,0,,1,,
Raw,254720788,33094180000000,,,-1221705885260048384,0.0,14.519297110382468,-7.796440725922907,9.515835825826706,56,12,0.0,15,42979366100343,4,44.5,0.27563461661338806,0.027300002053380013,0,0.0,0.0,,,,,0,,1,,
Raw,254720788,33094180000000,,,-1221705885260048384,0.0,14.519297110382468,-7.796440725922907,9.515835825826706,56,14,0.0,15,42979360795772,4,42.6,-268.34344482421875,0.018800001591444016,0,0.0,0.0,,,,,0,,1,,
Raw,254720789,33094180000000,,,-1221705885260048384,0.0,14.519297110382468,-7.796440725922907,9.515835825826706,56,15,0.0,15,42979358360691,5,40.0,365.12432861328125,0.046400003135204315,0,0.0,0.0,,,,,0,,1,,
Raw,254720790,33094180000000,,,-1221705885260048384,0.0,14.519297110382468,-7.796440725922907,9.515835825826706,56,20,0.0,15,42979373405520,4,49.5,75.24755096435547,0.037300001829862595,0,0.0,0.0,,,,,0,,1,,
Raw,254720790,33094180000000,,,-1221705885260048384,0.0,14.519297110382468,-7.796440725922907,9.515835825826706,56,21,0.0,15,42979364126195,4,42.8,464.6930847167969,0.024800000712275505,0,0.0,0.0,,,,,0,,1,,
Raw,254720791,33094180000000,,,-1221705885260048384,0.0,14.519297110382468,-7.796440725922907,9.515835825826706,56,24,0.0,15,42979362005566,5,40.9,610.0297241210938,0.02240000106394291,0,0.0,0.0,,,,,0,,1,,
Raw,254720792,33094180000000,,,-1221705885260048384,0.0,14.519297110382468,-7.796440725922907,9.515835825826706,56,25,0.0,15,42979367228670,4,45.4,-414.1477355957031,0.028600001707673073,0,0.0,0.0,,,,,0,,1,,
Raw,254720793,33094180000000,,,-1221705885260048384,0.0,14.519297110382468,-7.796440725922907,9.515835825826706,56,31,0.0,15,42979363643857,4,43.0,-539.191650390625,0.023100001737475395,0,0.0,0.0,,,,,0,,1,,
Raw,254720794,33094180000000,,,-1221705885260048384,0.0,14.519297110382468,-7.796440725922907,9.515835825826706,56,32,0.0,15,42979365033450,4,44.9,-235.4160614013672,0.025800000876188278,0,0.0,0.0,,,,,0,,1,,
Raw,254721800,33095180000000,,,-1221705885260048384,0.0,14.519277101499029,-10.984238558136687,9.515816739136078,56,10,0.0,15,42980371305131,5,47.1,-326.4583740234375,0.034300003200769424,0,0.0,0.0,,,,,0,,1,,
Raw,254721801,33095180000000,,,-1221705885260048384,0.0,14.519277101499029,-10.984238558136687,9.515816739136078,56,12,0.0,15,42980366100341,4,44.6,2.197035312652588,0.027300002053380013,0,0.0,0.0,,,,,0,,1,,
Raw,254721802,33095180000000,,,-1221705885260048384,0.0,14.519277101499029,-10.984238558136687,9.515816739136078,56,14,0.0,15,42980360796663,4,42.6,-266.4680480957031,0.018800001591444016,0,0.0,0.0,,,,,0,,1,,
Raw,254721802,33095180000000,,,-1221705885260048384,0.0,14.519277101499029,-10.984238558136687,9.515816739136078,56,15,0.0,15,42980358359457,5,40.1,367.02459716796875,0.046400003135204315,0,0.0,0.0,,,,,0,,1,,
Raw,254721803,33095180000000,,,-1221705885260048384,0.0,14.519277101499029,-10.984238558136687,9.515816739136078,56,20,0.0,15,42980373405263,4,49.2,77.16329956054688,0.037300001829862595,0,0.0,0.0,,,,,0,,1,,
Raw,254721804,33095180000000,,,-1221705885260048384,0.0,14.519277101499029,-10.984238558136687,9.515816739136078,56,21,0.0,15,42980364124642,4,42.4,466.51165771484375,0.024800000712275505,0,0.0,0.0,,,,,0,,1,,
Raw,254721805,33095180000000,,,-1221705885260048384,0.0,14.519277101499029,-10.984238558136687,9.515816739136078,56,24,0.0,15,42980362003524,5,41.8,611.9212036132812,0.022100001573562622,0,0.0,0.0,,,,,0,,1,,
Raw,254721805,33095180000000,,,-1221705885260048384,0.0,14.519277101499029,-10.984238558136687,9.515816739136078,56,25,0.0,15,42980367230048,4,45.6,-412.2580871582031,0.028600001707673073,0,0.0,0.0,,,,,0,,1,,
Raw,254721805,33095180000000,,,-1221705885260048384,0.0,14.519277101499029,-10.984238558136687,9.515816739136078,56,31,0.0,15,42980363645650,4,43.2,-537.240478515625,0.023100001737475395,0,0.0,0.0,,,,,0,,1,,
Raw,254721806,33095180000000,,,-1221705885260048384,0.0,14.519277101499029,-10.984238558136687,9.515816739136078,56,32,0.0,15,42980365034224,4,45.2,-233.5318145751953,0.025600001215934753,0,0.0,0.0,,,,,0,,1,,
Raw,254722805,33096180000000,,,-1221705885260048384,0.0,14.519258911604993,-4.616169412046748,9.51579765244545,56,10,0.0,15,42981371306209,5,47.5,-325.53662109375,0.034300003200769424,0,0.0,0.0,,,,,0,,1,,
Raw,254722806,33096180000000,,,-1221705885260048384,0.0,14.519258911604993,-4.616169412046748,9.51579765244545,56,12,0.0,15,42981366100321,4,45.4,3.140131950378418,0.02710000053048134,0,0.0,0.0,,,,,0,,1,,
Raw,254722806,33096180000000,,,-1221705885260048384,0.0,14.519258911604993,-4.616169412046748,9.51579765244545,56,14,0.0,15,42981360797537,4,43.6,-265.65191650390625,0.01860000006854534,0,0.0,0.0,,,,,0,,1,,
Raw,254722807,33096180000000,,,-1221705885260048384,0.0,14.519258911604993,-4.616169412046748,9.51579765244545,56,15,0.0,15,42981358358225,5,41.1,367.8871154785156,0.04610000178217888,0,0.0,0.0,,,,,0,,1,,
Raw,254722807,33096180000000,,,-1221705885260048384,0.0,14.519258911604993,-4.616169412046748,9.51579765244545,56,20,0.0,15,42981373404994,4,50.2,78.11590576171875,0.037300001829862595,0,0.0,0.0,,,,,0,,1,,
Raw,254722808,33096180000000,,,-1221705885260048384,0.0,14.519258911604993,-4.616169412046748,9.51579765244545,56,21,0.0,15,42981364123072,4,43.5,467.3671569824219,0.02460000105202198,0,0.0,0.0,,,,,0,,1,,
Raw,254722808,33096180000000,,,-1221705885260048384,0.0,14.519258911604993,-4.616169412046748,9.51579765244545,56,24,0.0,15,42981362001471,4,42.9,612.74169921875,0.021800000220537186,0,0.0,0.0,,,,,0,,1,,
Raw,254722809,33096180000000,,,-1221705885260048384,0.0,14.519258911604993,-4.616169412046748,9.51579765244545,56,25,0.0,15,42981367231407,5,46.3,-411.3481140136719,0.02850000187754631,0,0.0,0.0,,,,,0,,1,,
Raw,254722809,33096180000000,,,-1221705885260048384,0.0,14.519258911604993,-4.616169412046748,9.51579765244545,56,31,0.0,15,42981363647427,4,44.0,-536.3500366210938,0.02280000038444996,0,0.0,0.0,,,,,0,,1,,
Raw,254722810,33096180000000,,,-1221705885260048384,0.0,14.519258911604993,-4.616169412046748,9.51579765244545,56,32,0.0,15,42981365034989,4,45.8,-232.7075958251953,0.025600001215934753,0,0.0,0.0,,,,,0,,1,,
Raw,254723801,33097180000000,,,-1221705885260048384,0.0,14.519238902721554,-1.8762900827018438,9.515777770476046,56,10,0.0,15,42982371307288,5,47.7,-326.7242736816406,0.034300003200769424,0,0.0,0.0,,,,,0,,1,,
Raw,254723802,33097180000000,,,-1221705885260048384,0.0,14.519238902721554,-1.8762900827018438,9.515777770476046,56,12,0.0,15,42982366100306,4,45.4,1.9928827285766602,0.02710000053048134,0,0.0,0.0,,,,,0,,1,,
Raw,254723803,33097180000000,,,-1221705885260048384,0.0,14.519238902721554,-1.8762900827018438,9.515777770476046,56,14,0.0,15,42982360798415,4,43.5,-266.927490234375,0.01860000006854534,0,0.0,0.0,,,,,0,,1,,
Raw,254723804,33097180000000,,,-1221705885260048384,0.0,14.519238902721554,-1.8762900827018438,9.515777770476046,56,15,0.0,15,42982358356991,5,41.0,366.6316223144531,0.04610000178217888,0,0.0,0.0,,,,,0,,1,,
Raw,254723805,33097180000000,,,-1221705885260048384,0.0,14.519238902721554,-1.8762900827018438,9.515777770476046,56,20,0.0,15,42982373404726,4,50.2,76.96236419677734,0.037300001829862595,0,0.0,0.0,,,,,0,,1,,
Raw,254723805,33097180000000,,,-1221705885260048384,0.0,14.519238902721554,-1.8762900827018438,9.515777770476046,56,21,0.0,15,42982364121509,4,43.5,466.1260070800781,0.02460000105202198,0,0.0,0.0,,,,,0,,1,,
Raw,254723806,33097180000000,,,-1221705885260048384,0.0,14.519238902721554,-1.8762900827018438,9.515777770476046,56,24,0.0,15,42982361999424,4,42.6,611.4842529296875,0.0203000009059906,0,0.0,0.0,,,,,0,,1,,
Raw,254723807,33097180000000,,,-1221705885260048384,0.0,14.519238902721554,-1.8762900827018438,9.515777770476046,56,25,0.0,15,42982367232775,5,46.4,-412.5361328125,0.02850000187754631,0,0.0,0.0,,,,,0,,1,,
Raw,254723807,33097180000000,,,-1221705885260048384,0.0,14.519238902721554,-1.8762900827018438,9.515777770476046,56,31,0.0,15,42982363649210,4,43.7,-537.5535278320312,0.023100001737475395,0,0.0,0.0,,,,,0,,1,,
Raw,254723808,33097180000000,,,-1221705885260048384,0.0,14.519238902721554,-1.8762900827018438,9.515777770476046,56,32,0.0,15,42982365035764,4,45.7,-233.97482299804688,0.025600001215934753,0,0.0,0.0,,,,,0,,1,,
Raw,254724787,33098180000000,,,-1221705885260048384,0.0,14.519219803332817,-6.1074873070131295,9.515758683785418,56,10,0.0,15,42983371308375,5,48.3,-326.754150390625,0.034300003200769424,0,0.0,0.0,,,,,0,,1,,
Raw,254724787,33098180000000,,,-1221705885260048384,0.0,14.519219803332817,-6.1074873070131295,9.515758683785418,56,12,0.0,15,42983366100297,5,46.4,2.0138633251190186,0.027000000700354576,0,0.0,0.0,,,,,0,,1,,
Raw,254724788,33098180000000,,,-1221705885260048384,0.0,14.519219803332817,-6.1074873070131295,9.515758683785418,56,14,0.0,15,42983360799309,4,44.7,-267.0151062011719,0.018300000578165054,0,0.0,0.0,,,,,0,,1,,
Raw,254724789,33098180000000,,,-1221705885260048384,0.0,14.519219803332817,-6.1074873070131295,9.515758683785418,56,15,0.0,15,42983358355772,5,41.9,366.50665283203125,0.04610000178217888,0,0.0,0.0,,,,,0,,1,,
Raw,254724789,33098180000000,,,-1221705885260048384,0.0,14.519219803332817,-6.1074873070131295,9.515758683785418,56,20,0.0,15,42983373404471,4,51.7,76.96209716796875,0.037300001829862595,0,0.0,0.0,,,,,0,,1,,
Raw,254724790,33098180000000,,,-1221705885260048384,0.0,14.519219803332817,-6.1074873070131295,9.515758683785418,56,21,0.0,15,42983364119957,4,44.9,466.0605163574219,0.024300001561641693,0,0.0,0.0,,,,,0,,1,,
Raw,254724790,33098180000000,,,-1221705885260048384,0.0,14.519219803332817,-6.1074873070131295,9.515758683785418,56,24,0.0,15,42983361997383,4,42.6,611.3974609375,0.0203000009059906,0,0.0,0.0,,,,,0,,1,,
Raw,254724791,33098180000000,,,-1221705885260048384,0.0,14.519219803332817,-6.1074873070131295,9.515758683785418,56,25,0.0,15,42983367234152,5,47.3,-412.54937744140625,0.028300002217292786,0,0.0,0.0,,,,,0,,1,,
Raw,254724791,33098180000000,,,-1221705885260048384,0.0,14.519219803332817,-6.1074873070131295,9.515758683785418,56,31,0.0,15,42983363651000,4,44.9,-537.57763671875,0.02280000038444996,0,0.0,0.0,,,,,0,,1,,
Raw,254724792,33098180000000,,,-1221705885260048384,0.0,14.519219803332817,-6.1074873070131295,9.515758683785418,56,32,0.0,15,42983365036542,5,46.7,-234.06005859375,0.02550000138580799,0,0.0,0.0,,,,,0,,1,,
Raw,254725797,33099180000000,,,-1221705885260048384,0.0,14.51920070394408,-6.429988756323325,9.515739597094791,56,10,0.0,15,42984371309463,5,48.3,-325.9810791015625,0.034300003200769424,0,0.0,0.0,,,,,0,,1,,
Raw,254725798,33099180000000,,,-1221705885260048384,0.0,14.51920070394408,-6.429988756323325,9.515739597094791,56,12,0.0,15,42984366100284,5,46.1,2.8209564685821533,0.027000000700354576,0,0.0,0.0,,,,,0,,1,,
Raw,254725799,33099180000000,,,-1221705885260048384,0.0,14.51920070394408,-6.429988756323325,9.515739597094791,56,14,0.0,15,42984360800195,4,44.1,-266.3343505859375,0.018300000578165054,0,0.0,0.0,,,,,0,,1,,
Raw,254725799,33099180000000,,,-1221705885260048384,0.0,14.51920070394408,-6.429988756323325,9.515739597094791,56,15,0.0,15,42984358354542,4,42.0,367.2190856933594,0.04580000042915344,0,0.0,0.0,,,,,0,,1,,
Raw,254725800,33099180000000,,,-1221705885260048384,0.0,14.51920070394408,-6.429988756323325,9.515739597094791,56,20,0.0,15,42984373404209,4,50.2,77.7668685913086,0.037300001829862595,0,0.0,0.0,,,,,0,,1,,
Raw,254725800,33099180000000,,,-1221705885260048384,0.0,14.51920070394408,-6.429988756323325,9.515739597094791,56,21,0.0,15,42984364118395,4,44.4,466.7728576660156,0.024300001561641693,0,0.0,0.0,,,,,0,,1,,
Raw,254725801,33099180000000,,,-1221705885260048384,0.0,14.51920070394408,-6.429988756323325,9.515739597094791,56,24,0.0,15,42984361995338,4,43.0,612.0914916992188,0.020100001245737076,0,0.0,0.0,,,,,0,,1,,
Raw,254725802,33099180000000,,,-1221705885260048384,0.0,14.51920070394408,-6.429988756323325,9.515739597094791,56,25,0.0,15,42984367235521,5,47.0,-411.7806701660156,0.028300002217292786,0,0.0,0.0,,,,,0,,1,,
Raw,254725802,33099180000000,,,-1221705885260048384,0.0,14.51920070394408,-6.429988756323325,9.515739597094791,56,31,0.0,15,42984363652789,4,44.5,-536.826904296875,0.02280000038444996,0,0.0,0.0,,,,,0,,1,,
Raw,254725803,33099180000000,,,-1221705885260048384,0.0,14.51920070394408,-6.429988756323325,9.515739597094791,56,32,0.0,15,42984365037323,5,46.3,-233.37850952148438,0.02550000138580799,0,0.0,0.0,,,,,0,,1,,
Raw,254726788,33100180000000,,,-1221705885260048384,0.0,14.518634088744875,-4.142580900840837,9.515172563327384,56,10,0.0,15,42985371310546,5,48.1,-326.08251953125,0.034300003200769424,0,0.0,0.0,,,,,0,,1,,
Raw,254726789,33100180000000,,,-1221705885260048384,0.0,14.518634088744875,-4.142580900840837,9.515172563327384,56,12,0.0,15,42985366100277,5,46.0,2.7563281059265137,0.027000000700354576,0,0.0,0.0,,,,,0,,1,,
Raw,254726789,33100180000000,,,-1221705885260048384,0.0,14.518634088744875,-4.142580900840837,9.515172563327384,56,14,0.0,15,42985360801086,4,44.0,-266.5227355957031,0.018300000578165054,0,0.0,0.0,,,,,0,,1,,
Raw,254726790,33100180000000,,,-1221705885260048384,0.0,14.518634088744875,-4.142580900840837,9.515172563327384,56,15,0.0,15,42985358353317,5,41.9,367.0373840332031,0.04610000178217888,0,0.0,0.0,,,,,0,,1,,
Raw,254726790,33100180000000,,,-1221705885260048384,0.0,14.518634088744875,-4.142580900840837,9.515172563327384,56,20,0.0,15,42985373403948,4,51.3,77.6924057006836,0.037300001829862595,0,0.0,0.0,,,,,0,,1,,
Raw,254726791,33100180000000,,,-1221705885260048384,0.0,14.518634088744875,-4.142580900840837,9.515172563327384,56,21,0.0,15,42985364116835,4,44.3,466.61572265625,0.024300001561641693,0,0.0,0.0,,,,,0,,1,,
Raw,254726793,33100180000000,,,-1221705885260048384,0.0,14.518634088744875,-4.142580900840837,9.515172563327384,56,24,0.0,15,42985361993292,4,42.9,611.9069213867188,0.0203000009059906,0,0.0,0.0,,,,,0,,1,,
Raw,254726794,33100180000000,,,-1221705885260048384,0.0,14.518634088744875,-4.142580900840837,9.515172563327384,56,25,0.0,15,42985367236893,5,47.3,-411.8838195800781,0.028300002217292786,0,0.0,0.0,,,,,0,,1,,
Raw,254726795,33100180000000,,,-1221705885260048384,0.0,14.518634088744875,-4.142580900840837,9.515172563327384,56,31,0.0,15,42985363654579,4,44.6,-536.9436645507812,0.02280000038444996,0,0.0,0.0,,,,,0,,1,,
Raw,254726796,33100180000000,,,-1221705885260048384,0.0,14.518634088744875,-4.142580900840837,9.515172563327384,56,32,0.0,15,42985365038092,5,46.5,-233.56338500976562,0.02550000138580799,0,0.0,0.0,,,,,0,,1,,
Raw,254727786,33101180000000,,,-1221705885260048384,0.0,14.518614989356138,-4.774622743606686,9.515153476636756,56,10,0.0,15,42986371311631,5,47.7,-326.4634704589844,0.034300003200769424,0,0.0,0.0,,,,,0,,1,,
Raw,254727787,33101180000000,,,-1221705885260048384,0.0,14.518614989356138,-4.774622743606686,9.515153476636756,56,12,0.0,15,42986366100259,4,45.1,2.4070963859558105,0.02710000053048134,0,0.0,0.0,,,,,0,,1,,
Raw,254727788,33101180000000,,,-1221705885260048384,0.0,14.518614989356138,-4.774622743606686,9.515153476636756,56,14,0.0,15,42986360801967,4,43.6,-266.9910888671875,0.01860000006854534,0,0.0,0.0,,,,,0,,1,,
Raw,254727788,33101180000000,,,-1221705885260048384,0.0,14.518614989356138,-4.774622743606686,9.515153476636756,56,15,0.0,15,42986358352089,5,41.1,366.5852966308594,0.04610000178217888,0,0.0,0.0,,,,,0,,1,,
Raw,254727789,33101180000000,,,-1221705885260048384,0.0,14.518614989356138,-4.774622743606686,9.515153476636756,56,20,0.0,15,42986373403688,4,50.2,77.34175872802734,0.037300001829862595,0,0.0,0.0,,,,,0,,1,,
Raw,254727789,33101180000000,,,-1221705885260048384,0.0,14.518614989356138,-4.774622743606686,9.515153476636756,56,21,0.0,15,42986364115280,4,44.4,466.17657470703125,0.024300001561641693,0,0.0,0.0,,,,,0,,1,,
Raw,254727790,33101180000000,,,-1221705885260048384,0.0,14.518614989356138,-4.774622743606686,9.515153476636756,56,24,0.0,15,42986361991253,4,43.3,611.4511108398438,0.020100001245737076,0,0.0,0.0,,,,,0,,1,,
Raw,254727791,33101180000000,,,-1221705885260048384,0.0,14.518614989356138,-4.774622743606686,9.515153476636756,56,25,0.0,15,42986367238268,5,46.3,-412.26422119140625,0.02850000187754631,0,0.0,0.0,,,,,0,,1,,
Raw,254727791,33101180000000,,,-1221705885260048384,0.0,14.518614989356138,-4.774622743606686,9.515153476636756,56,31,0.0,15,42986363656370,4,44.5,-537.3434448242188,0.02280000038444996,0,0.0,0.0,,,,,0,,1,,
Raw,254727792,33101180000000,,,-1221705885260048384,0.0,14.518614989356138,-4.774622743606686,9.515153476636756,56,32,0.0,15,42986365038873,4,45.7,-234.03036499023438,0.025600001215934753,0,0.0,0.0,,,,,0,,1,,
Raw,254728766,33102180000000,,,-1221705885260048384,0.0,14.5185958899674,-6.332937308513488,9.515134389946128,56,10,0.0,15,42987371312720,5,47.0,-325.9056396484375,0.034300003200769424,0,0.0,0.0,,,,,0,,1,,
Raw,254728766,33102180000000,,,-1221705885260048384,0.0,14.5185958899674,-6.332937308513488,9.515134389946128,56,12,0.0,15,42987366100260,4,44.1,3.020437240600586,0.027300002053380013,0,0.0,0.0,,,,,0,,1,,
Raw,254728767,33102180000000,,,-1221705885260048384,0.0,14.5185958899674,-6.332937308513488,9.515134389946128,56,14,0.0,15,42987360802857,4,42.4,-266.4894714355469,0.018800001591444016,0,0.0,0.0,,,,,0,,1,,
Raw,254728767,33102180000000,,,-1221705885260048384,0.0,14.5185958899674,-6.332937308513488,9.515134389946128,56,15,0.0,15,42987358350865,5,40.7,367.06182861328125,0.046400003135204315,0,0.0,0.0,,,,,0,,1,,
Raw,254728767,33102180000000,,,-1221705885260048384,0.0,14.5185958899674,-6.332937308513488,9.515134389946128,56,20,0.0,15,42987373403426,4,49.2,77.92527770996094,0.037300001829862595,0,0.0,0.0,,,,,0,,1,,
Raw,254728768,33102180000000,,,-1221705885260048384,0.0,14.5185958899674,-6.332937308513488,9.515134389946128,56,21,0.0,15,42987364113725,4,43.1,466.7003479003906,0.02460000105202198,0,0.0,0.0,,,,,0,,1,,
Raw,254728768,33102180000000,,,-1221705885260048384,0.0,14.5185958899674,-6.332937308513488,9.515134389946128,56,24,0.0,15,42987361989207,4,42.8,611.9528198242188,0.0203000009059906,0,0.0,0.0,,,,,0,,1,,
Raw,254728768,33102180000000,,,-1221705885260048384,0.0,14.5185958899674,-6.332937308513488,9.515134389946128,56,25,0.0,15,42987367239636,4,45.1,-411.69427490234375,0.028600001707673073,0,0.0,0.0,,,,,0,,1,,
Raw,254728769,33102180000000,,,-1221705885260048384,0.0,14.5185958899674,-6.332937308513488,9.515134389946128,56,31,0.0,15,42987363658165,4,43.4,-536.7823486328125,0.023100001737475395,0,0.0,0.0,,,,,0,,1,,
Raw,254728769,33102180000000,,,-1221705885260048384,0.0,14.5185958899674,-6.332937308513488,9.515134389946128,56,32,0.0,15,42987365039652,4,44.8,-233.54159545898438,0.025800000876188278,0,0.0,0.0,,,,,0,,1,,
Raw,254729794,33103180000000,,,-1221705885260048384,0.0,14.518576790578663,-4.67080148521475,9.515115303255502,56,10,0.0,15,42988371313804,5,47.7,-325.37713623046875,0.034300003200769424,0,0.0,0.0,,,,,0,,1,,
Raw,254729795,33103180000000,,,-1221705885260048384,0.0,14.518576790578663,-4.67080148521475,9.515115303255502,56,12,0.0,15,42988366100246,4,45.0,3.5808191299438477,0.02710000053048134,0,0.0,0.0,,,,,0,,1,,
Raw,254729795,33103180000000,,,-1221705885260048384,0.0,14.518576790578663,-4.67080148521475,9.515115303255502,56,14,0.0,15,42988360803743,4,44.2,-266.0520324707031,0.018300000578165054,0,0.0,0.0,,,,,0,,1,,
Raw,254729796,33103180000000,,,-1221705885260048384,0.0,14.518576790578663,-4.67080148521475,9.515115303255502,56,15,0.0,15,42988358349634,4,42.2,367.5111389160156,0.04580000042915344,0,0.0,0.0,,,,,0,,1,,
Raw,254729796,33103180000000,,,-1221705885260048384,0.0,14.518576790578663,-4.67080148521475,9.515115303255502,56,20,0.0,15,42988373403161,4,50.3,78.4853744506836,0.037300001829862595,0,0.0,0.0,,,,,0,,1,,
Raw,254729797,33103180000000,,,-1221705885260048384,0.0,14.518576790578663,-4.67080148521475,9.515115303255502,56,21,0.0,15,42988364112157,4,44.7,467.1681213378906,0.024300001561641693,0,0.0,0.0,,,,,0,,1,,
Raw,254729797,33103180000000,,,-1221705885260048384,0.0,14.518576790578663,-4.67080148521475,9.515115303255502,56,24,0.0,15,42988361987168,4,43.9,612.400634765625,0.020100001245737076,0,0.0,0.0,,,,,0,,1,,
Raw,254729798,33103180000000,,,-1221705885260048384,0.0,14.518576790578663,-4.67080148521475,9.515115303255502,56,25,0.0,15,42988367241011,5,46.7,-411.1659851074219,0.02850000187754631,0,0.0,0.0,,,,,0,,1,,
Raw,254729798,33103180000000,,,-1221705885260048384,0.0,14.518576790578663,-4.67080148521475,9.515115303255502,56,31,0.0,15,42988363659947,4,44.6,-536.2718505859375,0.02280000038444996,0,0.0,0.0,,,,,0,,1,,
Raw,254729799,33103180000000,,,-1221705885260048384,0.0,14.518576790578663,-4.67080148521475,9.515115303255502,56,32,0.0,15,42988365040427,5,46.2,-233.09262084960938,0.02550000138580799,0,0.0,0.0,,,,,0,,1,,
Raw,254730787,33104180000000,,,-1221705885260048384,0.0,14.518556781695224,-3.216793895212428,9.515096216564874,56,10,0.0,15,42989371314886,5,47.1,-325.0254821777344,0.034300003200769424,0,0.0,0.0,,,,,0,,1,,
Raw,254730788,33104180000000,,,-1221705885260048384,0.0,14.518556781695224,-3.216793895212428,9.515096216564874,56,12,0.0,15,42989366100229,4,44.3,3.9681479930877686,0.027300002053380013,0,0.0,0.0,,,,,0,,1,,
Raw,254730788,33104180000000,,,-1221705885260048384,0.0,14.518556781695224,-3.216793895212428,9.515096216564874,56,14,0.0,15,42989360804632,4,43.1,-265.7886962890625,0.01860000006854534,0,0.0,0.0,,,,,0,,1,,
Raw,254730789,33104180000000,,,-1221705885260048384,0.0,14.518556781695224,-3.216793895212428,9.515096216564874,56,15,0.0,15,42989358348407,5,41.3,367.7943420410156,0.04610000178217888,0,0.0,0.0,,,,,0,,1,,
Raw,254730789,33104180000000,,,-1221705885260048384,0.0,14.518556781695224,-3.216793895212428,9.515096216564874,56,20,0.0,15,42989373402897,4,49.5,78.86846923828125,0.037300001829862595,0,0.0,0.0,,,,,0,,1,,
Raw,254730791,33104180000000,,,-1221705885260048384,0.0,14.518556781695224,-3.216793895212428,9.515096216564874,56,21,0.0,15,42989364110598,4,43.9,467.4681396484375,0.02460000105202198,0,0.0,0.0,,,,,0,,1,,
Raw,254730791,33104180000000,,,-1221705885260048384,0.0,14.518556781695224,-3.216793895212428,9.515096216564874,56,24,0.0,15,42989361985120,4,42.2,612.6790161132812,0.0203000009059906,0,0.0,0.0,,,,,0,,1,,
Raw,254730792,33104180000000,,,-1221705885260048384,0.0,14.518556781695224,-3.216793895212428,9.515096216564874,56,25,0.0,15,42989367242376,5,46.3,-410.8127136230469,0.02850000187754631,0,0.0,0.0,,,,,0,,1,,
Raw,254730793,33104180000000,,,-1221705885260048384,0.0,14.518556781695224,-3.216793895212428,9.515096216564874,56,31,0.0,15,42989363661730,4,44.1,-535.9384155273438,0.02280000038444996,0,0.0,0.0,,,,,0,,1,,
Raw,254730793,33104180000000,,,-1221705885260048384,0.0,14.518556781695224,-3.216793895212428,9.515096216564874,56,32,0.0,15,42989365041203,4,45.2,-232.81692504882812,0.025600001215934753,0,0.0,0.0,,,,,0,,1,,
Raw,254731784,33105180000000,,,-1221705885260048384,0.0,14.518537682306487,-2.3189734642069233,9.51507633459547,56,10,0.0,15,42990371315968,5,46.7,-325.0048522949219,0.03450000286102295,0,0.0,0.0,,,,,0,,1,,
Raw,254731784,33105180000000,,,-1221705885260048384,0.0,14.518537682306487,-2.3189734642069233,9.51507633459547,56,12,0.0,15,42990366100214,4,44.6,4.029042720794678,0.027300002053380013,0,0.0,0.0,,,,,0,,1,,
Raw,254731785,33105180000000,,,-1221705885260048384,0.0,14.518537682306487,-2.3189734642069233,9.51507633459547,56,14,0.0,15,42990360805515,4,42.9,-265.8487548828125,0.018800001591444016,0,0.0,0.0,,,,,0,,1,,
Raw,254731786,33105180000000,,,-1221705885260048384,0.0,14.518537682306487,-2.3189734642069233,9.51507633459547,56,15,0.0,15,42990358347179,5,40.4,367.7336730957031,0.046400003135204315,0,0.0,0.0,,,,,0,,1,,
Raw,254731786,33105180000000,,,-1221705885260048384,0.0,14.518537682306487,-2.3189734642069233,9.51507633459547,56,20,0.0,15,42990373402630,4,50.3,78.9185791015625,0.037300001829862595,0,0.0,0.0,,,,,0,,1,,
Raw,254731787,33105180000000,,,-1221705885260048384,0.0,14.518537682306487,-2.3189734642069233,9.51507633459547,56,21,0.0,15,42990364109045,4,43.7,467.4349365234375,0.02460000105202198,0,0.0,0.0,,,,,0,,1,,
Raw,254731787,33105180000000,,,-1221705885260048384,0.0,14.518537682306487,-2.3189734642069233,9.51507633459547,56,24,0.0,15,42990361983078,5,41.8,612.6216430664062,0.020600000396370888,0,0.0,0.0,,,,,0,,1,,
Raw,254731788,33105180000000,,,-1221705885260048384,0.0,14.518537682306487,-2.3189734642069233,9.51507633459547,56,25,0.0,15,42990367243745,5,46.1,-410.7950744628906,0.02850000187754631,0,0.0,0.0,,,,,0,,1,,
Raw,254731788,33105180000000,,,-1221705885260048384,0.0,14.518537682306487,-2.3189734642069233,9.51507633459547,56,31,0.0,15,42990363663520,4,43.6,-535.9338989257812,0.023100001737475395,0,0.0,0.0,,,,,0,,1,,
Raw,254731789,33105180000000,,,-1221705885260048384,0.0,14.518537682306487,-2.3189734642069233,9.51507633459547,56,32,0.0,15,42990365041974,4,45.3,-232.8791961669922,0.025600001215934753,0,0.0,0.0,,,,,0,,1,,
Raw,254732794,33106180000000,,,-1221705885260048384,0.0,14.51851858291775,-2.5365814205152177,9.515057247904842,56,10,0.0,15,42991371317050,5,46.5,-325.4841003417969,0.03450000286102295,0,0.0,0.0,,,,,0,,1,,
Raw,254732795,33106180000000,,,-1221705885260048384,0.0,14.51851858291775,-2.5365814205152177,9.515057247904842,56,12,0.0,15,42991366100197,4,44.3,3.590226888656616,0.027300002053380013,0,0.0,0.0,,,,,0,,1,,
Raw,254732796,33106180000000,,,-1221705885260048384,0.0,14.51851858291775,-2.5365814205152177,9.515057247904842,56,14,0.0,15,42991360806399,4,42.8,-266.4083557128906,0.018800001591444016,0,0.0,0.0,,,,,0,,1,,
Raw,254732796,33106180000000,,,-1221705885260048384,0.0,14.51851858291775,-2.5365814205152177,9.515057247904842,56,15,0.0,15,42991358345956,5,40.5,367.1829528808594,0.046400003135204315,0,0.0,0.0,,,,,0,,1,,
Raw,254732797,33106180000000,,,-1221705885260048384,0.0,14.51851858291775,-2.5365814205152177,9.515057247904842,56,20,0.0,15,42991373402366,4,49.4,78.4735107421875,0.037300001829862595,0,0.0,0.0,,,,,0,,1,,
Raw,254732798,33106180000000,,,-1221705885260048384,0.0,14.51851858291775,-2.5365814205152177,9.515057247904842,56,21,0.0,15,42991364107481,4,43.4,466.90264892578125,0.02460000105202198,0,0.0,0.0,,,,,0,,1,,
Raw,254732798,33106180000000,,,-1221705885260048384,0.0,14.51851858291775,-2.5365814205152177,9.515057247904842,56,24,0.0,15,42991361981031,5,41.8,612.0709838867188,0.020600000396370888,0,0.0,0.0,,,,,0,,1,,
Raw,254732799,33106180000000,,,-1221705885260048384,0.0,14.51851858291775,-2.5365814205152177,9.515057247904842,56,25,0.0,15,42991367245119,5,46.1,-411.2676086425781,0.02850000187754631,0,0.0,0.0,,,,,0,,1,,
Raw,254732799,33106180000000,,,-1221705885260048384,0.0,14.51851858291775,-2.5365814205152177,9.515057247904842,56,31,0.0,15,42991363665309,4,43.3,-536.4228515625,0.023100001737475395,0,0.0,0.0,,,,,0,,1,,
Raw,254732800,33106180000000,,,-1221705885260048384,0.0,14.51851858291775,-2.5365814205152177,9.515057247904842,56,32,0.0,15,42991365042754,4,45.1,-233.4370880126953,0.025600001215934753,0,0.0,0.0,,,,,0,,1,,
Raw,254733759,33107180000000,,,-1221705885260048384,0.0,14.51849857403431,-4.400533150644259,9.515038161214214,56,10,0.0,15,42992371318131,5,46.6,-325.53948974609375,0.03450000286102295,0,0.0,0.0,,,,,0,,1,,
Raw,254733759,33107180000000,,,-1221705885260048384,0.0,14.51849857403431,-4.400533150644259,9.515038161214214,56,12,0.0,15,42992366100180,4,44.9,3.571157217025757,0.027300002053380013,0,0.0,0.0,,,,,0,,1,,
Raw,254733759,33107180000000,,,-1221705885260048384,0.0,14.51849857403431,-4.400533150644259,9.515038161214214,56,14,0.0,15,42992360807283,4,43.3,-266.5498962402344,0.01860000006854534,0,0.0,0.0,,,,,0,,1,,
Raw,254733760,33107180000000,,,-1221705885260048384,0.0,14.51849857403431,-4.400533150644259,9.515038161214214,56,15,0.0,15,42992358344721,5,41.5,367.0528259277344,0.04610000178217888,0,0.0,0.0,,,,,0,,1,,
Raw,254733760,33107180000000,,,-1221705885260048384,0.0,14.51849857403431,-4.400533150644259,9.515038161214214,56,20,0.0,15,42992373402103,4,50.4,78.43994903564453,0.037300001829862595,0,0.0,0.0,,,,,0,,1,,
Raw,254733760,33107180000000,,,-1221705885260048384,0.0,14.51849857403431,-4.400533150644259,9.515038161214214,56,21,0.0,15,42992364105919,4,44.2,466.7917785644531,0.024300001561641693,0,0.0,0.0,,,,,0,,1,,
Raw,254733761,33107180000000,,,-1221705885260048384,0.0,14.51849857403431,-4.400533150644259,9.515038161214214,56,24,0.0,15,42992361978987,4,42.6,611.9365234375,0.0203000009059906,0,0.0,0.0,,,,,0,,1,,
Raw,254733761,33107180000000,,,-1221705885260048384,0.0,14.51849857403431,-4.400533150644259,9.515038161214214,56,25,0.0,15,42992367246483,5,46.4,-411.32635498046875,0.02850000187754631,0,0.0,0.0,,,,,0,,1,,
Raw,254733761,33107180000000,,,-1221705885260048384,0.0,14.51849857403431,-4.400533150644259,9.515038161214214,56,31,0.0,15,42992363667089,4,44.1,-536.4927368164062,0.02280000038444996,0,0.0,0.0,,,,,0,,1,,
Raw,254733762,33107180000000,,,-1221705885260048384,0.0,14.51849857403431,-4.400533150644259,9.515038161214214,56,32,0.0,15,42992365043530,4,45.8,-233.5780029296875,0.025600001215934753,0,0.0,0.0,,,,,0,,1,,
Raw,254734768,33108180000000,,,-1221705885260048384,0.0,14.518480384140275,-4.862294673530441,9.515019074523586,56,10,0.0,15,42993371319214,5,46.6,-325.3432312011719,0.03450000286102295,0,0.0,0.0,,,,,0,,1,,
Raw,254734769,33108180000000,,,-1221705885260048384,0.0,14.518480384140275,-4.862294673530441,9.515019074523586,56,12,0.0,15,42993366100160,4,45.1,3.8082118034362793,0.02710000053048134,0,0.0,0.0,,,,,0,,1,,
Raw,254734769,33108180000000,,,-1221705885260048384,0.0,14.518480384140275,-4.862294673530441,9.515019074523586,56,14,0.0,15,42993360808173,4,43.6,-266.4294738769531,0.01860000006854534,0,0.0,0.0,,,,,0,,1,,
Raw,254734770,33108180000000,,,-1221705885260048384,0.0,14.518480384140275,-4.862294673530441,9.515019074523586,56,15,0.0,15,42993358343494,5,41.7,367.1651306152344,0.04610000178217888,0,0.0,0.0,,,,,0,,1,,
Raw,254734771,33108180000000,,,-1221705885260048384,0.0,14.518480384140275,-4.862294673530441,9.515019074523586,56,20,0.0,15,42993373401834,4,51.3,78.66759490966797,0.037300001829862595,0,0.0,0.0,,,,,0,,1,,
Raw,254734773,33108180000000,,,-1221705885260048384,0.0,14.518480384140275,-4.862294673530441,9.515019074523586,56,21,0.0,15,42993364104359,4,44.5,466.94140625,0.024300001561641693,0,0.0,0.0,,,,,0,,1,,
Raw,254734773,33108180000000,,,-1221705885260048384,0.0,14.518480384140275,-4.862294673530441,9.515019074523586,56,24,0.0,15,42993361976936,4,43.0,612.0647583007812,0.020100001245737076,0,0.0,0.0,,,,,0,,1,,
Raw,254734774,33108180000000,,,-1221705885260048384,0.0,14.518480384140275,-4.862294673530441,9.515019074523586,56,25,0.0,15,42993367247852,5,46.6,-411.1258850097656,0.02850000187754631,0,0.0,0.0,,,,,0,,1,,
Raw,254734775,33108180000000,,,-1221705885260048384,0.0,14.518480384140275,-4.862294673530441,9.515019074523586,56,31,0.0,15,42993363668872,4,44.3,-536.3067016601562,0.02280000038444996,0,0.0,0.0,,,,,0,,1,,
Raw,254734776,33108180000000,,,-1221705885260048384,0.0,14.518480384140275,-4.862294673530441,9.515019074523586,56,32,0.0,15,42993365044301,4,45.8,-233.45872497558594,0.025600001215934753,0,0.0,0.0,,,,,0,,1,,
Raw,254735796,33109180000000,,,-1221705885260048384,0.0,14.518460375256836,-4.474410174916664,9.514999192554182,56,10,0.0,15,42994371320299,4,49.1,-325.314697265625,0.034300003200769424,0,0.0,0.0,,,,,0,,1,,
Raw,254735797,33109180000000,,,-1221705885260048384,0.0,14.518460375256836,-4.474410174916664,9.514999192554182,56,12,0.0,15,42994366100143,4,45.3,3.8760135173797607,0.02710000053048134,0,0.0,0.0,,,,,0,,1,,
Raw,254735797,33109180000000,,,-1221705885260048384,0.0,14.518460375256836,-4.474410174916664,9.514999192554182,56,14,0.0,15,42994360809055,4,43.7,-266.48468017578125,0.01860000006854534,0,0.0,0.0,,,,,0,,1,,
Raw,254735798,33109180000000,,,-1221705885260048384,0.0,14.518460375256836,-4.474410174916664,9.514999192554182,56,15,0.0,15,42994358342273,5,41.5,367.123291015625,0.04610000178217888,0,0.0,0.0,,,,,0,,1,,
Raw,254735799,33109180000000,,,-1221705885260048384,0.0,14.518460375256836,-4.474410174916664,9.514999192554182,56,20,0.0,15,42994373401570,4,51.1,78.72428894042969,0.037300001829862595,0,0.0,0.0,,,,,0,,1,,
Raw,254735799,33109180000000,,,-1221705885260048384,0.0,14.518460375256836,-4.474410174916664,9.514999192554182,56,21,0.0,15,42994364102797,4,44.1,466.9159851074219,0.024300001561641693,0,0.0,0.0,,,,,0,,1,,
Raw,254735800,33109180000000,,,-1221705885260048384,0.0,14.518460375256836,-4.474410174916664,9.514999192554182,56,24,0.0,15,42994361974887,4,42.5,612.0145263671875,0.0203000009059906,0,0.0,0.0,,,,,0,,1,,
Raw,254735801,33109180000000,,,-1221705885260048384,0.0,14.518460375256836,-4.474410174916664,9.514999192554182,56,25,0.0,15,42994367249219,5,47.1,-411.0965270996094,0.028300002217292786,0,0.0,0.0,,,,,0,,1,,
Raw,254735801,33109180000000,,,-1221705885260048384,0.0,14.518460375256836,-4.474410174916664,9.514999192554182,56,31,0.0,15,42994363670666,4,43.8,-536.2907104492188,0.023100001737475395,0,0.0,0.0,,,,,0,,1,,
Raw,254735802,33109180000000,,,-1221705885260048384,0.0,14.518460375256836,-4.474410174916664,9.514999192554182,56,32,0.0,15,42994365045075,5,46.1,-233.5044403076172,0.02550000138580799,0,0.0,0.0,,,,,0,,1,,
Raw,254736794,33110180000000,,,-1221705885260048384,0.0,14.5184412758681,-4.647813156910942,9.514980105863554,56,10,0.0,15,42995371321380,5,47.1,-325.0610046386719,0.034300003200769424,0,0.0,0.0,,,,,0,,1,,
Raw,254736795,33110180000000,,,-1221705885260048384,0.0,14.5184412758681,-4.647813156910942,9.514980105863554,56,12,0.0,15,42995366100133,4,45.9,4.167092800140381,0.02710000053048134,0,0.0,0.0,,,,,0,,1,,
Raw,254736795,33110180000000,,,-1221705885260048384,0.0,14.5184412758681,-4.647813156910942,9.514980105863554,56,14,0.0,15,42995360809939,4,44.0,-266.31280517578125,0.018300000578165054,0,0.0,0.0,,,,,0,,1,,
Raw,254736796,33110180000000,,,-1221705885260048384,0.0,14.5184412758681,-4.647813156910942,9.514980105863554,56,15,0.0,15,42995358341043,5,41.6,367.298828125,0.04610000178217888,0,0.0,0.0,,,,,0,,1,,
Raw,254736797,33110180000000,,,-1221705885260048384,0.0,14.5184412758681,-4.647813156910942,9.514980105863554,56,20,0.0,15,42995373401307,4,50.4,79.01139068603516,0.037300001829862595,0,0.0,0.0,,,,,0,,1,,
Raw,254736798,33110180000000,,,-1221705885260048384,0.0,14.5184412758681,-4.647813156910942,9.514980105863554,56,21,0.0,15,42995364101239,4,44.6,467.1190185546875,0.024300001561641693,0,0.0,0.0,,,,,0,,1,,
Raw,254736798,33110180000000,,,-1221705885260048384,0.0,14.5184412758681,-4.647813156910942,9.514980105863554,56,24,0.0,15,42995361972853,4,42.6,612.1985473632812,0.0203000009059906,0,0.0,0.0,,,,,0,,1,,
Raw,254736799,33110180000000,,,-1221705885260048384,0.0,14.5184412758681,-4.647813156910942,9.514980105863554,56,25,0.0,15,42995367250588,5,47.2,-410.8388366699219,0.028300002217292786,0,0.0,0.0,,,,,0,,1,,
Raw,254736800,33110180000000,,,-1221705885260048384,0.0,14.5184412758681,-4.647813156910942,9.514980105863554,56,31,0.0,15,42995363672447,4,44.3,-536.0469360351562,0.02280000038444996,0,0.0,0.0,,,,,0,,1,,
Raw,254736800,33110180000000,,,-1221705885260048384,0.0,14.5184412758681,-4.647813156910942,9.514980105863554,56,32,0.0,15,42995365045853,5,46.3,-233.3258514404297,0.02550000138580799,0,0.0,0.0,,,,,0,,1,,
Raw,254737794,33111180000000,,,-1221705885260048384,0.0,14.518422176479362,-4.073982937084611,9.514961019172926,56,10,0.0,15,42996371322463,5,47.1,-325.0171203613281,0.034300003200769424,0,0.0,0.0,,,,,0,,1,,
Raw,254737795,33111180000000,,,-1221705885260048384,0.0,14.518422176479362,-4.073982937084611,9.514961019172926,56,12,0.0,15,42996366100118,5,46.3,4.24960470199585,0.027000000700354576,0,0.0,0.0,,,,,0,,1,,
Raw,254737796,33111180000000,,,-1221705885260048384,0.0,14.518422176479362,-4.073982937084611,9.514961019172926,56,14,0.0,15,42996360810830,4,44.3,-266.3481140136719,0.018300000578165054,0,0.0,0.0,,,,,0,,1,,
Raw,254737796,33111180000000,,,-1221705885260048384,0.0,14.518422176479362,-4.073982937084611,9.514961019172926,56,15,0.0,15,42996358339817,4,42.6,367.26788330078125,0.04580000042915344,0,0.0,0.0,,,,,0,,1,,
Raw,254737797,33111180000000,,,-1221705885260048384,0.0,14.518422176479362,-4.073982937084611,9.514961019172926,56,20,0.0,15,42996373401042,4,51.3,79.08294677734375,0.037300001829862595,0,0.0,0.0,,,,,0,,1,,
Raw,254737797,33111180000000,,,-1221705885260048384,0.0,14.518422176479362,-4.073982937084611,9.514961019172926,56,21,0.0,15,42996364099681,4,45.1,467.11041259765625,0.02410000190138817,0,0.0,0.0,,,,,0,,1,,
Raw,254737798,33111180000000,,,-1221705885260048384,0.0,14.518422176479362,-4.073982937084611,9.514961019172926,56,24,0.0,15,42996361970811,4,42.8,612.163330078125,0.0203000009059906,0,0.0,0.0,,,,,0,,1,,
Raw,254737798,33111180000000,,,-1221705885260048384,0.0,14.518422176479362,-4.073982937084611,9.514961019172926,56,25,0.0,15,42996367251959,5,47.5,-410.80596923828125,0.13699999451637268,0,0.0,0.0,,,,,0,,1,,
Raw,254737799,33111180000000,,,-1221705885260048384,0.0,14.518422176479362,-4.073982937084611,9.514961019172926,56,31,0.0,15,42996363674236,4,44.6,-536.018310546875,0.02280000038444996,0,0.0,0.0,,,,,0,,1,,
Raw,254737799,33111180000000,,,-1221705885260048384,0.0,14.518422176479362,-4.073982937084611,9.514961019172926,56,32,0.0,15,42996365046634,5,46.7,-233.3643341064453,0.02550000138580799,0,0.0,0.0,,,,,0,,1,,
Raw,254738784,33112180000000,,,-1221705885260048384,0.0,14.518793250317685,-4.199159418813502,9.515331619082618,56,10,0.0,15,42997371323543,5,47.8,-324.9129943847656,0.034300003200769424,0,0.0,0.0,,,,,0,,1,,
Raw,254738785,33112180000000,,,-1221705885260048384,0.0,14.518793250317685,-4.199159418813502,9.515331619082618,56,12,0.0,15,42997366100104,5,46.2,4.357725143432617,0.1354999989271164,0,0.0,0.0,,,,,0,,1,,
Raw,254738786,33112180000000,,,-1221705885260048384,0.0,14.518793250317685,-4.199159418813502,9.515331619082618,56,14,0.0,15,42997360811717,4,44.5,-266.3262023925781,0.018300000578165054,0,0.0,0.0,,,,,0,,1,,
Raw,254738787,33112180000000,,,-1221705885260048384,0.0,14.518793250317685,-4.199159418813502,9.515331619082618,56,15,0.0,15,42997358338582,4,42.7,367.2978515625,0.04580000042915344,0,0.0,0.0,,,,,0,,1,,
Raw,254738787,33112180000000,,,-1221705885260048384,0.0,14.518793250317685,-4.199159418813502,9.515331619082618,56,20,0.0,15,42997373400771,4,52.0,79.21675872802734,0.037300001829862595,0,0.0,0.0,,,,,0,,1,,
Raw,254738789,33112180000000,,,-1221705885260048384,0.0,14.518793250317685,-4.199159418813502,9.515331619082618,56,21,0.0,15,42997364098112,4,45.1,467.1606140136719,0.02410000190138817,0,0.0,0.0,,,,,0,,1,,
Raw,254738789,33112180000000,,,-1221705885260048384,0.0,14.518793250317685,-4.199159418813502,9.515331619082618,56,24,0.0,15,42997361968765,4,43.2,612.1984252929688,0.020100001245737076,0,0.0,0.0,,,,,0,,1,,
Raw,254738790,33112180000000,,,-1221705885260048384,0.0,14.518793250317685,-4.199159418813502,9.515331619082618,56,25,0.0,15,42997367253323,5,47.6,-410.6842041015625,0.028300002217292786,0,0.0,0.0,,,,,0,,1,,
Raw,254738790,33112180000000,,,-1221705885260048384,0.0,14.518793250317685,-4.199159418813502,9.515331619082618,56,31,0.0,15,42997363676022,4,45.9,-535.9288330078125,0.022600000724196434,0,0.0,0.0,,,,,0,,1,,
Raw,254738791,33112180000000,,,-1221705885260048384,0.0,14.518793250317685,-4.199159418813502,9.515331619082618,56,32,0.0,15,42997365047410,5,47.1,-233.34405517578125,0.025300001725554466,0,0.0,0.0,,,,,0,,1,,
Raw,254739790,33113180000000,,,-1221705885260048384,0.0,14.519515389110893,-4.124927700206928,9.516053732211375,56,10,0.0,15,42998371324625,5,48.0,-325.0554504394531,0.034300003200769424,0,0.0,0.0,,,,,0,,1,,
Raw,254739790,33113180000000,,,-1221705885260048384,0.0,14.519515389110893,-4.124927700206928,9.516053732211375,56,12,0.0,15,42998366100088,5,46.6,4.287436485290527,0.027000000700354576,0,0.0,0.0,,,,,0,,1,,
Raw,254739791,33113180000000,,,-1221705885260048384,0.0,14.519515389110893,-4.124927700206928,9.516053732211375,56,14,0.0,15,42998360812598,4,44.6,-266.56903076171875,0.018300000578165054,0,0.0,0.0,,,,,0,,1,,
Raw,254739792,33113180000000,,,-1221705885260048384,0.0,14.519515389110893,-4.124927700206928,9.516053732211375,56,15,0.0,15,42998358337360,4,42.5,367.07763671875,0.04580000042915344,0,0.0,0.0,,,,,0,,1,,
Raw,254739793,33113180000000,,,-1221705885260048384,0.0,14.519515389110893,-4.124927700206928,9.516053732211375,56,20,0.0,15,42998373400507,4,51.8,79.10295867919922,0.037300001829862595,0,0.0,0.0,,,,,0,,1,,
Raw,254739793,33113180000000,,,-1221705885260048384,0.0,14.519515389110893,-4.124927700206928,9.516053732211375,56,21,0.0,15,42998364096560,4,45.1,466.9648132324219,0.02410000190138817,0,0.0,0.0,,,,,0,,1,,
Raw,254739794,33113180000000,,,-1221705885260048384,0.0,14.519515389110893,-4.124927700206928,9.516053732211375,56,24,0.0,15,42998361966721,4,42.1,611.9769897460938,0.0203000009059906,0,0.0,0.0,,,,,0,,1,,
Raw,254739795,33113180000000,,,-1221705885260048384,0.0,14.519515389110893,-4.124927700206928,9.516053732211375,56,25,0.0,15,42998367254693,5,47.4,-410.8271789550781,0.028300002217292786,0,0.0,0.0,,,,,0,,1,,
Raw,254739796,33113180000000,,,-1221705885260048384,0.0,14.519515389110893,-4.124927700206928,9.516053732211375,56,31,0.0,15,42998363677803,4,45.6,-536.087890625,0.022600000724196434,0,0.0,0.0,,,,,0,,1,,
Raw,254739797,33113180000000,,,-1221705885260048384,0.0,14.519515389110893,-4.124927700206928,9.516053732211375,56,32,0.0,15,42998365048185,5,47.1,-233.56813049316406,0.025300001725554466,0,0.0,0.0,,,,,0,,1,,
Raw,254740793,33114180000000,,,-1221705885260048384,0.0,14.518363968818448,-4.902653480863232,9.514902963822266,56,10,0.0,15,42999371325706,5,48.2,-325.25048828125,0.034300003200769424,0,0.0,0.0,,,,,0,,1,,
Raw,254740794,33114180000000,,,-1221705885260048384,0.0,14.518363968818448,-4.902653480863232,9.514902963822266,56,12,0.0,15,42999366100063,5,46.6,4.133912086486816,0.027000000700354576,0,0.0,0.0,,,,,0,,1,,
Raw,254740794,33114180000000,,,-1221705885260048384,0.0,14.518363968818448,-4.902653480863232,9.514902963822266,56,14,0.0,15,42999360813490,4,44.6,-266.8415222167969,0.018300000578165054,0,0.0,0.0,,,,,0,,1,,
Raw,254740795,33114180000000,,,-1221705885260048384,0.0,14.518363968818448,-4.902653480863232,9.514902963822266,56,15,0.0,15,42999358336133,4,42.2,366.81451416015625,0.04580000042915344,0,0.0,0.0,,,,,0,,1,,
Raw,254740796,33114180000000,,,-1221705885260048384,0.0,14.518363968818448,-4.902653480863232,9.514902963822266,56,20,0.0,15,42999373400241,4,52.0,78.93816375732422,0.037300001829862595,0,0.0,0.0,,,,,0,,1,,
Raw,254740796,33114180000000,,,-1221705885260048384,0.0,14.518363968818448,-4.902653480863232,9.514902963822266,56,21,0.0,15,42999364094995,4,44.8,466.71978759765625,0.024300001561641693,0,0.0,0.0,,,,,0,,1,,
Raw,254740797,33114180000000,,,-1221705885260048384,0.0,14.518363968818448,-4.902653480863232,9.514902963822266,56,24,0.0,15,42999361964669,4,43.3,611.7177124023438,0.020100001245737076,0,0.0,0.0,,,,,0,,1,,
Raw,254740798,33114180000000,,,-1221705885260048384,0.0,14.518363968818448,-4.902653480863232,9.514902963822266,56,25,0.0,15,42999367256056,5,47.0,-411.0172424316406,0.028300002217292786,0,0.0,0.0,,,,,0,,1,,
Raw,254740798,33114180000000,,,-1221705885260048384,0.0,14.518363968818448,-4.902653480863232,9.514902963822266,56,31,0.0,15,42999363679594,4,44.9,-536.2954711914062,0.02280000038444996,0,0.0,0.0,,,,,0,,1,,
Raw,254740799,33114180000000,,,-1221705885260048384,0.0,14.518363968818448,-4.902653480863232,9.514902963822266,56,32,0.0,15,42999365048961,5,47.2,-233.8417510986328,0.025300001725554466,0,0.0,0.0,,,,,0,,1,,
Raw,254741782,33115180000000,,,-1221705885260048384,0.0,14.518344869429711,-5.799648014859691,9.514883877131638,56,10,0.0,15,43000371326787,5,47.9,-325.0038757324219,0.034300003200769424,0,0.0,0.0,,,,,0,,1,,
Raw,254741783,33115180000000,,,-1221705885260048384,0.0,14.518344869429711,-5.799648014859691,9.514883877131638,56,12,0.0,15,43000366100045,5,46.8,4.427196979522705,0.027000000700354576,0,0.0,0.0,,,,,0,,1,,
Raw,254741784,33115180000000,,,-1221705885260048384,0.0,14.518344869429711,-5.799648014859691,9.514883877131638,56,14,0.0,15,43000360814371,4,44.3,-266.6667175292969,0.018300000578165054,0,0.0,0.0,,,,,0,,1,,
Raw,254741785,33115180000000,,,-1221705885260048384,0.0,14.518344869429711,-5.799648014859691,9.514883877131638,56,15,0.0,15,43000358334899,4,42.1,366.973876953125,0.04580000042915344,0,0.0,0.0,,,,,0,,1,,
Raw,254741785,33115180000000,,,-1221705885260048384,0.0,14.518344869429711,-5.799648014859691,9.514883877131638,56,20,0.0,15,43000373399969,4,51.1,79.21430969238281,0.037300001829862595,0,0.0,0.0,,,,,0,,1,,
Raw,254741786,33115180000000,,,-1221705885260048384,0.0,14.518344869429711,-5.799648014859691,9.514883877131638,56,21,0.0,15,43000364093436,4,44.8,466.92279052734375,0.024300001561641693,0,0.0,0.0,,,,,0,,1,,
Raw,254741786,33115180000000,,,-1221705885260048384,0.0,14.518344869429711,-5.799648014859691,9.514883877131638,56,24,0.0,15,43000361962636,4,42.1,611.8948974609375,0.0203000009059906,0,0.0,0.0,,,,,0,,1,,
Raw,254741787,33115180000000,,,-1221705885260048384,0.0,14.518344869429711,-5.799648014859691,9.514883877131638,56,25,0.0,15,43000367257425,5,47.2,-410.7647705078125,0.028300002217292786,0,0.0,0.0,,,,,0,,1,,
Raw,254741787,33115180000000,,,-1221705885260048384,0.0,14.518344869429711,-5.799648014859691,9.514883877131638,56,31,0.0,15,43000363681378,4,45.9,-536.0541381835938,0.022600000724196434,0,0.0,0.0,,,,,0,,1,,
Raw,254741788,33115180000000,,,-1221705885260048384,0.0,14.518344869429711,-5.799648014859691,9.514883877131638,56,32,0.0,15,43000365049733,5,46.8,-233.6664581298828,0.02550000138580799,0,0.0,0.0,,,,,0,,1,,
Raw,254741788,33115180000000,,,-1221705885260048384,0.0,14.518344869429711,-5.799648014859691,9.514883877131638,56,3,0.0,7183,43000354725455,769,15.9,-246.84896850585938,3.81850004196167,0,0.0,0.0,,,,,0,,6,,
Raw,254742793,33116180000000,,,-1221705885260048384,0.0,14.518325770040974,-5.233661629602669,9.51486479044101,56,10,0.0,15,43001371327868,5,48.3,-324.5049133300781,0.034300003200769424,0,0.0,0.0,,,,,0,,1,,
Raw,254742794,33116180000000,,,-1221705885260048384,0.0,14.518325770040974,-5.233661629602669,9.51486479044101,56,12,0.0,15,43001366100028,5,46.6,4.956231117248535,0.027000000700354576,0,0.0,0.0,,,,,0,,1,,
Raw,254742795,33116180000000,,,-1221705885260048384,0.0,14.518325770040974,-5.233661629602669,9.51486479044101,56,14,0.0,15,43001360815256,4,44.8,-266.259765625,0.018300000578165054,0,0.0,0.0,,,,,0,,1,,
Raw,254742796,33116180000000,,,-1221705885260048384,0.0,14.518325770040974,-5.233661629602669,9.51486479044101,56,15,0.0,15,43001358333674,4,42.8,367.3998718261719,0.04580000042915344,0,0.0,0.0,,,,,0,,1,,
Raw,254742797,33116180000000,,,-1221705885260048384,0.0,14.518325770040974,-5.233661629602669,9.51486479044101,56,20,0.0,15,43001373399702,4,51.3,79.7424087524414,0.037300001829862595,0,0.0,0.0,,,,,0,,1,,
Raw,254742797,33116180000000,,,-1221705885260048384,0.0,14.518325770040974,-5.233661629602669,9.51486479044101,56,21,0.0,15,43001364091870,4,45.3,467.3638916015625,0.02410000190138817,0,0.0,0.0,,,,,0,,1,,
Raw,254742798,33116180000000,,,-1221705885260048384,0.0,14.518325770040974,-5.233661629602669,9.51486479044101,56,24,0.0,15,43001361960583,4,42.6,612.3121948242188,0.0203000009059906,0,0.0,0.0,,,,,0,,1,,
Raw,254742799,33116180000000,,,-1221705885260048384,0.0,14.518325770040974,-5.233661629602669,9.51486479044101,56,25,0.0,15,43001367258793,5,47.8,-410.2698059082031,0.028300002217292786,0,0.0,0.0,,,,,0,,1,,
Raw,254742799,33116180000000,,,-1221705885260048384,0.0,14.518325770040974,-5.233661629602669,9.51486479044101,56,31,0.0,15,43001363683158,4,44.8,-535.5711059570312,0.02280000038444996,0,0.0,0.0,,,,,0,,1,,
Raw,254742800,33116180000000,,,-1221705885260048384,0.0,14.518325770040974,-5.233661629602669,9.51486479044101,56,32,0.0,15,43001365050513,5,46.5,-233.24542236328125,0.02550000138580799,0,0.0,0.0,,,,,0,,1,,
Raw,254742801,33116180000000,,,-1221705885260048384,0.0,14.518325770040974,-5.233661629602669,9.51486479044101,56,3,0.0,7183,43001354726278,796,15.9,-246.84896850585938,5.31850004196167,0,0.0,0.0,,,,,0,,6,,
Raw,254743801,33117180000000,,,-1221705885260048384,0.0,14.518305761157535,-3.863516783005967,9.514844908471606,56,10,0.0,15,43002371328944,5,48.5,-324.526123046875,0.034300003200769424,0,0.0,0.0,,,,,0,,1,,
Raw,254743802,33117180000000,,,-1221705885260048384,0.0,14.518305761157535,-3.863516783005967,9.514844908471606,56,12,0.0,15,43002366100006,5,46.4,4.972658157348633,0.027000000700354576,0,0.0,0.0,,,,,0,,1,,
Raw,254743803,33117180000000,,,-1221705885260048384,0.0,14.518305761157535,-3.863516783005967,9.514844908471606,56,14,0.0,15,43002360816141,4,45.0,-266.3623046875,0.01810000091791153,0,0.0,0.0,,,,,0,,1,,
Raw,254743803,33117180000000,,,-1221705885260048384,0.0,14.518305761157535,-3.863516783005967,9.514844908471606,56,15,0.0,15,43002358332444,4,42.6,367.3097839355469,0.04580000042915344,0,0.0,0.0,,,,,0,,1,,
Raw,254743804,33117180000000,,,-1221705885260048384,0.0,14.518305761157535,-3.863516783005967,9.514844908471606,56,20,0.0,15,43002373399433,4,52.4,79.75493621826172,0.037300001829862595,0,0.0,0.0,,,,,0,,1,,
Raw,254743804,33117180000000,,,-1221705885260048384,0.0,14.518305761157535,-3.863516783005967,9.514844908471606,56,21,0.0,15,43002364090312,4,45.5,467.2906799316406,0.02410000190138817,0,0.0,0.0,,,,,0,,1,,
Raw,254743805,33117180000000,,,-1221705885260048384,0.0,14.518305761157535,-3.863516783005967,9.514844908471606,56,24,0.0,15,43002361958537,4,43.7,612.21826171875,0.020100001245737076,0,0.0,0.0,,,,,0,,1,,
Raw,254743805,33117180000000,,,-1221705885260048384,0.0,14.518305761157535,-3.863516783005967,9.514844908471606,56,25,0.0,15,43002367260155,5,47.4,-410.2835693359375,0.028300002217292786,0,0.0,0.0,,,,,0,,1,,
Raw,254743805,33117180000000,,,-1221705885260048384,0.0,14.518305761157535,-3.863516783005967,9.514844908471606,56,31,0.0,15,43002363684941,4,45.4,-535.6080932617188,0.022600000724196434,0,0.0,0.0,,,,,0,,1,,
Raw,254743806,33117180000000,,,-1221705885260048384,0.0,14.518305761157535,-3.863516783005967,9.514844908471606,56,32,0.0,15,43002365051287,5,46.6,-233.34622192382812,0.02550000138580799,0,0.0,0.0,,,,,0,,1,,
Raw,254743806,33117180000000,,,-1221705885260048384,0.0,14.518305761157535,-3.863516783005967,9.514844908471606,56,3,0.0,7183,43002354727102,833,15.9,-246.84896850585938,6.81850004196167,0,0.0,0.0,,,,,0,,6,,
Raw,254744792,33118180000000,,,-1221705885260048384,0.0,14.518286661768798,-4.202683299070687,9.514825821780978,56,10,0.0,15,43003371330024,5,47.6,-324.8519592285156,0.034300003200769424,0,0.0,0.0,,,,,0,,1,,
Raw,254744793,33118180000000,,,-1221705885260048384,0.0,14.518286661768798,-4.202683299070687,9.514825821780978,56,12,0.0,15,43003366099985,5,46.5,4.685338973999023,0.027000000700354576,0,0.0,0.0,,,,,0,,1,,
Raw,254744793,33118180000000,,,-1221705885260048384,0.0,14.518286661768798,-4.202683299070687,9.514825821780978,56,14,0.0,15,43003360817031,4,44.9,-266.77801513671875,0.018300000578165054,0,0.0,0.0,,,,,0,,1,,
Raw,254744794,33118180000000,,,-1221705885260048384,0.0,14.518286661768798,-4.202683299070687,9.514825821780978,56,15,0.0,15,43003358331215,4,42.6,366.90277099609375,0.04580000042915344,0,0.0,0.0,,,,,0,,1,,
Raw,254744795,33118180000000,,,-1221705885260048384,0.0,14.518286661768798,-4.202683299070687,9.514825821780978,56,20,0.0,15,43003373399164,4,51.5,79.4554214477539,0.037300001829862595,0,0.0,0.0,,,,,0,,1,,
Raw,254744796,33118180000000,,,-1221705885260048384,0.0,14.518286661768798,-4.202683299070687,9.514825821780978,56,21,0.0,15,43003364088749,4,45.4,466.90460205078125,0.02410000190138817,0,0.0,0.0,,,,,0,,1,,
Raw,254744796,33118180000000,,,-1221705885260048384,0.0,14.518286661768798,-4.202683299070687,9.514825821780978,56,24,0.0,15,43003361956491,4,43.6,611.8114013671875,0.020100001245737076,0,0.0,0.0,,,,,0,,1,,
Raw,254744797,33118180000000,,,-1221705885260048384,0.0,14.518286661768798,-4.202683299070687,9.514825821780978,56,25,0.0,15,43003367261522,5,47.0,-410.61260986328125,0.028300002217292786,0,0.0,0.0,,,,,0,,1,,
Raw,254744798,33118180000000,,,-1221705885260048384,0.0,14.518286661768798,-4.202683299070687,9.514825821780978,56,31,0.0,15,43003363686725,4,45.9,-535.9537353515625,0.022600000724196434,0,0.0,0.0,,,,,0,,1,,
Raw,254744798,33118180000000,,,-1221705885260048384,0.0,14.518286661768798,-4.202683299070687,9.514825821780978,56,32,0.0,15,43003365052059,5,46.5,-233.7631072998047,0.02550000138580799,0,0.0,0.0,,,,,0,,1,,
Raw,254744799,33118180000000,,,-1221705885260048384,0.0,14.518286661768798,-4.202683299070687,9.514825821780978,56,3,0.0,7183,43003354727925,880,15.9,-246.84896850585938,8.318500518798828,0,0.0,0.0,,,,,0,,6,,
Raw,254745791,33119180000000,,,-1221705885260048384,0.0,14.51826756238006,-5.595046644115871,9.51480673509035,56,10,0.0,15,43004371331106,5,48.2,-324.75030517578125,0.034300003200769424,0,0.0,0.0,,,,,0,,1,,
Raw,254745792,33119180000000,,,-1221705885260048384,0.0,14.51826756238006,-5.595046644115871,9.51480673509035,56,12,0.0,15,43004366099967,5,46.9,4.828616619110107,0.027000000700354576,0,0.0,0.0,,,,,0,,1,,
Raw,254745793,33119180000000,,,-1221705885260048384,0.0,14.51826756238006,-5.595046644115871,9.51480673509035,56,14,0.0,15,43004360817913,4,44.7,-266.745849609375,0.018300000578165054,0,0.0,0.0,,,,,0,,1,,
Raw,254745793,33119180000000,,,-1221705885260048384,0.0,14.51826756238006,-5.595046644115871,9.51480673509035,56,15,0.0,15,43004358329987,4,42.6,366.9267883300781,0.04580000042915344,0,0.0,0.0,,,,,0,,1,,
Raw,254745794,33119180000000,,,-1221705885260048384,0.0,14.51826756238006,-5.595046644115871,9.51480673509035,56,20,0.0,15,43004373398893,4,51.1,79.58545684814453,0.037300001829862595,0,0.0,0.0,,,,,0,,1,,
Raw,254745795,33119180000000,,,-1221705885260048384,0.0,14.51826756238006,-5.595046644115871,9.51480673509035,56,21,0.0,15,43004364087192,4,45.6,466.9608154296875,0.02410000190138817,0,0.0,0.0,,,,,0,,1,,
Raw,254745796,33119180000000,,,-1221705885260048384,0.0,14.51826756238006,-5.595046644115871,9.51480673509035,56,24,0.0,15,43004361954448,4,43.3,611.8521118164062,0.020100001245737076,0,0.0,0.0,,,,,0,,1,,
Raw,254745796,33119180000000,,,-1221705885260048384,0.0,14.51826756238006,-5.595046644115871,9.51480673509035,56,25,0.0,15,43004367262887,5,47.4,-410.5017395019531,0.028300002217292786,0,0.0,0.0,,,,,0,,1,,
Raw,254745797,33119180000000,,,-1221705885260048384,0.0,14.51826756238006,-5.595046644115871,9.51480673509035,56,31,0.0,15,43004363688509,4,45.6,-535.851806640625,0.022600000724196434,0,0.0,0.0,,,,,0,,1,,
Raw,254745798,33119180000000,,,-1221705885260048384,0.0,14.51826756238006,-5.595046644115871,9.51480673509035,56,32,0.0,15,43004365052840,5,46.4,-233.73329162597656,0.02550000138580799,0,0.0,0.0,,,,,0,,1,,
Raw,254745799,33119180000000,,,-1221705885260048384,0.0,14.51826756238006,-5.595046644115871,9.51480673509035,56,3,0.0,7183,43004354728748,937,15.9,-246.84896850585938,9.818500518798828,0,0.0,0.0,,,,,0,,6,,
Raw,254746794,33120180000000,,,-1221705885260048384,0.0,14.518247553496622,-5.485660422487724,9.514786853120945,56,10,0.0,15,43005371332181,5,48.3,-324.1888122558594,0.034300003200769424,0,0.0,0.0,,,,,0,,1,,
Raw,254746795,33120180000000,,,-1221705885260048384,0.0,14.518247553496622,-5.485660422487724,9.514786853120945,56,12,0.0,15,43005366099948,5,46.1,5.4295501708984375,0.027000000700354576,0,0.0,0.0,,,,,0,,1,,
Raw,254746796,33120180000000,,,-1221705885260048384,0.0,14.518247553496622,-5.485660422487724,9.514786853120945,56,14,0.0,15,43005360818799,4,44.6,-266.270751953125,0.018300000578165054,0,0.0,0.0,,,,,0,,1,,
Raw,254746797,33120180000000,,,-1221705885260048384,0.0,14.518247553496622,-5.485660422487724,9.514786853120945,56,15,0.0,15,43005358328764,4,42.4,367.4143981933594,0.04580000042915344,0,0.0,0.0,,,,,0,,1,,
Raw,254746797,33120180000000,,,-1221705885260048384,0.0,14.518247553496622,-5.485660422487724,9.514786853120945,56,20,0.0,15,43005373398625,4,50.6,80.1744155883789,0.037300001829862595,0,0.0,0.0,,,,,0,,1,,
Raw,254746798,33120180000000,,,-1221705885260048384,0.0,14.518247553496622,-5.485660422487724,9.514786853120945,56,21,0.0,15,43005364085622,4,45.3,467.4688415527344,0.02410000190138817,0,0.0,0.0,,,,,0,,1,,
Raw,254746798,33120180000000,,,-1221705885260048384,0.0,14.518247553496622,-5.485660422487724,9.514786853120945,56,24,0.0,15,43005361952397,4,42.4,612.333984375,0.0203000009059906,0,0.0,0.0,,,,,0,,1,,
Raw,254746799,33120180000000,,,-1221705885260048384,0.0,14.518247553496622,-5.485660422487724,9.514786853120945,56,25,0.0,15,43005367264250,5,47.4,-409.94110107421875,0.028300002217292786,0,0.0,0.0,,,,,0,,1,,
Raw,254746800,33120180000000,,,-1221705885260048384,0.0,14.518247553496622,-5.485660422487724,9.514786853120945,56,31,0.0,15,43005363690292,4,44.2,-535.30712890625,0.02280000038444996,0,0.0,0.0,,,,,0,,1,,
Raw,254746800,33120180000000,,,-1221705885260048384,0.0,14.518247553496622,-5.485660422487724,9.514786853120945,56,32,0.0,15,43005365053616,5,46.6,-233.2544403076172,0.02550000138580799,0,0.0,0.0,,,,,0,,1,,
Raw,254746801,33120180000000,,,-1221705885260048384,0.0,14.518247553496622,-5.485660422487724,9.514786853120945,56,3,0.0,7183,43005354729572,1004,15.9,-246.84896850585938,11.318500518798828,0,0.0,0.0,,,,,0,,6,,
