# 
# Header Description:
# 
# Version: v2.0.0.1 Platform: 8.0.0 Manufacturer: Xiaomi Model: MIX 2
# 
# Raw,ElapsedRealtimeMillis,TimeNanos,LeapSecond,TimeUncertaintyNanos,FullBiasNanos,BiasNanos,BiasUncertaintyNanos,DriftNanosPerSecond,DriftUncertaintyNanosPerSecond,HardwareClockDiscontinuityCount,Svid,TimeOffsetNanos,State,ReceivedSvTimeNanos,ReceivedSvTimeUncertaintyNanos,Cn0DbHz,PseudorangeRateMetersPerSecond,PseudorangeRateUncertaintyMetersPerSecond,AccumulatedDeltaRangeState,AccumulatedDeltaRangeMeters,AccumulatedDeltaRangeUncertaintyMeters,CarrierFrequencyHz,CarrierCycles,CarrierPhase,CarrierPhaseUncertainty,MultipathIndicator,SnrInDb,ConstellationType,AgcDb,CarrierFrequencyHz
# 
# Fix,Provider,Latitude,Longitude,Altitude,Speed,Accuracy,(UTC)TimeInMs
# 
# Nav,Svid,Type,Status,MessageId,Sub-messageId,Data(Bytes)
# 
Raw,255478794,33631680000000,,,-1221705350752559104,0.0,15.18749922979623,0.37383445759004974,9.515778565754822,65,10,0.0,15,42982363818175,8,36.7,-324.54876708984375,0.025700001046061516,0,0.0,0.0,,,,,0,,1,,
Raw,255478794,33631680000000,,,-1221705350752559104,0.0,15.18749922979623,0.37383445759004974,9.515778565754822,65,12,0.0,15,42982358611218,12,32.3,4.173373699188232,0.05090000107884407,0,0.0,0.0,,,,,0,,1,,
Raw,255478794,33631680000000,,,-1221705350752559104,0.0,15.18749922979623,0.37383445759004974,9.515778565754822,65,14,0.0,15,42982353309312,14,30.4,-264.64569091796875,0.04530000314116478,0,0.0,0.0,,,,,0,,1,,
Raw,255478795,33631680000000,,,-1221705350752559104,0.0,15.18749922979623,0.37383445759004974,9.515778565754822,65,15,0.0,15,42982350867888,17,28.8,368.8055419921875,0.04830000177025795,0,0.0,0.0,,,,,0,,1,,
Raw,255478795,33631680000000,,,-1221705350752559104,0.0,15.18749922979623,0.37383445759004974,9.515778565754822,65,20,0.0,15,42982365915623,6,38.2,79.132080078125,0.0276000015437603,0,0.0,0.0,,,,,0,,1,,
Raw,255478796,33631680000000,,,-1221705350752559104,0.0,15.18749922979623,0.37383445759004974,9.515778565754822,65,21,0.0,15,42982356632426,13,31.5,468.2161865234375,0.04920000210404396,0,0.0,0.0,,,,,0,,1,,
Raw,255478797,33631680000000,,,-1221705350752559104,0.0,15.18749922979623,0.37383445759004974,9.515778565754822,65,24,0.0,15,42982354510338,14,30.7,613.4853515625,0.046800002455711365,0,0.0,0.0,,,,,0,,1,,
Raw,255478797,33631680000000,,,-1221705350752559104,0.0,15.18749922979623,0.37383445759004974,9.515778565754822,65,25,0.0,15,42982359743673,10,34.2,-410.4623718261719,0.020600000396370888,0,0.0,0.0,,,,,0,,1,,
Raw,255478798,33631680000000,,,-1221705350752559104,0.0,15.18749922979623,0.37383445759004974,9.515778565754822,65,31,0.0,15,42982356160090,13,31.1,-535.6483764648438,0.04920000210404396,0,0.0,0.0,,,,,0,,1,,
Raw,255478798,33631680000000,,,-1221705350752559104,0.0,15.18749922979623,0.37383445759004974,9.515778565754822,65,32,0.0,15,42982357546654,12,32.6,-231.87246704101562,0.049400001764297485,0,0.0,0.0,,,,,0,,1,,
Raw,255479819,33632680000000,,,-1221705350752559104,0.0,17.42431959428359,0.5932630555416023,10.803407274733646,65,10,0.0,15,42983363819267,5,41.2,-327.0205993652344,0.023600000888109207,0,0.0,0.0,,,,,0,,1,,
Raw,255479819,33632680000000,,,-1221705350752559104,0.0,17.42431959428359,0.5932630555416023,10.803407274733646,65,12,0.0,15,42983358611195,7,37.5,1.937026858329773,0.047600001096725464,0,0.0,0.0,,,,,0,,1,,
Raw,255479820,33632680000000,,,-1221705350752559104,0.0,17.42431959428359,0.5932630555416023,10.803407274733646,65,14,0.0,15,42983353310205,9,35.5,-267.18212890625,0.04110000282526016,0,0.0,0.0,,,,,0,,1,,
Raw,255479820,33632680000000,,,-1221705350752559104,0.0,17.42431959428359,0.5932630555416023,10.803407274733646,65,15,0.0,15,42983350866672,10,34.0,366.24603271484375,0.03710000216960907,0,0.0,0.0,,,,,0,,1,,
Raw,255479821,33632680000000,,,-1221705350752559104,0.0,17.42431959428359,0.5932630555416023,10.803407274733646,65,20,0.0,15,42983365915377,4,43.1,76.70023345947266,0.026100000366568565,0,0.0,0.0,,,,,0,,1,,
Raw,255479821,33632680000000,,,-1221705350752559104,0.0,17.42431959428359,0.5932630555416023,10.803407274733646,65,21,0.0,15,42983356630873,8,36.5,465.89459228515625,0.04520000144839287,0,0.0,0.0,,,,,0,,1,,
Raw,255479821,33632680000000,,,-1221705350752559104,0.0,17.42431959428359,0.5932630555416023,10.803407274733646,65,24,0.0,15,42983354508305,9,35.6,611.2278442382812,0.04260000213980675,0,0.0,0.0,,,,,0,,1,,
Raw,255479822,33632680000000,,,-1221705350752559104,0.0,17.42431959428359,0.5932630555416023,10.803407274733646,65,25,0.0,15,42983359745036,6,38.9,-412.8233337402344,0.01860000006854534,0,0.0,0.0,,,,,0,,1,,
Raw,255479822,33632680000000,,,-1221705350752559104,0.0,17.42431959428359,0.5932630555416023,10.803407274733646,65,31,0.0,15,42983356161883,8,36.5,-537.84765625,0.04520000144839287,0,0.0,0.0,,,,,0,,1,,
Raw,255479823,33632680000000,,,-1221705350752559104,0.0,17.42431959428359,0.5932630555416023,10.803407274733646,65,32,0.0,15,42983357547431,6,38.1,-234.2237091064453,0.04560000076889992,0,0.0,0.0,,,,,0,,1,,
Raw,255480803,33633680000000,,,-1221705350752559104,0.0,15.225348761305213,-6.970835584187012,9.515761864900522,65,10,0.0,15,42984363820364,5,40.5,-326.5472412109375,0.023900000378489494,0,0.0,0.0,,,,,0,,1,,
Raw,255480803,33633680000000,,,-1221705350752559104,0.0,15.225348761305213,-6.970835584187012,9.515761864900522,65,12,0.0,15,42984358611197,8,36.5,2.246894598007202,0.04820000380277634,0,0.0,0.0,,,,,0,,1,,
Raw,255480803,33633680000000,,,-1221705350752559104,0.0,15.225348761305213,-6.970835584187012,9.515761864900522,65,14,0.0,15,42984353311101,10,34.5,-266.9058532714844,0.041600000113248825,0,0.0,0.0,,,,,0,,1,,
Raw,255480804,33633680000000,,,-1221705350752559104,0.0,15.225348761305213,-6.970835584187012,9.515761864900522,65,15,0.0,15,42984350865468,12,32.7,366.6492919921875,0.03890000283718109,0,0.0,0.0,,,,,0,,1,,
Raw,255480804,33633680000000,,,-1221705350752559104,0.0,15.225348761305213,-6.970835584187012,9.515761864900522,65,20,0.0,15,42984365915123,4,42.2,77.19822692871094,0.02630000188946724,0,0.0,0.0,,,,,0,,1,,
Raw,255480804,33633680000000,,,-1221705350752559104,0.0,15.225348761305213,-6.970835584187012,9.515761864900522,65,21,0.0,15,42984356629322,9,35.5,466.205078125,0.04560000076889992,0,0.0,0.0,,,,,0,,1,,
Raw,255480805,33633680000000,,,-1221705350752559104,0.0,15.225348761305213,-6.970835584187012,9.515761864900522,65,24,0.0,15,42984354506243,10,34.4,611.5278930664062,0.04310000315308571,0,0.0,0.0,,,,,0,,1,,
Raw,255480805,33633680000000,,,-1221705350752559104,0.0,15.225348761305213,-6.970835584187012,9.515761864900522,65,25,0.0,15,42984359746431,6,38.0,-412.3477478027344,0.01860000006854534,0,0.0,0.0,,,,,0,,1,,
Raw,255480805,33633680000000,,,-1221705350752559104,0.0,15.225348761305213,-6.970835584187012,9.515761864900522,65,31,0.0,15,42984356163697,9,35.3,-537.3969116210938,0.04560000076889992,0,0.0,0.0,,,,,0,,1,,
Raw,255480806,33633680000000,,,-1221705350752559104,0.0,15.225348761305213,-6.970835584187012,9.515761864900522,65,32,0.0,15,42984357548235,7,37.0,-233.9437713623047,0.04610000178217888,0,0.0,0.0,,,,,0,,1,,
Raw,255481791,33634680000000,,,-1221705350752559104,0.0,15.169511243584566,-6.041574999684011,9.51517335860616,65,10,0.0,15,42985363821450,5,40.3,-326.5970764160156,0.023900000378489494,0,0.0,0.0,,,,,0,,1,,
Raw,255481791,33634680000000,,,-1221705350752559104,0.0,15.169511243584566,-6.041574999684011,9.51517335860616,65,12,0.0,15,42985358611194,8,36.4,2.225701093673706,0.04820000380277634,0,0.0,0.0,,,,,0,,1,,
Raw,255481792,33634680000000,,,-1221705350752559104,0.0,15.169511243584566,-6.041574999684011,9.51517335860616,65,14,0.0,15,42985353311993,10,34.6,-267.05072021484375,0.041600000113248825,0,0.0,0.0,,,,,0,,1,,
Raw,255481792,33634680000000,,,-1221705350752559104,0.0,15.169511243584566,-6.041574999684011,9.51517335860616,65,15,0.0,15,42985350864239,12,32.9,366.49786376953125,0.03890000283718109,0,0.0,0.0,,,,,0,,1,,
Raw,255481793,33634680000000,,,-1221705350752559104,0.0,15.169511243584566,-6.041574999684011,9.51517335860616,65,20,0.0,15,42985365914865,4,42.0,77.17078399658203,0.02630000188946724,0,0.0,0.0,,,,,0,,1,,
Raw,255481793,33634680000000,,,-1221705350752559104,0.0,15.169511243584566,-6.041574999684011,9.51517335860616,65,21,0.0,15,42985356627755,9,35.5,466.0909729003906,0.04560000076889992,0,0.0,0.0,,,,,0,,1,,
Raw,255481794,33634680000000,,,-1221705350752559104,0.0,15.169511243584566,-6.041574999684011,9.51517335860616,65,24,0.0,15,42985354504215,10,34.7,611.3821411132812,0.04310000315308571,0,0.0,0.0,,,,,0,,1,,
Raw,255481794,33634680000000,,,-1221705350752559104,0.0,15.169511243584566,-6.041574999684011,9.51517335860616,65,25,0.0,15,42985359747788,6,38.2,-412.3961181640625,0.01860000006854534,0,0.0,0.0,,,,,0,,1,,
Raw,255481794,33634680000000,,,-1221705350752559104,0.0,15.169511243584566,-6.041574999684011,9.51517335860616,65,31,0.0,15,42985356165474,9,35.4,-537.4730224609375,0.04560000076889992,0,0.0,0.0,,,,,0,,1,,
Raw,255481795,33634680000000,,,-1221705350752559104,0.0,15.169511243584566,-6.041574999684011,9.51517335860616,65,32,0.0,15,42985357548998,7,37.1,-234.0999298095703,0.04610000178217888,0,0.0,0.0,,,,,0,,1,,
Raw,255482827,33635680000000,,,-1221705350752559360,0.0,14.968989489716478,-6.57354929988142,9.515154271915533,65,10,0.0,15,42986363822525,5,41.8,-325.7382507324219,0.023600000888109207,0,0.0,0.0,,,,,0,,1,,
Raw,255482828,33635680000000,,,-1221705350752559360,0.0,14.968989489716478,-6.57354929988142,9.515154271915533,65,12,0.0,15,42986358611162,7,37.9,3.1323511600494385,0.047600001096725464,0,0.0,0.0,,,,,0,,1,,
Raw,255482829,33635680000000,,,-1221705350752559360,0.0,14.968989489716478,-6.57354929988142,9.515154271915533,65,14,0.0,15,42986353312859,8,36.1,-266.259765625,0.04070000350475311,0,0.0,0.0,,,,,0,,1,,
Raw,255482829,33635680000000,,,-1221705350752559360,0.0,14.968989489716478,-6.57354929988142,9.515154271915533,65,15,0.0,15,42986350862982,10,34.3,367.3031921386719,0.03710000216960907,0,0.0,0.0,,,,,0,,1,,
Raw,255482830,33635680000000,,,-1221705350752559360,0.0,14.968989489716478,-6.57354929988142,9.515154271915533,65,20,0.0,15,42986365914585,4,43.5,78.07125091552734,0.026100000366568565,0,0.0,0.0,,,,,0,,1,,
Raw,255482831,33635680000000,,,-1221705350752559360,0.0,14.968989489716478,-6.57354929988142,9.515154271915533,65,21,0.0,15,42986356626196,7,37.0,466.90679931640625,0.044600002467632294,0,0.0,0.0,,,,,0,,1,,
Raw,255482832,33635680000000,,,-1221705350752559360,0.0,14.968989489716478,-6.57354929988142,9.515154271915533,65,24,0.0,15,42986354502173,8,36.2,612.177978515625,0.0422000028192997,0,0.0,0.0,,,,,0,,1,,
Raw,255482832,33635680000000,,,-1221705350752559360,0.0,14.968989489716478,-6.57354929988142,9.515154271915533,65,25,0.0,15,42986359749154,6,39.4,-411.52398681640625,0.01810000091791153,0,0.0,0.0,,,,,0,,1,,
Raw,255482833,33635680000000,,,-1221705350752559360,0.0,14.968989489716478,-6.57354929988142,9.515154271915533,65,31,0.0,15,42986356167258,8,36.8,-536.6199951171875,0.04520000144839287,0,0.0,0.0,,,,,0,,1,,
Raw,255482834,33635680000000,,,-1221705350752559360,0.0,14.968989489716478,-6.57354929988142,9.515154271915533,65,32,0.0,15,42986357549768,6,38.4,-233.3081512451172,0.04560000076889992,0,0.0,0.0,,,,,0,,1,,
Raw,255483800,33636680000000,,,-1221705350752559104,0.0,14.72193434892688,-3.9250220529969706,9.515134389946128,65,10,0.0,15,42987363823591,6,38.1,-324.4840393066406,0.02460000105202198,0,0.0,0.0,,,,,0,,1,,
Raw,255483800,33636680000000,,,-1221705350752559104,0.0,14.72193434892688,-3.9250220529969706,9.515134389946128,65,12,0.0,15,42987358611138,10,34.5,4.4259257316589355,0.04910000041127205,0,0.0,0.0,,,,,0,,1,,
Raw,255483800,33636680000000,,,-1221705350752559104,0.0,14.72193434892688,-3.9250220529969706,9.515134389946128,65,14,0.0,15,42987353313744,12,32.4,-265.0683898925781,0.04340000078082085,0,0.0,0.0,,,,,0,,1,,
Raw,255483801,33636680000000,,,-1221705350752559104,0.0,14.72193434892688,-3.9250220529969706,9.515134389946128,65,15,0.0,15,42987350861757,14,30.6,368.4873352050781,0.040800001472234726,0,0.0,0.0,,,,,0,,1,,
Raw,255483801,33636680000000,,,-1221705350752559104,0.0,14.72193434892688,-3.9250220529969706,9.515134389946128,65,20,0.0,15,42987365914314,6,39.8,79.34745788574219,0.02710000053048134,0,0.0,0.0,,,,,0,,1,,
Raw,255483802,33636680000000,,,-1221705350752559104,0.0,14.72193434892688,-3.9250220529969706,9.515134389946128,65,21,0.0,15,42987356624602,11,33.6,468.1210021972656,0.04690000042319298,0,0.0,0.0,,,,,0,,1,,
Raw,255483802,33636680000000,,,-1221705350752559104,0.0,14.72193434892688,-3.9250220529969706,9.515134389946128,65,24,0.0,15,42987354500106,12,32.8,613.3612670898438,0.04490000009536743,0,0.0,0.0,,,,,0,,1,,
Raw,255483802,33636680000000,,,-1221705350752559104,0.0,14.72193434892688,-3.9250220529969706,9.515134389946128,65,25,0.0,15,42987359750509,8,36.2,-410.2922058105469,0.019700000062584877,0,0.0,0.0,,,,,0,,1,,
Raw,255483803,33636680000000,,,-1221705350752559104,0.0,14.72193434892688,-3.9250220529969706,9.515134389946128,65,31,0.0,15,42987356169037,11,33.8,-535.3602905273438,0.04690000042319298,0,0.0,0.0,,,,,0,,1,,
Raw,255483803,33636680000000,,,-1221705350752559104,0.0,14.72193434892688,-3.9250220529969706,9.515134389946128,65,32,0.0,15,42987357550522,9,35.0,-232.13804626464844,0.0471000038087368,0,0.0,0.0,,,,,0,,1,,
Raw,255484822,33637680000000,,,-1221705350752559104,0.0,15.503535905736499,0.05554212682566782,9.515116098534278,65,10,0.0,15,42988363824675,6,39.2,-324.076416015625,0.02410000190138817,0,0.0,0.0,,,,,0,,1,,
Raw,255484822,33637680000000,,,-1221705350752559104,0.0,15.503535905736499,0.05554212682566782,9.515116098534278,65,12,0.0,15,42988358611122,9,35.4,4.880363464355469,0.048600003123283386,0,0.0,0.0,,,,,0,,1,,
Raw,255484823,33637680000000,,,-1221705350752559104,0.0,15.503535905736499,0.05554212682566782,9.515116098534278,65,14,0.0,15,42988353314607,11,33.3,-264.7526550292969,0.04240000247955322,0,0.0,0.0,,,,,0,,1,,
Raw,255484824,33637680000000,,,-1221705350752559104,0.0,15.503535905736499,0.05554212682566782,9.515116098534278,65,15,0.0,15,42988350860512,13,31.9,368.8021240234375,0.04020000249147415,0,0.0,0.0,,,,,0,,1,,
Raw,255484824,33637680000000,,,-1221705350752559104,0.0,15.503535905736499,0.05554212682566782,9.515116098534278,65,20,0.0,15,42988365914037,5,40.6,79.78124237060547,0.026900000870227814,0,0.0,0.0,,,,,0,,1,,
Raw,255484825,33637680000000,,,-1221705350752559104,0.0,15.503535905736499,0.05554212682566782,9.515116098534278,65,21,0.0,15,42988356623046,10,34.6,468.4535217285156,0.04610000178217888,0,0.0,0.0,,,,,0,,1,,
Raw,255484826,33637680000000,,,-1221705350752559104,0.0,15.503535905736499,0.05554212682566782,9.515116098534278,65,24,0.0,15,42988354498075,11,33.5,613.688232421875,0.04390000179409981,0,0.0,0.0,,,,,0,,1,,
Raw,255484826,33637680000000,,,-1221705350752559104,0.0,15.503535905736499,0.05554212682566782,9.515116098534278,65,25,0.0,15,42988359751870,8,36.9,-409.87249755859375,0.019700000062584877,0,0.0,0.0,,,,,0,,1,,
Raw,255484827,33637680000000,,,-1221705350752559104,0.0,15.503535905736499,0.05554212682566782,9.515116098534278,65,31,0.0,15,42988356170806,10,34.3,-534.9671630859375,0.04610000178217888,0,0.0,0.0,,,,,0,,1,,
Raw,255484828,33637680000000,,,-1221705350752559104,0.0,15.503535905736499,0.05554212682566782,9.515116098534278,65,32,0.0,15,42988357551298,8,36.3,-231.80191040039062,0.04670000076293945,0,0.0,0.0,,,,,0,,1,,
Raw,255485823,33638680000000,,,-1221705350752559104,0.0,16.231042536674067,1.0905071339445236,10.49165878975597,65,10,0.0,15,42989363825755,8,36.0,-324.15020751953125,0.025700001046061516,0,0.0,0.0,,,,,0,,1,,
Raw,255485823,33638680000000,,,-1221705350752559104,0.0,16.231042536674067,1.0905071339445236,10.49165878975597,65,12,0.0,15,42989358611105,12,32.0,4.851380348205566,0.05090000107884407,0,0.0,0.0,,,,,0,,1,,
Raw,255485824,33638680000000,,,-1221705350752559104,0.0,16.231042536674067,1.0905071339445236,10.49165878975597,65,14,0.0,15,42989353315490,14,30.1,-264.90972900390625,0.04530000314116478,0,0.0,0.0,,,,,0,,1,,
Raw,255485824,33638680000000,,,-1221705350752559104,0.0,16.231042536674067,1.0905071339445236,10.49165878975597,65,15,0.0,15,42989350859305,17,28.7,368.7709655761719,0.04830000177025795,0,0.0,0.0,,,,,0,,1,,
Raw,255485825,33638680000000,,,-1221705350752559104,0.0,16.231042536674067,1.0905071339445236,10.49165878975597,65,20,0.0,15,42989365913766,7,37.6,79.74368286132812,0.02810000069439411,0,0.0,0.0,,,,,0,,1,,
Raw,255485825,33638680000000,,,-1221705350752559104,0.0,16.231042536674067,1.0905071339445236,10.49165878975597,65,21,0.0,15,42989356621496,13,31.4,468.3440246582031,0.04920000210404396,0,0.0,0.0,,,,,0,,1,,
Raw,255485829,33638680000000,,,-1221705350752559104,0.0,16.231042536674067,1.0905071339445236,10.49165878975597,65,24,0.0,15,42989354495992,14,30.0,613.55029296875,0.046800002455711365,0,0.0,0.0,,,,,0,,1,,
Raw,255485830,33638680000000,,,-1221705350752559104,0.0,16.231042536674067,1.0905071339445236,10.49165878975597,65,25,0.0,15,42989359753233,10,34.1,-409.93585205078125,0.020600000396370888,0,0.0,0.0,,,,,0,,1,,
Raw,255485830,33638680000000,,,-1221705350752559104,0.0,16.231042536674067,1.0905071339445236,10.49165878975597,65,31,0.0,15,42989356172584,13,31.4,-535.0491333007812,0.04920000210404396,0,0.0,0.0,,,,,0,,1,,
Raw,255485831,33638680000000,,,-1221705350752559104,0.0,16.231042536674067,1.0905071339445236,10.49165878975597,65,32,0.0,15,42989357552088,12,32.8,-231.93336486816406,0.049400001764297485,0,0.0,0.0,,,,,0,,1,,
Raw,255486819,33639680000000,,,-1221705350752559104,0.0,16.133566532516852,0.6239294524948139,9.58296212620764,65,10,0.0,15,42990363826841,7,37.0,-324.7725830078125,0.025100000202655792,0,0.0,0.0,,,,,0,,1,,
Raw,255486820,33639680000000,,,-1221705350752559104,0.0,16.133566532516852,0.6239294524948139,9.58296212620764,65,12,0.0,15,42990358611092,11,33.2,4.272717475891113,0.04990000277757645,0,0.0,0.0,,,,,0,,1,,
Raw,255486821,33639680000000,,,-1221705350752559104,0.0,16.133566532516852,0.6239294524948139,9.58296212620764,65,14,0.0,15,42990353316378,13,31.3,-265.5952453613281,0.04470000043511391,0,0.0,0.0,,,,,0,,1,,
Raw,255486821,33639680000000,,,-1221705350752559104,0.0,16.133566532516852,0.6239294524948139,9.58296212620764,65,15,0.0,15,42990350858091,16,29.9,367.98199462890625,0.04170000180602074,0,0.0,0.0,,,,,0,,1,,
Raw,255486822,33639680000000,,,-1221705350752559104,0.0,16.133566532516852,0.6239294524948139,9.58296212620764,65,20,0.0,15,42990365913511,6,38.7,79.1572036743164,0.0276000015437603,0,0.0,0.0,,,,,0,,1,,
Raw,255486822,33639680000000,,,-1221705350752559104,0.0,16.133566532516852,0.6239294524948139,9.58296212620764,65,21,0.0,15,42990356619925,12,32.5,467.6877136230469,0.0479000024497509,0,0.0,0.0,,,,,0,,1,,
Raw,255486823,33639680000000,,,-1221705350752559104,0.0,16.133566532516852,0.6239294524948139,9.58296212620764,65,24,0.0,15,42990354493977,13,31.4,612.8716430664062,0.04620000347495079,0,0.0,0.0,,,,,0,,1,,
Raw,255486824,33639680000000,,,-1221705350752559104,0.0,16.133566532516852,0.6239294524948139,9.58296212620764,65,25,0.0,15,42990359754610,10,34.8,-410.5606384277344,0.020600000396370888,0,0.0,0.0,,,,,0,,1,,
Raw,255486824,33639680000000,,,-1221705350752559104,0.0,16.133566532516852,0.6239294524948139,9.58296212620764,65,31,0.0,15,42990356174384,12,32.5,-535.68994140625,0.0479000024497509,0,0.0,0.0,,,,,0,,1,,
Raw,255486825,33639680000000,,,-1221705350752559104,0.0,16.133566532516852,0.6239294524948139,9.58296212620764,65,32,0.0,15,42990357552856,11,33.8,-232.63168334960938,0.04840000346302986,0,0.0,0.0,,,,,0,,1,,
Raw,255487819,33640680000000,,,-1221705350752559104,0.0,15.544022971880622,-1.6661628167916926,9.581962460786002,65,10,0.0,15,42991363827929,5,41.9,-324.764404296875,0.023600000888109207,0,0.0,0.0,,,,,0,,1,,
Raw,255487820,33640680000000,,,-1221705350752559104,0.0,15.544022971880622,-1.6661628167916926,9.581962460786002,65,12,0.0,15,42991358611079,7,37.9,4.299011707305908,0.047600001096725464,0,0.0,0.0,,,,,0,,1,,
Raw,255487821,33640680000000,,,-1221705350752559104,0.0,15.544022971880622,-1.6661628167916926,9.581962460786002,65,14,0.0,15,42991353317280,9,35.9,-265.6844787597656,0.04110000282526016,0,0.0,0.0,,,,,0,,1,,
Raw,255487821,33640680000000,,,-1221705350752559104,0.0,15.544022971880622,-1.6661628167916926,9.581962460786002,65,15,0.0,15,42991350856839,10,34.1,367.89447021484375,0.03710000216960907,0,0.0,0.0,,,,,0,,1,,
Raw,255487822,33640680000000,,,-1221705350752559104,0.0,15.544022971880622,-1.6661628167916926,9.581962460786002,65,20,0.0,15,42991365913255,4,43.6,79.19239044189453,0.026100000366568565,0,0.0,0.0,,,,,0,,1,,
Raw,255487823,33640680000000,,,-1221705350752559104,0.0,15.544022971880622,-1.6661628167916926,9.581962460786002,65,21,0.0,15,42991356618376,8,36.9,467.6272277832031,0.04520000144839287,0,0.0,0.0,,,,,0,,1,,
Raw,255487824,33640680000000,,,-1221705350752559104,0.0,15.544022971880622,-1.6661628167916926,9.581962460786002,65,24,0.0,15,42991354491937,8,36.1,612.7954711914062,0.0422000028192997,0,0.0,0.0,,,,,0,,1,,
Raw,255487824,33640680000000,,,-1221705350752559104,0.0,15.544022971880622,-1.6661628167916926,9.581962460786002,65,25,0.0,15,42991359755991,6,39.6,-410.5487060546875,0.01810000091791153,0,0.0,0.0,,,,,0,,1,,
Raw,255487824,33640680000000,,,-1221705350752559104,0.0,15.544022971880622,-1.6661628167916926,9.581962460786002,65,31,0.0,15,42991356176178,7,37.1,-535.7001953125,0.044600002467632294,0,0.0,0.0,,,,,0,,1,,
Raw,255487825,33640680000000,,,-1221705350752559104,0.0,15.544022971880622,-1.6661628167916926,9.581962460786002,65,32,0.0,15,42991357553627,6,38.5,-232.72439575195312,0.04560000076889992,0,0.0,0.0,,,,,0,,1,,
Raw,255488821,33641680000000,,,-1221705350752559104,0.0,14.54308039683383,-2.0000030526628985,9.515041342329319,65,10,0.0,15,42992363829013,4,45.1,-324.53680419921875,0.022600000724196434,0,0.0,0.0,,,,,0,,1,,
Raw,255488821,33641680000000,,,-1221705350752559104,0.0,14.54308039683383,-2.0000030526628985,9.515041342329319,65,12,0.0,15,42992358611067,4,42.2,4.5625901222229,0.04580000042915344,0,0.0,0.0,,,,,0,,1,,
Raw,255488821,33641680000000,,,-1221705350752559104,0.0,14.54308039683383,-2.0000030526628985,9.515041342329319,65,14,0.0,15,42992353318166,5,40.3,-265.5494384765625,0.03890000283718109,0,0.0,0.0,,,,,0,,1,,
Raw,255488822,33641680000000,,,-1221705350752559104,0.0,14.54308039683383,-2.0000030526628985,9.515041342329319,65,15,0.0,15,42992350855614,6,38.7,368.0494079589844,0.035100001841783524,0,0.0,0.0,,,,,0,,1,,
Raw,255488822,33641680000000,,,-1221705350752559104,0.0,14.54308039683383,-2.0000030526628985,9.515041342329319,65,20,0.0,15,42992365912990,5,47.8,79.44291687011719,0.025300001725554466,0,0.0,0.0,,,,,0,,1,,
Raw,255488823,33641680000000,,,-1221705350752559104,0.0,14.54308039683383,-2.0000030526628985,9.515041342329319,65,21,0.0,15,42992356616817,5,41.2,467.7887268066406,0.04310000315308571,0,0.0,0.0,,,,,0,,1,,
Raw,255488823,33641680000000,,,-1221705350752559104,0.0,14.54308039683383,-2.0000030526628985,9.515041342329319,65,24,0.0,15,42992354489882,5,40.3,612.934814453125,0.040400002151727676,0,0.0,0.0,,,,,0,,1,,
Raw,255488823,33641680000000,,,-1221705350752559104,0.0,14.54308039683383,-2.0000030526628985,9.515041342329319,65,25,0.0,15,42992359757360,4,43.8,-410.3197937011719,0.017100000753998756,0,0.0,0.0,,,,,0,,1,,
Raw,255488824,33641680000000,,,-1221705350752559104,0.0,14.54308039683383,-2.0000030526628985,9.515041342329319,65,31,0.0,15,42992356177964,5,41.2,-535.49951171875,0.04310000315308571,0,0.0,0.0,,,,,0,,1,,
Raw,255488824,33641680000000,,,-1221705350752559104,0.0,14.54308039683383,-2.0000030526628985,9.515041342329319,65,32,0.0,15,42992357554407,4,43.0,-232.58248901367188,0.04410000145435333,0,0.0,0.0,,,,,0,,1,,
Raw,255489822,33642680000000,,,-1221705350752559104,0.0,14.518480384140275,-1.5529133296886333,9.515019074523586,65,10,0.0,15,42993363830093,4,45.0,-324.2738952636719,0.022600000724196434,0,0.0,0.0,,,,,0,,1,,
Raw,255489823,33642680000000,,,-1221705350752559104,0.0,14.518480384140275,-1.5529133296886333,9.515019074523586,65,12,0.0,15,42993358611046,4,42.8,4.873612403869629,0.04580000042915344,0,0.0,0.0,,,,,0,,1,,
Raw,255489823,33642680000000,,,-1221705350752559104,0.0,14.518480384140275,-1.5529133296886333,9.515019074523586,65,14,0.0,15,42993353319050,5,40.9,-265.36358642578125,0.03890000283718109,0,0.0,0.0,,,,,0,,1,,
Raw,255489824,33642680000000,,,-1221705350752559104,0.0,14.518480384140275,-1.5529133296886333,9.515019074523586,65,15,0.0,15,42993350854385,6,39.4,368.2408447265625,0.03460000082850456,0,0.0,0.0,,,,,0,,1,,
Raw,255489825,33642680000000,,,-1221705350752559104,0.0,14.518480384140275,-1.5529133296886333,9.515019074523586,65,20,0.0,15,42993365912723,5,47.9,79.73313903808594,0.025300001725554466,0,0.0,0.0,,,,,0,,1,,
Raw,255489826,33642680000000,,,-1221705350752559104,0.0,14.518480384140275,-1.5529133296886333,9.515019074523586,65,21,0.0,15,42993356615257,4,42.1,468.0130310058594,0.04280000180006027,0,0.0,0.0,,,,,0,,1,,
Raw,255489826,33642680000000,,,-1221705350752559104,0.0,14.518480384140275,-1.5529133296886333,9.515019074523586,65,24,0.0,15,42993354487835,5,40.9,613.12939453125,0.040400002151727676,0,0.0,0.0,,,,,0,,1,,
Raw,255489827,33642680000000,,,-1221705350752559104,0.0,14.518480384140275,-1.5529133296886333,9.515019074523586,65,25,0.0,15,42993359758727,4,44.6,-410.06231689453125,0.01680000126361847,0,0.0,0.0,,,,,0,,1,,
Raw,255489827,33642680000000,,,-1221705350752559104,0.0,14.518480384140275,-1.5529133296886333,9.515019074523586,65,31,0.0,15,42993356179749,4,42.1,-535.23974609375,0.04280000180006027,0,0.0,0.0,,,,,0,,1,,
Raw,255489827,33642680000000,,,-1221705350752559104,0.0,14.518480384140275,-1.5529133296886333,9.515019074523586,65,32,0.0,15,42993357555182,4,43.5,-232.3910369873047,0.04410000145435333,0,0.0,0.0,,,,,0,,1,,
Raw,255490817,33643680000000,,,-1221705350752559104,0.0,14.518460375256836,-0.9037912846471006,9.514999987832958,65,10,0.0,15,42994363831172,5,46.2,-324.716796875,0.02250000089406967,0,0.0,0.0,,,,,0,,1,,
Raw,255490817,33643680000000,,,-1221705350752559104,0.0,14.518460375256836,-0.9037912846471006,9.514999987832958,65,12,0.0,15,42994358611021,4,44.2,4.472901344299316,0.04530000314116478,0,0.0,0.0,,,,,0,,1,,
Raw,255490818,33643680000000,,,-1221705350752559104,0.0,14.518460375256836,-0.9037912846471006,9.514999987832958,65,14,0.0,15,42994353319926,4,42.2,-265.8840637207031,0.03830000013113022,0,0.0,0.0,,,,,0,,1,,
Raw,255490819,33643680000000,,,-1221705350752559104,0.0,14.518460375256836,-0.9037912846471006,9.514999987832958,65,15,0.0,15,42994350853158,5,40.3,367.7203369140625,0.03440000116825104,0,0.0,0.0,,,,,0,,1,,
Raw,255490819,33643680000000,,,-1221705350752559104,0.0,14.518460375256836,-0.9037912846471006,9.514999987832958,65,20,0.0,15,42994365912452,4,49.1,79.32217407226562,0.025300001725554466,0,0.0,0.0,,,,,0,,1,,
Raw,255490820,33643680000000,,,-1221705350752559104,0.0,14.518460375256836,-0.9037912846471006,9.514999987832958,65,21,0.0,15,42994356613694,4,43.1,467.5133056640625,0.04260000213980675,0,0.0,0.0,,,,,0,,1,,
Raw,255490820,33643680000000,,,-1221705350752559104,0.0,14.518460375256836,-0.9037912846471006,9.514999987832958,65,24,0.0,15,42994354485786,5,41.6,612.6100463867188,0.04010000079870224,0,0.0,0.0,,,,,0,,1,,
Raw,255490821,33643680000000,,,-1221705350752559104,0.0,14.518460375256836,-0.9037912846471006,9.514999987832958,65,25,0.0,15,42994359760091,4,45.4,-410.4956359863281,0.016600001603364944,0,0.0,0.0,,,,,0,,1,,
Raw,255490822,33643680000000,,,-1221705350752559104,0.0,14.518460375256836,-0.9037912846471006,9.514999987832958,65,31,0.0,15,42994356181530,4,42.9,-535.6961669921875,0.04280000180006027,0,0.0,0.0,,,,,0,,1,,
Raw,255490823,33643680000000,,,-1221705350752559104,0.0,14.518460375256836,-0.9037912846471006,9.514999987832958,65,32,0.0,15,42994357555954,4,44.6,-232.90806579589844,0.043800003826618195,0,0.0,0.0,,,,,0,,1,,
Raw,255491817,33644680000000,,,-1221705350752559104,0.0,14.518442185362801,-2.658213543558438,9.51498090114233,65,10,0.0,15,42995363832246,5,46.1,-324.4021301269531,0.02250000089406967,0,0.0,0.0,,,,,0,,1,,
Raw,255491817,33644680000000,,,-1221705350752559104,0.0,14.518442185362801,-2.658213543558438,9.51498090114233,65,12,0.0,15,42995358611010,4,44.1,4.817160129547119,0.04530000314116478,0,0.0,0.0,,,,,0,,1,,
Raw,255491817,33644680000000,,,-1221705350752559104,0.0,14.518442185362801,-2.658213543558438,9.51498090114233,65,14,0.0,15,42995353320815,4,42.4,-265.65850830078125,0.03830000013113022,0,0.0,0.0,,,,,0,,1,,
Raw,255491818,33644680000000,,,-1221705350752559104,0.0,14.518442185362801,-2.658213543558438,9.51498090114233,65,15,0.0,15,42995350851931,5,40.3,367.95672607421875,0.03440000116825104,0,0.0,0.0,,,,,0,,1,,
Raw,255491818,33644680000000,,,-1221705350752559104,0.0,14.518442185362801,-2.658213543558438,9.51498090114233,65,20,0.0,15,42995365912184,4,49.4,79.66857147216797,0.025300001725554466,0,0.0,0.0,,,,,0,,1,,
Raw,255491818,33644680000000,,,-1221705350752559104,0.0,14.518442185362801,-2.658213543558438,9.51498090114233,65,21,0.0,15,42995356612124,4,43.1,467.7680358886719,0.04260000213980675,0,0.0,0.0,,,,,0,,1,,
Raw,255491819,33644680000000,,,-1221705350752559104,0.0,14.518442185362801,-2.658213543558438,9.51498090114233,65,24,0.0,15,42995354483747,5,41.5,612.8531494140625,0.04010000079870224,0,0.0,0.0,,,,,0,,1,,
Raw,255491819,33644680000000,,,-1221705350752559104,0.0,14.518442185362801,-2.658213543558438,9.51498090114233,65,25,0.0,15,42995359761457,4,45.9,-410.176513671875,0.016600001603364944,0,0.0,0.0,,,,,0,,1,,
Raw,255491819,33644680000000,,,-1221705350752559104,0.0,14.518442185362801,-2.658213543558438,9.51498090114233,65,31,0.0,15,42995356183310,4,43.2,-535.4003295898438,0.04260000213980675,0,0.0,0.0,,,,,0,,1,,
Raw,255491820,33644680000000,,,-1221705350752559104,0.0,14.518442185362801,-2.658213543558438,9.51498090114233,65,32,0.0,15,42995357556728,4,44.9,-232.6782684326172,0.043800003826618195,0,0.0,0.0,,,,,0,,1,,
Raw,255492815,33645680000000,,,-1221705350752559104,0.0,14.518422176479362,-1.9109200993705353,9.514961019172926,65,10,0.0,15,42996363833327,5,46.3,-324.0675048828125,0.02250000089406967,0,0.0,0.0,,,,,0,,1,,
Raw,255492816,33645680000000,,,-1221705350752559104,0.0,14.518422176479362,-1.9109200993705353,9.514961019172926,65,12,0.0,15,42996358610988,4,44.3,5.196888446807861,0.04530000314116478,0,0.0,0.0,,,,,0,,1,,
Raw,255492817,33645680000000,,,-1221705350752559104,0.0,14.518422176479362,-1.9109200993705353,9.514961019172926,65,14,0.0,15,42996353321696,4,42.6,-265.3956604003906,0.03830000013113022,0,0.0,0.0,,,,,0,,1,,
Raw,255492817,33645680000000,,,-1221705350752559104,0.0,14.518422176479362,-1.9109200993705353,9.514961019172926,65,15,0.0,15,42996350850696,5,40.4,368.2171325683594,0.03440000116825104,0,0.0,0.0,,,,,0,,1,,
Raw,255492818,33645680000000,,,-1221705350752559104,0.0,14.518422176479362,-1.9109200993705353,9.514961019172926,65,20,0.0,15,42996365911916,4,49.3,80.03239440917969,0.025300001725554466,0,0.0,0.0,,,,,0,,1,,
Raw,255492818,33645680000000,,,-1221705350752559104,0.0,14.518422176479362,-1.9109200993705353,9.514961019172926,65,21,0.0,15,42996356610566,4,43.2,468.0571594238281,0.04260000213980675,0,0.0,0.0,,,,,0,,1,,
Raw,255492820,33645680000000,,,-1221705350752559104,0.0,14.518422176479362,-1.9109200993705353,9.514961019172926,65,24,0.0,15,42996354481698,5,41.2,613.1215209960938,0.04010000079870224,0,0.0,0.0,,,,,0,,1,,
Raw,255492821,33645680000000,,,-1221705350752559104,0.0,14.518422176479362,-1.9109200993705353,9.514961019172926,65,25,0.0,15,42996359762821,4,45.9,-409.84014892578125,0.016600001603364944,0,0.0,0.0,,,,,0,,1,,
Raw,255492822,33645680000000,,,-1221705350752559104,0.0,14.518422176479362,-1.9109200993705353,9.514961019172926,65,31,0.0,15,42996356185093,4,43.6,-535.0748291015625,0.04260000213980675,0,0.0,0.0,,,,,0,,1,,
Raw,255492822,33645680000000,,,-1221705350752559104,0.0,14.518422176479362,-1.9109200993705353,9.514961019172926,65,32,0.0,15,42996357557497,4,45.3,-232.4138641357422,0.04360000044107437,0,0.0,0.0,,,,,0,,1,,
Raw,255493823,33646680000000,,,-1221705350752559104,0.0,14.518402167595923,-1.0338434217329617,9.514941932482298,65,10,0.0,15,42997363834405,5,46.1,-324.36181640625,0.02250000089406967,0,0.0,0.0,,,,,0,,1,,
Raw,255493824,33646680000000,,,-1221705350752559104,0.0,14.518402167595923,-1.0338434217329617,9.514941932482298,65,12,0.0,15,42997358610965,4,43.5,4.95295524597168,0.04560000076889992,0,0.0,0.0,,,,,0,,1,,
Raw,255493824,33646680000000,,,-1221705350752559104,0.0,14.518402167595923,-1.0338434217329617,9.514941932482298,65,14,0.0,15,42997353322578,5,41.3,-265.7665710449219,0.038600001484155655,0,0.0,0.0,,,,,0,,1,,
Raw,255493825,33646680000000,,,-1221705350752559104,0.0,14.518402167595923,-1.0338434217329617,9.514941932482298,65,15,0.0,15,42997350849461,6,39.5,367.857421875,0.03460000082850456,0,0.0,0.0,,,,,0,,1,,
Raw,255493825,33646680000000,,,-1221705350752559104,0.0,14.518402167595923,-1.0338434217329617,9.514941932482298,65,20,0.0,15,42997365911641,5,48.5,79.76911926269531,0.025300001725554466,0,0.0,0.0,,,,,0,,1,,
Raw,255493827,33646680000000,,,-1221705350752559104,0.0,14.518402167595923,-1.0338434217329617,9.514941932482298,65,21,0.0,15,42997356608997,4,42.5,467.7246398925781,0.04280000180006027,0,0.0,0.0,,,,,0,,1,,
Raw,255493828,33646680000000,,,-1221705350752559104,0.0,14.518402167595923,-1.0338434217329617,9.514941932482298,65,24,0.0,15,42997354479651,5,40.7,612.7623291015625,0.040400002151727676,0,0.0,0.0,,,,,0,,1,,
Raw,255493828,33646680000000,,,-1221705350752559104,0.0,14.518402167595923,-1.0338434217329617,9.514941932482298,65,25,0.0,15,42997359764182,4,44.9,-410.13690185546875,0.01680000126361847,0,0.0,0.0,,,,,0,,1,,
Raw,255493829,33646680000000,,,-1221705350752559104,0.0,14.518402167595923,-1.0338434217329617,9.514941932482298,65,31,0.0,15,42997356186878,4,42.8,-535.3697509765625,0.04280000180006027,0,0.0,0.0,,,,,0,,1,,
Raw,255493829,33646680000000,,,-1221705350752559104,0.0,14.518402167595923,-1.0338434217329617,9.514941932482298,65,32,0.0,15,42997357558273,4,43.9,-232.7834014892578,0.04410000145435333,0,0.0,0.0,,,,,0,,1,,
Raw,255494820,33647680000000,,,-1221705350752559104,0.0,14.518383977701887,-2.232322871051459,9.51492284579167,65,10,0.0,15,42998363835483,4,43.0,-324.5105895996094,0.023100001737475395,0,0.0,0.0,,,,,0,,1,,
Raw,255494821,33647680000000,,,-1221705350752559104,0.0,14.518383977701887,-2.232322871051459,9.51492284579167,65,12,0.0,15,42998358610952,6,39.7,4.8177947998046875,0.04660000279545784,0,0.0,0.0,,,,,0,,1,,
Raw,255494822,33647680000000,,,-1221705350752559104,0.0,14.518383977701887,-2.232322871051459,9.51492284579167,65,14,0.0,15,42998353323463,7,37.7,-266.0275573730469,0.04010000079870224,0,0.0,0.0,,,,,0,,1,,
Raw,255494822,33647680000000,,,-1221705350752559104,0.0,14.518383977701887,-2.232322871051459,9.51492284579167,65,15,0.0,15,42998350848233,9,35.9,367.6139831542969,0.03660000115633011,0,0.0,0.0,,,,,0,,1,,
Raw,255494823,33647680000000,,,-1221705350752559104,0.0,14.518383977701887,-2.232322871051459,9.51492284579167,65,20,0.0,15,42998365911377,4,45.4,79.6477279663086,0.025600001215934753,0,0.0,0.0,,,,,0,,1,,
Raw,255494823,33647680000000,,,-1221705350752559104,0.0,14.518383977701887,-2.232322871051459,9.51492284579167,65,21,0.0,15,42998356607443,6,38.8,467.50299072265625,0.04410000145435333,0,0.0,0.0,,,,,0,,1,,
Raw,255494823,33647680000000,,,-1221705350752559104,0.0,14.518383977701887,-2.232322871051459,9.51492284579167,65,24,0.0,15,42998354477602,7,37.6,612.5111694335938,0.041600000113248825,0,0.0,0.0,,,,,0,,1,,
Raw,255494824,33647680000000,,,-1221705350752559104,0.0,14.518383977701887,-2.232322871051459,9.51492284579167,65,25,0.0,15,42998359765545,5,41.2,-410.2752380371094,0.01759999990463257,0,0.0,0.0,,,,,0,,1,,
Raw,255494824,33647680000000,,,-1221705350752559104,0.0,14.518383977701887,-2.232322871051459,9.51492284579167,65,31,0.0,15,42998356188667,6,38.7,-535.5513916015625,0.04410000145435333,0,0.0,0.0,,,,,0,,1,,
Raw,255494825,33647680000000,,,-1221705350752559104,0.0,14.518383977701887,-2.232322871051459,9.51492284579167,65,32,0.0,15,42998357559047,5,40.3,-233.03466796875,0.04490000009536743,0,0.0,0.0,,,,,0,,1,,
Raw,255495820,33648680000000,,,-1221705350752559104,0.0,14.518363968818448,-3.1314909019431747,9.514902963822266,65,10,0.0,15,42999363836558,6,39.0,-323.39251708984375,0.02410000190138817,0,0.0,0.0,,,,,0,,1,,
Raw,255495821,33648680000000,,,-1221705350752559104,0.0,14.518363968818448,-3.1314909019431747,9.514902963822266,65,12,0.0,15,42999358610934,9,35.2,5.9941864013671875,0.048600003123283386,0,0.0,0.0,,,,,0,,1,,
Raw,255495821,33648680000000,,,-1221705350752559104,0.0,14.518363968818448,-3.1314909019431747,9.514902963822266,65,14,0.0,15,42999353324342,11,33.3,-264.98052978515625,0.04240000247955322,0,0.0,0.0,,,,,0,,1,,
Raw,255495822,33648680000000,,,-1221705350752559104,0.0,14.518363968818448,-3.1314909019431747,9.514902963822266,65,15,0.0,15,42999350846994,13,31.6,368.6612243652344,0.04020000249147415,0,0.0,0.0,,,,,0,,1,,
Raw,255495822,33648680000000,,,-1221705350752559104,0.0,14.518363968818448,-3.1314909019431747,9.514902963822266,65,20,0.0,15,42999365911109,5,40.8,80.79621124267578,0.026900000870227814,0,0.0,0.0,,,,,0,,1,,
Raw,255495822,33648680000000,,,-1221705350752559104,0.0,14.518363968818448,-3.1314909019431747,9.514902963822266,65,21,0.0,15,42999356605865,10,34.5,468.5755310058594,0.04610000178217888,0,0.0,0.0,,,,,0,,1,,
Raw,255495823,33648680000000,,,-1221705350752559104,0.0,14.518363968818448,-3.1314909019431747,9.514902963822266,65,24,0.0,15,42999354475548,11,33.9,613.5733032226562,0.04390000179409981,0,0.0,0.0,,,,,0,,1,,
Raw,255495823,33648680000000,,,-1221705350752559104,0.0,14.518363968818448,-3.1314909019431747,9.514902963822266,65,25,0.0,15,42999359766911,7,37.2,-409.1545715332031,0.019100001081824303,0,0.0,0.0,,,,,0,,1,,
Raw,255495823,33648680000000,,,-1221705350752559104,0.0,14.518363968818448,-3.1314909019431747,9.514902963822266,65,31,0.0,15,42999356190437,10,34.3,-534.43408203125,0.04610000178217888,0,0.0,0.0,,,,,0,,1,,
Raw,255495824,33648680000000,,,-1221705350752559104,0.0,14.518363968818448,-3.1314909019431747,9.514902963822266,65,32,0.0,15,42999357559804,9,35.7,-231.99095153808594,0.0471000038087368,0,0.0,0.0,,,,,0,,1,,
Raw,255496814,33649680000000,,,-1221705350752559104,0.0,14.518345778924413,0.37942064482859916,9.514884672410414,65,10,0.0,15,43000363837642,5,41.9,-323.6815185546875,0.023600000888109207,0,0.0,0.0,,,,,0,,1,,
Raw,255496815,33649680000000,,,-1221705350752559104,0.0,14.518345778924413,0.37942064482859916,9.514884672410414,65,12,0.0,15,43000358610907,6,38.4,5.745866298675537,0.0471000038087368,0,0.0,0.0,,,,,0,,1,,
Raw,255496816,33649680000000,,,-1221705350752559104,0.0,14.518345778924413,0.37942064482859916,9.514884672410414,65,14,0.0,15,43000353325221,8,36.5,-265.349365234375,0.04070000350475311,0,0.0,0.0,,,,,0,,1,,
Raw,255496816,33649680000000,,,-1221705350752559104,0.0,14.518345778924413,0.37942064482859916,9.514884672410414,65,15,0.0,15,43000350845771,9,35.0,368.3006591796875,0.03660000115633011,0,0.0,0.0,,,,,0,,1,,
Raw,255496818,33649680000000,,,-1221705350752559104,0.0,14.518345778924413,0.37942064482859916,9.514884672410414,65,20,0.0,15,43000365910835,4,44.0,80.53599548339844,0.025800000876188278,0,0.0,0.0,,,,,0,,1,,
Raw,255496818,33649680000000,,,-1221705350752559104,0.0,14.518345778924413,0.37942064482859916,9.514884672410414,65,21,0.0,15,43000356604318,7,37.2,468.2474060058594,0.044600002467632294,0,0.0,0.0,,,,,0,,1,,
Raw,255496819,33649680000000,,,-1221705350752559104,0.0,14.518345778924413,0.37942064482859916,9.514884672410414,65,24,0.0,15,43000354473519,8,36.3,613.2178955078125,0.0422000028192997,0,0.0,0.0,,,,,0,,1,,
Raw,255496819,33649680000000,,,-1221705350752559104,0.0,14.518345778924413,0.37942064482859916,9.514884672410414,65,25,0.0,15,43000359768275,5,40.3,-409.45428466796875,0.017900001257658005,0,0.0,0.0,,,,,0,,1,,
Raw,255496820,33649680000000,,,-1221705350752559104,0.0,14.518345778924413,0.37942064482859916,9.514884672410414,65,31,0.0,15,43000356192226,7,37.5,-534.7291870117188,0.044600002467632294,0,0.0,0.0,,,,,0,,1,,
Raw,255496820,33649680000000,,,-1221705350752559104,0.0,14.518345778924413,0.37942064482859916,9.514884672410414,65,32,0.0,15,43000357560586,6,39.2,-232.33944702148438,0.045100003480911255,0,0.0,0.0,,,,,0,,1,,
Raw,255497816,33650680000000,,,-1221705350752559104,0.0,14.518325770040974,-0.8142337487450613,9.51486479044101,65,10,0.0,15,43001363838719,5,41.9,-324.1899108886719,0.023600000888109207,0,0.0,0.0,,,,,0,,1,,
Raw,255497816,33650680000000,,,-1221705350752559104,0.0,14.518325770040974,-0.8142337487450613,9.51486479044101,65,12,0.0,15,43001358610892,6,38.0,5.275161266326904,0.0471000038087368,0,0.0,0.0,,,,,0,,1,,
Raw,255497817,33650680000000,,,-1221705350752559104,0.0,14.518325770040974,-0.8142337487450613,9.51486479044101,65,14,0.0,15,43001353326126,9,35.9,-265.9477233886719,0.04110000282526016,0,0.0,0.0,,,,,0,,1,,
Raw,255497817,33650680000000,,,-1221705350752559104,0.0,14.518325770040974,-0.8142337487450613,9.51486479044101,65,15,0.0,15,43001350844544,10,34.3,367.7317199707031,0.03710000216960907,0,0.0,0.0,,,,,0,,1,,
Raw,255497819,33650680000000,,,-1221705350752559104,0.0,14.518325770040974,-0.8142337487450613,9.51486479044101,65,20,0.0,15,43001365910567,4,43.4,80.05691528320312,0.026100000366568565,0,0.0,0.0,,,,,0,,1,,
Raw,255497819,33650680000000,,,-1221705350752559104,0.0,14.518325770040974,-0.8142337487450613,9.51486479044101,65,21,0.0,15,43001356602750,8,36.7,467.68524169921875,0.04520000144839287,0,0.0,0.0,,,,,0,,1,,
Raw,255497820,33650680000000,,,-1221705350752559104,0.0,14.518325770040974,-0.8142337487450613,9.51486479044101,65,24,0.0,15,43001354471458,9,35.8,612.6309814453125,0.04260000213980675,0,0.0,0.0,,,,,0,,1,,
Raw,255497820,33650680000000,,,-1221705350752559104,0.0,14.518325770040974,-0.8142337487450613,9.51486479044101,65,25,0.0,15,43001359769644,6,39.4,-409.95867919921875,0.01810000091791153,0,0.0,0.0,,,,,0,,1,,
Raw,255497821,33650680000000,,,-1221705350752559104,0.0,14.518325770040974,-0.8142337487450613,9.51486479044101,65,31,0.0,15,43001356194010,8,36.7,-535.2515258789062,0.04520000144839287,0,0.0,0.0,,,,,0,,1,,
Raw,255497821,33650680000000,,,-1221705350752559104,0.0,14.518325770040974,-0.8142337487450613,9.51486479044101,65,32,0.0,15,43001357561373,6,38.4,-232.91864013671875,0.04560000076889992,0,0.0,0.0,,,,,0,,1,,
Raw,255498815,33651680000000,,,-1221705350752559104,0.0,14.518306670652237,-2.773412855400959,9.514845703750382,65,10,0.0,15,43002363839799,6,39.0,-323.95703125,0.02410000190138817,0,0.0,0.0,,,,,0,,1,,
Raw,255498816,33651680000000,,,-1221705350752559104,0.0,14.518306670652237,-2.773412855400959,9.514845703750382,65,12,0.0,15,43002358610865,10,34.7,5.533717155456543,0.04910000041127205,0,0.0,0.0,,,,,0,,1,,
Raw,255498817,33651680000000,,,-1221705350752559104,0.0,14.518306670652237,-2.773412855400959,9.514845703750382,65,14,0.0,15,43002353326995,11,33.0,-265.7962951660156,0.04240000247955322,0,0.0,0.0,,,,,0,,1,,
Raw,255498817,33651680000000,,,-1221705350752559104,0.0,14.518306670652237,-2.773412855400959,9.514845703750382,65,15,0.0,15,43002350843322,14,30.9,367.87408447265625,0.040800001472234726,0,0.0,0.0,,,,,0,,1,,
Raw,255498818,33651680000000,,,-1221705350752559104,0.0,14.518306670652237,-2.773412855400959,9.514845703750382,65,20,0.0,15,43002365910302,5,40.4,80.32466125488281,0.026900000870227814,0,0.0,0.0,,,,,0,,1,,
Raw,255498818,33651680000000,,,-1221705350752559104,0.0,14.518306670652237,-2.773412855400959,9.514845703750382,65,21,0.0,15,43002356601188,11,33.8,467.84539794921875,0.04690000042319298,0,0.0,0.0,,,,,0,,1,,
Raw,255498819,33651680000000,,,-1221705350752559104,0.0,14.518306670652237,-2.773412855400959,9.514845703750382,65,24,0.0,15,43002354469433,12,32.9,612.7764892578125,0.04490000009536743,0,0.0,0.0,,,,,0,,1,,
Raw,255498819,33651680000000,,,-1221705350752559104,0.0,14.518306670652237,-2.773412855400959,9.514845703750382,65,25,0.0,15,43002359771006,8,36.4,-409.7147216796875,0.019700000062584877,0,0.0,0.0,,,,,0,,1,,
Raw,255498820,33651680000000,,,-1221705350752559104,0.0,14.518306670652237,-2.773412855400959,9.514845703750382,65,31,0.0,15,43002356195796,11,33.5,-535.0467529296875,0.04690000042319298,0,0.0,0.0,,,,,0,,1,,
Raw,255498820,33651680000000,,,-1221705350752559104,0.0,14.518306670652237,-2.773412855400959,9.514845703750382,65,32,0.0,15,43002357562139,9,35.8,-232.78945922851562,0.0471000038087368,0,0.0,0.0,,,,,0,,1,,
Raw,255499813,33652680000000,,,-1221705350752559104,0.0,14.5182875712635,-2.3505738663778164,9.514826617059754,65,10,0.0,15,43003363840853,6,38.2,-323.4454345703125,0.02460000105202198,0,0.0,0.0,,,,,0,,1,,
Raw,255499813,33652680000000,,,-1221705350752559104,0.0,14.5182875712635,-2.3505738663778164,9.514826617059754,65,12,0.0,15,43003358610822,10,34.5,6.094761848449707,0.04910000041127205,0,0.0,0.0,,,,,0,,1,,
Raw,255499814,33652680000000,,,-1221705350752559104,0.0,14.5182875712635,-2.3505738663778164,9.514826617059754,65,14,0.0,15,43003353327847,12,32.7,-265.35491943359375,0.04340000078082085,0,0.0,0.0,,,,,0,,1,,
Raw,255499814,33652680000000,,,-1221705350752559104,0.0,14.5182875712635,-2.3505738663778164,9.514826617059754,65,15,0.0,15,43003350842068,13,31.2,368.30633544921875,0.04020000249147415,0,0.0,0.0,,,,,0,,1,,
Raw,255499815,33652680000000,,,-1221705350752559104,0.0,14.5182875712635,-2.3505738663778164,9.514826617059754,65,20,0.0,15,43003365909995,6,39.7,80.86378479003906,0.02710000053048134,0,0.0,0.0,,,,,0,,1,,
Raw,255499816,33652680000000,,,-1221705350752559104,0.0,14.5182875712635,-2.3505738663778164,9.514826617059754,65,21,0.0,15,43003356599590,11,33.3,468.3096923828125,0.04690000042319298,0,0.0,0.0,,,,,0,,1,,
Raw,255499816,33652680000000,,,-1221705350752559104,0.0,14.5182875712635,-2.3505738663778164,9.514826617059754,65,24,0.0,15,43003354467352,12,32.8,613.224853515625,0.04490000009536743,0,0.0,0.0,,,,,0,,1,,
Raw,255499816,33652680000000,,,-1221705350752559104,0.0,14.5182875712635,-2.3505738663778164,9.514826617059754,65,25,0.0,15,43003359772342,8,36.0,-409.1995544433594,0.019700000062584877,0,0.0,0.0,,,,,0,,1,,
Raw,255499817,33652680000000,,,-1221705350752559104,0.0,14.5182875712635,-2.3505738663778164,9.514826617059754,65,31,0.0,15,43003356197529,11,33.4,-534.5380249023438,0.04690000042319298,0,0.0,0.0,,,,,0,,1,,
Raw,255499817,33652680000000,,,-1221705350752559104,0.0,14.5182875712635,-2.3505738663778164,9.514826617059754,65,32,0.0,15,43003357562889,9,35.1,-232.34959411621094,0.0471000038087368,0,0.0,0.0,,,,,0,,1,,
Raw,255500815,33653680000000,,,-1221705350752559104,0.0,16.135949408635497,-0.879473051409851,9.514808325647902,65,10,0.0,15,43004363841914,7,37.5,-323.3321838378906,0.025100000202655792,0,0.0,0.0,,,,,0,,1,,
Raw,255500816,33653680000000,,,-1221705350752559104,0.0,16.135949408635497,-0.879473051409851,9.514808325647902,65,12,0.0,15,43004358610787,10,34.0,6.23483419418335,0.04910000041127205,0,0.0,0.0,,,,,0,,1,,
Raw,255500817,33653680000000,,,-1221705350752559104,0.0,16.135949408635497,-0.879473051409851,9.514808325647902,65,14,0.0,15,43004353328734,12,32.0,-265.3187561035156,0.04340000078082085,0,0.0,0.0,,,,,0,,1,,
Raw,255500818,33653680000000,,,-1221705350752559104,0.0,16.135949408635497,-0.879473051409851,9.514808325647902,65,15,0.0,15,43004350840834,14,30.3,368.348876953125,0.040800001472234726,0,0.0,0.0,,,,,0,,1,,
Raw,255500818,33653680000000,,,-1221705350752559104,0.0,16.135949408635497,-0.879473051409851,9.514808325647902,65,20,0.0,15,43004365909719,6,39.6,80.99836730957031,0.02710000053048134,0,0.0,0.0,,,,,0,,1,,
Raw,255500819,33653680000000,,,-1221705350752559104,0.0,16.135949408635497,-0.879473051409851,9.514808325647902,65,21,0.0,15,43004356598016,12,32.9,468.3815612792969,0.0479000024497509,0,0.0,0.0,,,,,0,,1,,
Raw,255500819,33653680000000,,,-1221705350752559104,0.0,16.135949408635497,-0.879473051409851,9.514808325647902,65,24,0.0,15,43004354465279,13,31.7,613.2656860351562,0.04620000347495079,0,0.0,0.0,,,,,0,,1,,
Raw,255500820,33653680000000,,,-1221705350752559104,0.0,16.135949408635497,-0.879473051409851,9.514808325647902,65,25,0.0,15,43004359773703,9,35.5,-409.0987854003906,0.020100001245737076,0,0.0,0.0,,,,,0,,1,,
Raw,255500820,33653680000000,,,-1221705350752559104,0.0,16.135949408635497,-0.879473051409851,9.514808325647902,65,31,0.0,15,43004356199325,11,33.3,-534.4495849609375,0.04690000042319298,0,0.0,0.0,,,,,0,,1,,
Raw,255500821,33653680000000,,,-1221705350752559104,0.0,16.135949408635497,-0.879473051409851,9.514808325647902,65,32,0.0,15,43004357563650,10,34.7,-232.32496643066406,0.047600001096725464,0,0.0,0.0,,,,,0,,1,,
Raw,255501817,33654680000000,,,-1221705350752559104,0.0,16.528010746696964,-0.7544139230053675,9.514788443678498,65,10,0.0,15,43005363843006,6,39.1,-323.2497253417969,0.02410000190138817,0,0.0,0.0,,,,,0,,1,,
Raw,255501818,33654680000000,,,-1221705350752559104,0.0,16.528010746696964,-0.7544139230053675,9.514788443678498,65,12,0.0,15,43005358610781,9,35.2,6.367994785308838,0.048600003123283386,0,0.0,0.0,,,,,0,,1,,
Raw,255501818,33654680000000,,,-1221705350752559104,0.0,16.528010746696964,-0.7544139230053675,9.514788443678498,65,14,0.0,15,43005353329620,11,33.1,-265.3320007324219,0.04240000247955322,0,0.0,0.0,,,,,0,,1,,
Raw,255501819,33654680000000,,,-1221705350752559104,0.0,16.528010746696964,-0.7544139230053675,9.514788443678498,65,15,0.0,15,43005350839621,13,31.4,368.3623046875,0.04020000249147415,0,0.0,0.0,,,,,0,,1,,
Raw,255501820,33654680000000,,,-1221705350752559104,0.0,16.528010746696964,-0.7544139230053675,9.514788443678498,65,20,0.0,15,43005365909463,5,40.9,81.11317443847656,0.026900000870227814,0,0.0,0.0,,,,,0,,1,,
Raw,255501821,33654680000000,,,-1221705350752559104,0.0,16.528010746696964,-0.7544139230053675,9.514788443678498,65,21,0.0,15,43005356596489,10,34.1,468.4070739746094,0.04610000178217888,0,0.0,0.0,,,,,0,,1,,
Raw,255501821,33654680000000,,,-1221705350752559104,0.0,16.528010746696964,-0.7544139230053675,9.514788443678498,65,24,0.0,15,43005354463246,12,32.7,613.2672729492188,0.04490000009536743,0,0.0,0.0,,,,,0,,1,,
Raw,255501822,33654680000000,,,-1221705350752559104,0.0,16.528010746696964,-0.7544139230053675,9.514788443678498,65,25,0.0,15,43005359775079,8,36.7,-409.0162658691406,0.019700000062584877,0,0.0,0.0,,,,,0,,1,,
Raw,255501822,33654680000000,,,-1221705350752559104,0.0,16.528010746696964,-0.7544139230053675,9.514788443678498,65,31,0.0,15,43005356201115,10,34.0,-534.36669921875,0.04610000178217888,0,0.0,0.0,,,,,0,,1,,
Raw,255501823,33654680000000,,,-1221705350752559104,0.0,16.528010746696964,-0.7544139230053675,9.514788443678498,65,32,0.0,15,43005357564439,9,35.4,-232.31837463378906,0.0471000038087368,0,0.0,0.0,,,,,0,,1,,
Raw,255502819,33655680000000,,,-1221705350752559104,0.0,15.780209650984034,-0.7538379423517304,9.514768561709094,65,10,0.0,15,43006363844084,7,37.3,-323.13116455078125,0.025100000202655792,0,0.0,0.0,,,,,0,,1,,
Raw,255502819,33655680000000,,,-1221705350752559104,0.0,15.780209650984034,-0.7538379423517304,9.514768561709094,65,12,0.0,15,43006358610745,11,33.1,6.479243278503418,0.04990000277757645,0,0.0,0.0,,,,,0,,1,,
Raw,255502820,33655680000000,,,-1221705350752559104,0.0,15.780209650984034,-0.7538379423517304,9.514768561709094,65,14,0.0,15,43006353330505,13,31.1,-265.3157043457031,0.04470000043511391,0,0.0,0.0,,,,,0,,1,,
Raw,255502820,33655680000000,,,-1221705350752559104,0.0,15.780209650984034,-0.7538379423517304,9.514768561709094,65,15,0.0,15,43006350838365,16,29.4,368.3848876953125,0.04170000180602074,0,0.0,0.0,,,,,0,,1,,
Raw,255502820,33655680000000,,,-1221705350752559104,0.0,15.780209650984034,-0.7538379423517304,9.514768561709094,65,20,0.0,15,43006365909195,6,38.7,81.25651550292969,0.0276000015437603,0,0.0,0.0,,,,,0,,1,,
Raw,255502821,33655680000000,,,-1221705350752559104,0.0,15.780209650984034,-0.7538379423517304,9.514768561709094,65,21,0.0,15,43006356594906,12,32.4,468.368896484375,0.0479000024497509,0,0.0,0.0,,,,,0,,1,,
Raw,255502821,33655680000000,,,-1221705350752559104,0.0,15.780209650984034,-0.7538379423517304,9.514768561709094,65,24,0.0,15,43006354461213,13,31.5,613.2969970703125,0.04620000347495079,0,0.0,0.0,,,,,0,,1,,
Raw,255502822,33655680000000,,,-1221705350752559104,0.0,15.780209650984034,-0.7538379423517304,9.514768561709094,65,25,0.0,15,43006359776455,10,34.6,-408.8752746582031,0.020600000396370888,0,0.0,0.0,,,,,0,,1,,
Raw,255502822,33655680000000,,,-1221705350752559104,0.0,15.780209650984034,-0.7538379423517304,9.514768561709094,65,31,0.0,15,43006356202892,12,32.2,-534.3095092773438,0.0479000024497509,0,0.0,0.0,,,,,0,,1,,
Raw,255502822,33655680000000,,,-1221705350752559104,0.0,15.780209650984034,-0.7538379423517304,9.514768561709094,65,32,0.0,15,43006357565214,11,33.8,-232.30307006835938,0.04840000346302986,0,0.0,0.0,,,,,0,,1,,
Raw,255503816,33656680000000,,,-1221705350752559104,0.0,16.354819308617152,-0.8833341298681292,9.581478931290093,65,10,0.0,15,43007363845182,10,34.2,-323.3887939453125,0.026600001379847527,0,0.0,0.0,,,,,0,,1,,
Raw,255503817,33656680000000,,,-1221705350752559104,0.0,16.354819308617152,-0.8833341298681292,9.581478931290093,65,12,0.0,15,43007358610756,16,29.8,6.331747055053711,0.053700003772974014,0,0.0,0.0,,,,,0,,1,,
Raw,255503818,33656680000000,,,-1221705350752559104,0.0,16.354819308617152,-0.8833341298681292,9.581478931290093,65,14,0.0,15,43007353331394,17,28.0,-265.6059875488281,0.052799999713897705,0,0.0,0.0,,,,,0,,1,,
Raw,255503818,33656680000000,,,-1221705350752559104,0.0,16.354819308617152,-0.8833341298681292,9.581478931290093,65,15,0.0,15,43007350837188,21,26.4,368.0423278808594,0.12620000541210175,0,0.0,0.0,,,,,0,,1,,
Raw,255503819,33656680000000,,,-1221705350752559104,0.0,16.354819308617152,-0.8833341298681292,9.581478931290093,65,20,0.0,15,43007365908941,9,35.9,81.02631378173828,0.029100000858306885,0,0.0,0.0,,,,,0,,1,,
Raw,255503819,33656680000000,,,-1221705350752559104,0.0,16.354819308617152,-0.8833341298681292,9.581478931290093,65,21,0.0,15,43007356593337,16,29.5,468.12451171875,0.050700001418590546,0,0.0,0.0,,,,,0,,1,,
Raw,255503820,33656680000000,,,-1221705350752559104,0.0,16.354819308617152,-0.8833341298681292,9.581478931290093,65,24,0.0,15,43007354459173,17,28.6,612.9840087890625,0.05430000275373459,0,0.0,0.0,,,,,0,,1,,
Raw,255503820,33656680000000,,,-1221705350752559104,0.0,16.354819308617152,-0.8833341298681292,9.581478931290093,65,25,0.0,15,43007359777821,12,32.0,-409.1374206542969,0.02240000106394291,0,0.0,0.0,,,,,0,,1,,
Raw,255503821,33656680000000,,,-1221705350752559104,0.0,16.354819308617152,-0.8833341298681292,9.581478931290093,65,31,0.0,15,43007356204690,16,29.6,-534.6033325195312,0.050700001418590546,0,0.0,0.0,,,,,0,,1,,
Raw,255503821,33656680000000,,,-1221705350752559104,0.0,16.354819308617152,-0.8833341298681292,9.581478931290093,65,32,0.0,15,43007357565997,14,30.7,-232.57093811035156,0.05130000039935112,0,0.0,0.0,,,,,0,,1,,
Raw,255504813,33657680000000,,,-1221705350752559104,0.0,19.422097466303967,-1.4999719197889092,10.045961500508922,65,10,0.0,15,43008363846257,4,43.6,-323.5242004394531,0.023100001737475395,0,0.0,0.0,,,,,0,,1,,
Raw,255504814,33657680000000,,,-1221705350752559104,0.0,19.422097466303967,-1.4999719197889092,10.045961500508922,65,12,0.0,15,43008358610731,6,39.8,6.2029314041137695,0.04660000279545784,0,0.0,0.0,,,,,0,,1,,
Raw,255504815,33657680000000,,,-1221705350752559104,0.0,19.422097466303967,-1.4999719197889092,10.045961500508922,65,14,0.0,15,43008353332297,6,38.2,-265.8560791015625,0.03959999978542328,0,0.0,0.0,,,,,0,,1,,
Raw,255504815,33657680000000,,,-1221705350752559104,0.0,19.422097466303967,-1.4999719197889092,10.045961500508922,65,15,0.0,15,43008350835933,8,36.2,367.8550720214844,0.03620000183582306,0,0.0,0.0,,,,,0,,1,,
Raw,255504816,33657680000000,,,-1221705350752559104,0.0,19.422097466303967,-1.4999719197889092,10.045961500508922,65,20,0.0,15,43008365908657,4,45.5,80.92843627929688,0.025600001215934753,0,0.0,0.0,,,,,0,,1,,
Raw,255504817,33657680000000,,,-1221705350752559104,0.0,19.422097466303967,-1.4999719197889092,10.045961500508922,65,21,0.0,15,43008356591791,6,38.9,467.9725036621094,0.04410000145435333,0,0.0,0.0,,,,,0,,1,,
Raw,255504818,33657680000000,,,-1221705350752559104,0.0,19.422097466303967,-1.4999719197889092,10.045961500508922,65,24,0.0,15,43008354457133,7,37.8,612.7703247070312,0.041600000113248825,0,0.0,0.0,,,,,0,,1,,
Raw,255504818,33657680000000,,,-1221705350752559104,0.0,19.422097466303967,-1.4999719197889092,10.045961500508922,65,25,0.0,15,43008359779176,5,41.6,-409.26947021484375,0.01759999990463257,0,0.0,0.0,,,,,0,,1,,
Raw,255504819,33657680000000,,,-1221705350752559104,0.0,19.422097466303967,-1.4999719197889092,10.045961500508922,65,31,0.0,15,43008356206466,6,39.1,-534.68212890625,0.04360000044107437,0,0.0,0.0,,,,,0,,1,,
Raw,255504819,33657680000000,,,-1221705350752559104,0.0,19.422097466303967,-1.4999719197889092,10.045961500508922,65,32,0.0,15,43008357566772,5,40.4,-232.83433532714844,0.04490000009536743,0,0.0,0.0,,,,,0,,1,,
Raw,255505813,33658680000000,,,-1221705350752559104,0.0,15.66770333738532,-2.5068183111369584,9.514739136394375,65,10,0.0,15,43009363847333,5,46.7,-323.3161315917969,0.02250000089406967,0,0.0,0.0,,,,,0,,1,,
Raw,255505814,33658680000000,,,-1221705350752559104,0.0,15.66770333738532,-2.5068183111369584,9.514739136394375,65,12,0.0,15,43009358610708,4,42.9,6.45258092880249,0.04580000042915344,0,0.0,0.0,,,,,0,,1,,
Raw,255505815,33658680000000,,,-1221705350752559104,0.0,15.66770333738532,-2.5068183111369584,9.514739136394375,65,14,0.0,15,43009353333178,5,40.9,-265.7247009277344,0.03890000283718109,0,0.0,0.0,,,,,0,,1,,
Raw,255505816,33658680000000,,,-1221705350752559104,0.0,15.66770333738532,-2.5068183111369584,9.514739136394375,65,15,0.0,15,43009350834696,6,39.1,367.99017333984375,0.03460000082850456,0,0.0,0.0,,,,,0,,1,,
Raw,255505817,33658680000000,,,-1221705350752559104,0.0,15.66770333738532,-2.5068183111369584,9.514739136394375,65,20,0.0,15,43009365908387,5,47.6,81.16799926757812,0.025300001725554466,0,0.0,0.0,,,,,0,,1,,
Raw,255505817,33658680000000,,,-1221705350752559104,0.0,15.66770333738532,-2.5068183111369584,9.514739136394375,65,21,0.0,15,43009356590226,5,41.7,468.1339416503906,0.04310000315308571,0,0.0,0.0,,,,,0,,1,,
Raw,255505818,33658680000000,,,-1221705350752559104,0.0,15.66770333738532,-2.5068183111369584,9.514739136394375,65,24,0.0,15,43009354455081,5,40.3,612.9080200195312,0.040400002151727676,0,0.0,0.0,,,,,0,,1,,
Raw,255505818,33658680000000,,,-1221705350752559104,0.0,15.66770333738532,-2.5068183111369584,9.514739136394375,65,25,0.0,15,43009359780541,4,44.3,-409.0617370605469,0.01680000126361847,0,0.0,0.0,,,,,0,,1,,
Raw,255505819,33658680000000,,,-1221705350752559104,0.0,15.66770333738532,-2.5068183111369584,9.514739136394375,65,31,0.0,15,43009356208247,4,42.0,-534.4869995117188,0.04280000180006027,0,0.0,0.0,,,,,0,,1,,
Raw,255505819,33658680000000,,,-1221705350752559104,0.0,15.66770333738532,-2.5068183111369584,9.514739136394375,65,32,0.0,15,43009357567554,4,43.3,-232.69375610351562,0.04410000145435333,0,0.0,0.0,,,,,0,,1,,
Raw,255506813,33659680000000,,,-1221705350752559104,0.0,14.594988897442818,-2.067220412463703,9.51469062438903,65,10,0.0,15,43010363848404,5,46.5,-323.0477600097656,0.02250000089406967,0,0.0,0.0,,,,,0,,1,,
Raw,255506813,33659680000000,,,-1221705350752559104,0.0,14.594988897442818,-2.067220412463703,9.51469062438903,65,12,0.0,15,43010358610683,4,43.9,6.748854160308838,0.04560000076889992,0,0.0,0.0,,,,,0,,1,,
Raw,255506814,33659680000000,,,-1221705350752559104,0.0,14.594988897442818,-2.067220412463703,9.51469062438903,65,14,0.0,15,43010353334061,5,41.8,-265.54486083984375,0.038600001484155655,0,0.0,0.0,,,,,0,,1,,
Raw,255506814,33659680000000,,,-1221705350752559104,0.0,14.594988897442818,-2.067220412463703,9.51469062438903,65,15,0.0,15,43010350833461,6,39.7,368.1702575683594,0.03460000082850456,0,0.0,0.0,,,,,0,,1,,
Raw,255506815,33659680000000,,,-1221705350752559104,0.0,14.594988897442818,-2.067220412463703,9.51469062438903,65,20,0.0,15,43010365908110,5,48.5,81.4669189453125,0.025300001725554466,0,0.0,0.0,,,,,0,,1,,
