# 
# Header Description:
# 
# Version: v2.0.0.1 Platform: Gnss Module Manufacturer: Ublox NEO-M8N
# 
# Raw,ElapsedRealtimeMillis,TimeNanos,LeapSecond,TimeUncertaintyNanos,FullBiasNanos,BiasNanos,BiasUncertaintyNanos,DriftNanosPerSecond,DriftUncertaintyNanosPerSecond,HardwareClockDiscontinuityCount,Svid,TimeOffsetNanos,State,ReceivedSvTimeNanos,ReceivedSvTimeUncertaintyNanos,Cn0DbHz,PseudorangeRateMetersPerSecond,PseudorangeRateUncertaintyMetersPerSecond,AccumulatedDeltaRangeState,AccumulatedDeltaRangeMeters,AccumulatedDeltaRangeUncertaintyMeters,CarrierFrequencyHz,CarrierCycles,CarrierPhase,CarrierPhaseUncertainty,MultipathIndicator,SnrInDb,ConstellationType,AgcDb,CarrierFrequencyHz
# 
# Fix,Provider,Latitude,Longitude,Altitude,Speed,Accuracy,(UTC)TimeInMs
# 
# Nav,Svid,Type,Status,MessageId,Sub-messageId,Data(Bytes)
# 
Raw,3900,,,,,,,,,01,,,,,08,,,,,,,,,,,,,,
Raw,3900,,,,,,,,,10,,,,,27,,,,,,,,,,,,,,
Raw,3900,,,,,,,,,12,,,,,23,,,,,,,,,,,,,,
Raw,3900,,,,,,,,,20,,,,,23,,,,,,,,,,,,,,
Raw,3900,,,,,,,,,24,,,,,15,,,,,,,,,,,,,,
Raw,3900,,,,,,,,,25,,,,,27,,,,,,,,,,,,,,
Raw,3900,,,,,,,,,31,,,,,24,,,,,,,,,,,,,,
Raw,3900,,,,,,,,,32,,,,,29,,,,,,,,,,,,,,
Raw,4000,,,,,,,,,01,,,,,09,,,,,,,,,,,,,,
Raw,4000,,,,,,,,,10,,,,,27,,,,,,,,,,,,,,
Raw,4000,,,,,,,,,12,,,,,23,,,,,,,,,,,,,,
Raw,4000,,,,,,,,,20,,,,,23,,,,,,,,,,,,,,
Raw,4000,,,,,,,,,24,,,,,15,,,,,,,,,,,,,,
Raw,4000,,,,,,,,,25,,,,,27,,,,,,,,,,,,,,
Raw,4000,,,,,,,,,31,,,,,24,,,,,,,,,,,,,,
Raw,4000,,,,,,,,,32,,,,,29,,,,,,,,,,,,,,
Raw,4100,,,,,,,,,01,,,,,09,,,,,,,,,,,,,,
Raw,4100,,,,,,,,,10,,,,,27,,,,,,,,,,,,,,
Raw,4100,,,,,,,,,12,,,,,23,,,,,,,,,,,,,,
Raw,4100,,,,,,,,,15,,,,,16,,,,,,,,,,,,,,
Raw,4100,,,,,,,,,20,,,,,23,,,,,,,,,,,,,,
Raw,4100,,,,,,,,,24,,,,,15,,,,,,,,,,,,,,
Raw,4100,,,,,,,,,25,,,,,27,,,,,,,,,,,,,,
Raw,4100,,,,,,,,,31,,,,,24,,,,,,,,,,,,,,
Raw,4100,,,,,,,,,32,,,,,29,,,,,,,,,,,,,,
Raw,4200,,,,,,,,,01,,,,,09,,,,,,,,,,,,,,
Raw,4200,,,,,,,,,10,,,,,27,,,,,,,,,,,,,,
Raw,4200,,,,,,,,,12,,,,,23,,,,,,,,,,,,,,
Raw,4200,,,,,,,,,15,,,,,15,,,,,,,,,,,,,,
Raw,4200,,,,,,,,,20,,,,,23,,,,,,,,,,,,,,
Raw,4200,,,,,,,,,24,,,,,15,,,,,,,,,,,,,,
Raw,4200,,,,,,,,,25,,,,,27,,,,,,,,,,,,,,
Raw,4200,,,,,,,,,31,,,,,24,,,,,,,,,,,,,,
Raw,4200,,,,,,,,,32,,,,,29,,,,,,,,,,,,,,
Raw,4300,,,,,,,,,01,,,,,09,,,,,,,,,,,,,,
Raw,4300,,,,,,,,,10,,,,,27,,,,,,,,,,,,,,
Raw,4300,,,,,,,,,12,,,,,23,,,,,,,,,,,,,,
Raw,4300,,,,,,,,,15,,,,,15,,,,,,,,,,,,,,
Raw,4300,,,,,,,,,20,,,,,23,,,,,,,,,,,,,,
Raw,4300,,,,,,,,,24,,,,,15,,,,,,,,,,,,,,
Raw,4300,,,,,,,,,25,,,,,27,,,,,,,,,,,,,,
Raw,4300,,,,,,,,,31,,,,,24,,,,,,,,,,,,,,
Raw,4300,,,,,,,,,32,,,,,29,,,,,,,,,,,,,,
Raw,4400,,,,,,,,,01,,,,,09,,,,,,,,,,,,,,
Raw,4400,,,,,,,,,10,,,,,27,,,,,,,,,,,,,,
Raw,4400,,,,,,,,,12,,,,,23,,,,,,,,,,,,,,
Raw,4400,,,,,,,,,15,,,,,15,,,,,,,,,,,,,,
Raw,4400,,,,,,,,,20,,,,,23,,,,,,,,,,,,,,
Raw,4400,,,,,,,,,24,,,,,15,,,,,,,,,,,,,,
Raw,4400,,,,,,,,,25,,,,,27,,,,,,,,,,,,,,
Raw,4400,,,,,,,,,31,,,,,24,,,,,,,,,,,,,,
Raw,4400,,,,,,,,,32,,,,,29,,,,,,,,,,,,,,
Raw,4500,,,,,,,,,01,,,,,09,,,,,,,,,,,,,,
Raw,4500,,,,,,,,,10,,,,,27,,,,,,,,,,,,,,
Raw,4500,,,,,,,,,12,,,,,23,,,,,,,,,,,,,,
Raw,4500,,,,,,,,,15,,,,,15,,,,,,,,,,,,,,
Raw,4500,,,,,,,,,20,,,,,23,,,,,,,,,,,,,,
Raw,4500,,,,,,,,,24,,,,,15,,,,,,,,,,,,,,
Raw,4500,,,,,,,,,25,,,,,27,,,,,,,,,,,,,,
Raw,4500,,,,,,,,,31,,,,,24,,,,,,,,,,,,,,
Raw,4500,,,,,,,,,32,,,,,29,,,,,,,,,,,,,,
Raw,4600,,,,,,,,,01,,,,,09,,,,,,,,,,,,,,
Raw,4600,,,,,,,,,10,,,,,27,,,,,,,,,,,,,,
Raw,4600,,,,,,,,,12,,,,,23,,,,,,,,,,,,,,
Raw,4600,,,,,,,,,15,,,,,14,,,,,,,,,,,,,,
Raw,4600,,,,,,,,,20,,,,,23,,,,,,,,,,,,,,
Raw,4600,,,,,,,,,24,,,,,15,,,,,,,,,,,,,,
Raw,4600,,,,,,,,,25,,,,,27,,,,,,,,,,,,,,
Raw,4600,,,,,,,,,31,,,,,25,,,,,,,,,,,,,,
Raw,4600,,,,,,,,,32,,,,,29,,,,,,,,,,,,,,
Raw,4700,,,,,,,,,01,,,,,10,,,,,,,,,,,,,,
Raw,4700,,,,,,,,,10,,,,,27,,,,,,,,,,,,,,
Raw,4700,,,,,,,,,12,,,,,23,,,,,,,,,,,,,,
Raw,4700,,,,,,,,,15,,,,,15,,,,,,,,,,,,,,
Raw,4700,,,,,,,,,20,,,,,23,,,,,,,,,,,,,,
Raw,4700,,,,,,,,,24,,,,,15,,,,,,,,,,,,,,
Raw,4700,,,,,,,,,25,,,,,27,,,,,,,,,,,,,,
Raw,4700,,,,,,,,,31,,,,,25,,,,,,,,,,,,,,
Raw,4700,,,,,,,,,32,,,,,29,,,,,,,,,,,,,,
Raw,4800,,,,,,,,,01,,,,,10,,,,,,,,,,,,,,
Raw,4800,,,,,,,,,10,,,,,27,,,,,,,,,,,,,,
Raw,4800,,,,,,,,,12,,,,,23,,,,,,,,,,,,,,
Raw,4800,,,,,,,,,15,,,,,14,,,,,,,,,,,,,,
Raw,4800,,,,,,,,,20,,,,,23,,,,,,,,,,,,,,
Raw,4800,,,,,,,,,24,,,,,15,,,,,,,,,,,,,,
Raw,4800,,,,,,,,,25,,,,,27,,,,,,,,,,,,,,
Raw,4800,,,,,,,,,31,,,,,25,,,,,,,,,,,,,,
Raw,4800,,,,,,,,,32,,,,,29,,,,,,,,,,,,,,
Raw,4900,,,,,,,,,01,,,,,10,,,,,,,,,,,,,,
Raw,4900,,,,,,,,,10,,,,,27,,,,,,,,,,,,,,
Raw,4900,,,,,,,,,12,,,,,23,,,,,,,,,,,,,,
Raw,4900,,,,,,,,,15,,,,,14,,,,,,,,,,,,,,
Raw,4900,,,,,,,,,20,,,,,23,,,,,,,,,,,,,,
Raw,4900,,,,,,,,,24,,,,,15,,,,,,,,,,,,,,
Raw,4900,,,,,,,,,25,,,,,27,,,,,,,,,,,,,,
Raw,4900,,,,,,,,,31,,,,,24,,,,,,,,,,,,,,
Raw,4900,,,,,,,,,32,,,,,29,,,,,,,,,,,,,,
Raw,5000,,,,,,,,,01,,,,,10,,,,,,,,,,,,,,
Raw,5000,,,,,,,,,10,,,,,27,,,,,,,,,,,,,,
Raw,5000,,,,,,,,,12,,,,,23,,,,,,,,,,,,,,
Raw,5000,,,,,,,,,15,,,,,14,,,,,,,,,,,,,,
Raw,5000,,,,,,,,,20,,,,,23,,,,,,,,,,,,,,
Raw,5000,,,,,,,,,24,,,,,15,,,,,,,,,,,,,,
Raw,5000,,,,,,,,,25,,,,,27,,,,,,,,,,,,,,
Raw,5000,,,,,,,,,31,,,,,24,,,,,,,,,,,,,,
Raw,5000,,,,,,,,,32,,,,,29,,,,,,,,,,,,,,
Raw,5100,,,,,,,,,01,,,,,10,,,,,,,,,,,,,,
Raw,5100,,,,,,,,,10,,,,,27,,,,,,,,,,,,,,
Raw,5100,,,,,,,,,12,,,,,23,,,,,,,,,,,,,,
Raw,5100,,,,,,,,,15,,,,,13,,,,,,,,,,,,,,
Raw,5100,,,,,,,,,20,,,,,23,,,,,,,,,,,,,,
Raw,5100,,,,,,,,,24,,,,,15,,,,,,,,,,,,,,
Raw,5100,,,,,,,,,25,,,,,27,,,,,,,,,,,,,,
Raw,5100,,,,,,,,,31,,,,,24,,,,,,,,,,,,,,
Raw,5100,,,,,,,,,32,,,,,29,,,,,,,,,,,,,,
Raw,5200,,,,,,,,,01,,,,,11,,,,,,,,,,,,,,
Raw,5200,,,,,,,,,10,,,,,27,,,,,,,,,,,,,,
Raw,5200,,,,,,,,,12,,,,,24,,,,,,,,,,,,,,
Raw,5200,,,,,,,,,15,,,,,13,,,,,,,,,,,,,,
Raw,5200,,,,,,,,,20,,,,,24,,,,,,,,,,,,,,
Raw,5200,,,,,,,,,24,,,,,15,,,,,,,,,,,,,,
Raw,5200,,,,,,,,,25,,,,,27,,,,,,,,,,,,,,
Raw,5200,,,,,,,,,31,,,,,24,,,,,,,,,,,,,,
Raw,5200,,,,,,,,,32,,,,,29,,,,,,,,,,,,,,
Raw,5300,,,,,,,,,01,,,,,11,,,,,,,,,,,,,,
Raw,5300,,,,,,,,,10,,,,,27,,,,,,,,,,,,,,
Raw,5300,,,,,,,,,12,,,,,24,,,,,,,,,,,,,,
Raw,5300,,,,,,,,,15,,,,,12,,,,,,,,,,,,,,
Raw,5300,,,,,,,,,20,,,,,24,,,,,,,,,,,,,,
Raw,5300,,,,,,,,,24,,,,,15,,,,,,,,,,,,,,
Raw,5300,,,,,,,,,25,,,,,27,,,,,,,,,,,,,,
Raw,5300,,,,,,,,,31,,,,,24,,,,,,,,,,,,,,
Raw,5300,,,,,,,,,32,,,,,29,,,,,,,,,,,,,,
Raw,5400,,,,,,,,,01,,,,,11,,,,,,,,,,,,,,
Raw,5400,,,,,,,,,10,,,,,27,,,,,,,,,,,,,,
Raw,5400,,,,,,,,,12,,,,,23,,,,,,,,,,,,,,
Raw,5400,,,,,,,,,15,,,,,12,,,,,,,,,,,,,,
Raw,5400,,,,,,,,,20,,,,,24,,,,,,,,,,,,,,
Raw,5400,,,,,,,,,24,,,,,15,,,,,,,,,,,,,,
Raw,5400,,,,,,,,,25,,,,,27,,,,,,,,,,,,,,
Raw,5400,,,,,,,,,31,,,,,25,,,,,,,,,,,,,,
Raw,5400,,,,,,,,,32,,,,,29,,,,,,,,,,,,,,
Raw,5500,,,,,,,,,10,,,,,27,,,,,,,,,,,,,,
Raw,5500,,,,,,,,,12,,,,,24,,,,,,,,,,,,,,
Raw,5500,,,,,,,,,15,,,,,11,,,,,,,,,,,,,,
Raw,5500,,,,,,,,,20,,,,,24,,,,,,,,,,,,,,
Raw,5500,,,,,,,,,24,,,,,15,,,,,,,,,,,,,,
Raw,5500,,,,,,,,,25,,,,,27,,,,,,,,,,,,,,
Raw,5500,,,,,,,,,31,,,,,25,,,,,,,,,,,,,,
Raw,5500,,,,,,,,,32,,,,,29,,,,,,,,,,,,,,
Raw,5600,,,,,,,,,10,,,,,27,,,,,,,,,,,,,,
Raw,5600,,,,,,,,,12,,,,,24,,,,,,,,,,,,,,
Raw,5600,,,,,,,,,15,,,,,11,,,,,,,,,,,,,,
Raw,5600,,,,,,,,,20,,,,,24,,,,,,,,,,,,,,
Raw,5600,,,,,,,,,24,,,,,15,,,,,,,,,,,,,,
Raw,5600,,,,,,,,,25,,,,,27,,,,,,,,,,,,,,
Raw,5600,,,,,,,,,31,,,,,25,,,,,,,,,,,,,,
Raw,5600,,,,,,,,,32,,,,,29,,,,,,,,,,,,,,
Raw,5700,,,,,,,,,10,,,,,27,,,,,,,,,,,,,,
Raw,5700,,,,,,,,,12,,,,,24,,,,,,,,,,,,,,
Raw,5700,,,,,,,,,15,,,,,10,,,,,,,,,,,,,,
Raw,5700,,,,,,,,,20,,,,,23,,,,,,,,,,,,,,
Raw,5700,,,,,,,,,24,,,,,15,,,,,,,,,,,,,,
Raw,5700,,,,,,,,,25,,,,,27,,,,,,,,,,,,,,
Raw,5700,,,,,,,,,31,,,,,25,,,,,,,,,,,,,,
Raw,5700,,,,,,,,,32,,,,,29,,,,,,,,,,,,,,
Raw,5800,,,,,,,,,10,,,,,27,,,,,,,,,,,,,,
Raw,5800,,,,,,,,,12,,,,,24,,,,,,,,,,,,,,
Raw,5800,,,,,,,,,15,,,,,10,,,,,,,,,,,,,,
Raw,5800,,,,,,,,,20,,,,,23,,,,,,,,,,,,,,
Raw,5800,,,,,,,,,24,,,,,15,,,,,,,,,,,,,,
Raw,5800,,,,,,,,,25,,,,,27,,,,,,,,,,,,,,
Raw,5800,,,,,,,,,31,,,,,25,,,,,,,,,,,,,,
Raw,5800,,,,,,,,,32,,,,,29,,,,,,,,,,,,,,
Raw,5900,,,,,,,,,10,,,,,27,,,,,,,,,,,,,,
Raw,5900,,,,,,,,,12,,,,,24,,,,,,,,,,,,,,
Raw,5900,,,,,,,,,15,,,,,10,,,,,,,,,,,,,,
Raw,5900,,,,,,,,,20,,,,,24,,,,,,,,,,,,,,
Raw,5900,,,,,,,,,24,,,,,15,,,,,,,,,,,,,,
Raw,5900,,,,,,,,,25,,,,,27,,,,,,,,,,,,,,
Raw,5900,,,,,,,,,31,,,,,25,,,,,,,,,,,,,,
Raw,5900,,,,,,,,,32,,,,,29,,,,,,,,,,,,,,
Raw,6000,,,,,,,,,10,,,,,27,,,,,,,,,,,,,,
Raw,6000,,,,,,,,,12,,,,,23,,,,,,,,,,,,,,
Raw,6000,,,,,,,,,15,,,,,10,,,,,,,,,,,,,,
Raw,6000,,,,,,,,,20,,,,,23,,,,,,,,,,,,,,
Raw,6000,,,,,,,,,24,,,,,15,,,,,,,,,,,,,,
Raw,6000,,,,,,,,,25,,,,,27,,,,,,,,,,,,,,
Raw,6000,,,,,,,,,31,,,,,25,,,,,,,,,,,,,,
Raw,6000,,,,,,,,,32,,,,,29,,,,,,,,,,,,,,
Raw,6100,,,,,,,,,10,,,,,27,,,,,,,,,,,,,,
Raw,6100,,,,,,,,,12,,,,,23,,,,,,,,,,,,,,
Raw,6100,,,,,,,,,15,,,,,09,,,,,,,,,,,,,,
Raw,6100,,,,,,,,,20,,,,,24,,,,,,,,,,,,,,
Raw,6100,,,,,,,,,24,,,,,15,,,,,,,,,,,,,,
Raw,6100,,,,,,,,,25,,,,,27,,,,,,,,,,,,,,
Raw,6100,,,,,,,,,31,,,,,25,,,,,,,,,,,,,,
Raw,6100,,,,,,,,,32,,,,,29,,,,,,,,,,,,,,
Raw,6200,,,,,,,,,10,,,,,27,,,,,,,,,,,,,,
Raw,6200,,,,,,,,,12,,,,,23,,,,,,,,,,,,,,
Raw,6200,,,,,,,,,15,,,,,10,,,,,,,,,,,,,,
Raw,6200,,,,,,,,,20,,,,,24,,,,,,,,,,,,,,
Raw,6200,,,,,,,,,24,,,,,15,,,,,,,,,,,,,,
Raw,6200,,,,,,,,,25,,,,,27,,,,,,,,,,,,,,
Raw,6200,,,,,,,,,31,,,,,25,,,,,,,,,,,,,,
Raw,6200,,,,,,,,,32,,,,,29,,,,,,,,,,,,,,
Raw,6300,,,,,,,,,10,,,,,27,,,,,,,,,,,,,,
Raw,6300,,,,,,,,,12,,,,,23,,,,,,,,,,,,,,
Raw,6300,,,,,,,,,15,,,,,10,,,,,,,,,,,,,,
Raw,6300,,,,,,,,,20,,,,,24,,,,,,,,,,,,,,
Raw,6300,,,,,,,,,24,,,,,15,,,,,,,,,,,,,,
Raw,6300,,,,,,,,,25,,,,,26,,,,,,,,,,,,,,
Raw,6300,,,,,,,,,31,,,,,25,,,,,,,,,,,,,,
Raw,6300,,,,,,,,,32,,,,,28,,,,,,,,,,,,,,
Raw,6400,,,,,,,,,10,,,,,27,,,,,,,,,,,,,,
Raw,6400,,,,,,,,,12,,,,,23,,,,,,,,,,,,,,
Raw,6400,,,,,,,,,15,,,,,10,,,,,,,,,,,,,,
Raw,6400,,,,,,,,,20,,,,,24,,,,,,,,,,,,,,
Raw,6400,,,,,,,,,24,,,,,15,,,,,,,,,,,,,,
Raw,6400,,,,,,,,,25,,,,,27,,,,,,,,,,,,,,
Raw,6400,,,,,,,,,31,,,,,25,,,,,,,,,,,,,,
Raw,6400,,,,,,,,,32,,,,,28,,,,,,,,,,,,,,
Raw,6500,,,,,,,,,10,,,,,27,,,,,,,,,,,,,,
Raw,6500,,,,,,,,,12,,,,,23,,,,,,,,,,,,,,
Raw,6500,,,,,,,,,15,,,,,10,,,,,,,,,,,,,,
Raw,6500,,,,,,,,,20,,,,,24,,,,,,,,,,,,,,
Raw,6500,,,,,,,,,24,,,,,15,,,,,,,,,,,,,,
Raw,6500,,,,,,,,,25,,,,,27,,,,,,,,,,,,,,
Raw,6500,,,,,,,,,31,,,,,25,,,,,,,,,,,,,,
Raw,6500,,,,,,,,,32,,,,,28,,,,,,,,,,,,,,
Raw,6600,,,,,,,,,10,,,,,27,,,,,,,,,,,,,,
Raw,6600,,,,,,,,,12,,,,,23,,,,,,,,,,,,,,
Raw,6600,,,,,,,,,15,,,,,11,,,,,,,,,,,,,,
Raw,6600,,,,,,,,,20,,,,,24,,,,,,,,,,,,,,
Raw,6600,,,,,,,,,24,,,,,15,,,,,,,,,,,,,,
Raw,6600,,,,,,,,,25,,,,,27,,,,,,,,,,,,,,
Raw,6600,,,,,,,,,31,,,,,25,,,,,,,,,,,,,,
Raw,6600,,,,,,,,,32,,,,,28,,,,,,,,,,,,,,
Raw,6700,,,,,,,,,10,,,,,27,,,,,,,,,,,,,,
Raw,6700,,,,,,,,,12,,,,,23,,,,,,,,,,,,,,
Raw,6700,,,,,,,,,15,,,,,11,,,,,,,,,,,,,,
Raw,6700,,,,,,,,,20,,,,,24,,,,,,,,,,,,,,
Raw,6700,,,,,,,,,24,,,,,15,,,,,,,,,,,,,,
Raw,6700,,,,,,,,,25,,,,,27,,,,,,,,,,,,,,
Raw,6700,,,,,,,,,31,,,,,25,,,,,,,,,,,,,,
Raw,6700,,,,,,,,,32,,,,,28,,,,,,,,,,,,,,
Raw,6800,,,,,,,,,10,,,,,26,,,,,,,,,,,,,,
Raw,6800,,,,,,,,,12,,,,,22,,,,,,,,,,,,,,
Raw,6800,,,,,,,,,15,,,,,11,,,,,,,,,,,,,,
Raw,6800,,,,,,,,,20,,,,,24,,,,,,,,,,,,,,
Raw,6800,,,,,,,,,24,,,,,15,,,,,,,,,,,,,,
Raw,6800,,,,,,,,,25,,,,,27,,,,,,,,,,,,,,
Raw,6800,,,,,,,,,31,,,,,25,,,,,,,,,,,,,,
Raw,6800,,,,,,,,,32,,,,,28,,,,,,,,,,,,,,
Raw,6900,,,,,,,,,10,,,,,27,,,,,,,,,,,,,,
Raw,6900,,,,,,,,,12,,,,,22,,,,,,,,,,,,,,
Raw,6900,,,,,,,,,15,,,,,11,,,,,,,,,,,,,,
Raw,6900,,,,,,,,,20,,,,,24,,,,,,,,,,,,,,
Raw,6900,,,,,,,,,24,,,,,15,,,,,,,,,,,,,,
Raw,6900,,,,,,,,,25,,,,,27,,,,,,,,,,,,,,
Raw,6900,,,,,,,,,31,,,,,25,,,,,,,,,,,,,,
Raw,6900,,,,,,,,,32,,,,,28,,,,,,,,,,,,,,
Raw,7000,,,,,,,,,10,,,,,27,,,,,,,,,,,,,,
Raw,7000,,,,,,,,,12,,,,,23,,,,,,,,,,,,,,
Raw,7000,,,,,,,,,15,,,,,11,,,,,,,,,,,,,,
Raw,7000,,,,,,,,,20,,,,,24,,,,,,,,,,,,,,
Raw,7000,,,,,,,,,24,,,,,15,,,,,,,,,,,,,,
Raw,7000,,,,,,,,,25,,,,,27,,,,,,,,,,,,,,
Raw,7000,,,,,,,,,31,,,,,25,,,,,,,,,,,,,,
Raw,7000,,,,,,,,,32,,,,,28,,,,,,,,,,,,,,
Raw,7100,,,,,,,,,10,,,,,27,,,,,,,,,,,,,,
Raw,7100,,,,,,,,,12,,,,,22,,,,,,,,,,,,,,
Raw,7100,,,,,,,,,15,,,,,12,,,,,,,,,,,,,,
Raw,7100,,,,,,,,,20,,,,,24,,,,,,,,,,,,,,
Raw,7100,,,,,,,,,24,,,,,15,,,,,,,,,,,,,,
Raw,7100,,,,,,,,,25,,,,,27,,,,,,,,,,,,,,
Raw,7100,,,,,,,,,31,,,,,25,,,,,,,,,,,,,,
Raw,7100,,,,,,,,,32,,,,,28,,,,,,,,,,,,,,
Raw,7200,,,,,,,,,10,,,,,27,,,,,,,,,,,,,,
Raw,7200,,,,,,,,,12,,,,,22,,,,,,,,,,,,,,
Raw,7200,,,,,,,,,15,,,,,12,,,,,,,,,,,,,,
Raw,7200,,,,,,,,,20,,,,,24,,,,,,,,,,,,,,
Raw,7200,,,,,,,,,24,,,,,15,,,,,,,,,,,,,,
Raw,7200,,,,,,,,,25,,,,,27,,,,,,,,,,,,,,
Raw,7200,,,,,,,,,31,,,,,25,,,,,,,,,,,,,,
Raw,7200,,,,,,,,,32,,,,,28,,,,,,,,,,,,,,
Raw,7300,,,,,,,,,10,,,,,26,,,,,,,,,,,,,,
Raw,7300,,,,,,,,,12,,,,,23,,,,,,,,,,,,,,
Raw,7300,,,,,,,,,15,,,,,12,,,,,,,,,,,,,,
Raw,7300,,,,,,,,,20,,,,,24,,,,,,,,,,,,,,
Raw,7300,,,,,,,,,24,,,,,15,,,,,,,,,,,,,,
Raw,7300,,,,,,,,,25,,,,,27,,,,,,,,,,,,,,
Raw,7300,,,,,,,,,31,,,,,25,,,,,,,,,,,,,,
Raw,7300,,,,,,,,,32,,,,,28,,,,,,,,,,,,,,
Raw,7400,,,,,,,,,10,,,,,26,,,,,,,,,,,,,,
Raw,7400,,,,,,,,,12,,,,,22,,,,,,,,,,,,,,
Raw,7400,,,,,,,,,15,,,,,12,,,,,,,,,,,,,,
Raw,7400,,,,,,,,,20,,,,,24,,,,,,,,,,,,,,
Raw,7400,,,,,,,,,24,,,,,15,,,,,,,,,,,,,,
Raw,7400,,,,,,,,,25,,,,,27,,,,,,,,,,,,,,
Raw,7400,,,,,,,,,31,,,,,25,,,,,,,,,,,,,,
Raw,7400,,,,,,,,,32,,,,,28,,,,,,,,,,,,,,
Raw,7500,,,,,,,,,10,,,,,26,,,,,,,,,,,,,,
Raw,7500,,,,,,,,,12,,,,,22,,,,,,,,,,,,,,
Raw,7500,,,,,,,,,15,,,,,12,,,,,,,,,,,,,,
Raw,7500,,,,,,,,,20,,,,,24,,,,,,,,,,,,,,
Raw,7500,,,,,,,,,24,,,,,15,,,,,,,,,,,,,,
Raw,7500,,,,,,,,,25,,,,,27,,,,,,,,,,,,,,
Raw,7500,,,,,,,,,31,,,,,25,,,,,,,,,,,,,,
Raw,7500,,,,,,,,,32,,,,,28,,,,,,,,,,,,,,
Raw,7600,,,,,,,,,10,,,,,26,,,,,,,,,,,,,,
Raw,7600,,,,,,,,,12,,,,,22,,,,,,,,,,,,,,
Raw,7600,,,,,,,,,15,,,,,12,,,,,,,,,,,,,,
Raw,7600,,,,,,,,,20,,,,,25,,,,,,,,,,,,,,
Raw,7600,,,,,,,,,24,,,,,15,,,,,,,,,,,,,,
Raw,7600,,,,,,,,,25,,,,,27,,,,,,,,,,,,,,
Raw,7600,,,,,,,,,31,,,,,25,,,,,,,,,,,,,,
Raw,7600,,,,,,,,,32,,,,,28,,,,,,,,,,,,,,
Raw,7700,,,,,,,,,10,,,,,26,,,,,,,,,,,,,,
Raw,7700,,,,,,,,,12,,,,,22,,,,,,,,,,,,,,
Raw,7700,,,,,,,,,15,,,,,12,,,,,,,,,,,,,,
Raw,7700,,,,,,,,,20,,,,,25,,,,,,,,,,,,,,
Raw,7700,,,,,,,,,24,,,,,15,,,,,,,,,,,,,,
Raw,7700,,,,,,,,,25,,,,,27,,,,,,,,,,,,,,
Raw,7700,,,,,,,,,31,,,,,25,,,,,,,,,,,,,,
Raw,7700,,,,,,,,,32,,,,,28,,,,,,,,,,,,,,
Raw,7800,,,,,,,,,10,,,,,26,,,,,,,,,,,,,,
Raw,7800,,,,,,,,,12,,,,,22,,,,,,,,,,,,,,
Raw,7800,,,,,,,,,15,,,,,12,,,,,,,,,,,,,,
Raw,7800,,,,,,,,,20,,,,,25,,,,,,,,,,,,,,
Raw,7800,,,,,,,,,24,,,,,15,,,,,,,,,,,,,,
Raw,7800,,,,,,,,,25,,,,,27,,,,,,,,,,,,,,
Raw,7800,,,,,,,,,31,,,,,25,,,,,,,,,,,,,,
Raw,7800,,,,,,,,,32,,,,,28,,,,,,,,,,,,,,
Raw,7900,,,,,,,,,10,,,,,26,,,,,,,,,,,,,,
Raw,7900,,,,,,,,,12,,,,,22,,,,,,,,,,,,,,
Raw,7900,,,,,,,,,15,,,,,12,,,,,,,,,,,,,,
Raw,7900,,,,,,,,,20,,,,,25,,,,,,,,,,,,,,
Raw,7900,,,,,,,,,24,,,,,15,,,,,,,,,,,,,,
Raw,7900,,,,,,,,,25,,,,,27,,,,,,,,,,,,,,
Raw,7900,,,,,,,,,31,,,,,25,,,,,,,,,,,,,,
Raw,7900,,,,,,,,,32,,,,,28,,,,,,,,,,,,,,
Raw,8000,,,,,,,,,10,,,,,26,,,,,,,,,,,,,,
Raw,8000,,,,,,,,,12,,,,,21,,,,,,,,,,,,,,
Raw,8000,,,,,,,,,15,,,,,12,,,,,,,,,,,,,,
Raw,8000,,,,,,,,,20,,,,,25,,,,,,,,,,,,,,
Raw,8000,,,,,,,,,24,,,,,15,,,,,,,,,,,,,,
Raw,8000,,,,,,,,,25,,,,,27,,,,,,,,,,,,,,
Raw,8000,,,,,,,,,31,,,,,25,,,,,,,,,,,,,,
Raw,8000,,,,,,,,,32,,,,,28,,,,,,,,,,,,,,
Raw,8100,,,,,,,,,10,,,,,26,,,,,,,,,,,,,,
Raw,8100,,,,,,,,,12,,,,,22,,,,,,,,,,,,,,
Raw,8100,,,,,,,,,15,,,,,13,,,,,,,,,,,,,,
Raw,8100,,,,,,,,,20,,,,,25,,,,,,,,,,,,,,
Raw,8100,,,,,,,,,24,,,,,15,,,,,,,,,,,,,,
Raw,8100,,,,,,,,,25,,,,,27,,,,,,,,,,,,,,
Raw,8100,,,,,,,,,31,,,,,24,,,,,,,,,,,,,,
Raw,8100,,,,,,,,,32,,,,,28,,,,,,,,,,,,,,
Raw,8200,,,,,,,,,10,,,,,26,,,,,,,,,,,,,,
Raw,8200,,,,,,,,,12,,,,,22,,,,,,,,,,,,,,
Raw,8200,,,,,,,,,15,,,,,12,,,,,,,,,,,,,,
Raw,8200,,,,,,,,,20,,,,,25,,,,,,,,,,,,,,
Raw,8200,,,,,,,,,24,,,,,15,,,,,,,,,,,,,,
Raw,8200,,,,,,,,,25,,,,,27,,,,,,,,,,,,,,
Raw,8200,,,,,,,,,31,,,,,25,,,,,,,,,,,,,,
Raw,8200,,,,,,,,,32,,,,,28,,,,,,,,,,,,,,
Raw,8300,,,,,,,,,10,,,,,26,,,,,,,,,,,,,,
Raw,8300,,,,,,,,,12,,,,,22,,,,,,,,,,,,,,
Raw,8300,,,,,,,,,15,,,,,12,,,,,,,,,,,,,,
Raw,8300,,,,,,,,,20,,,,,25,,,,,,,,,,,,,,
Raw,8300,,,,,,,,,24,,,,,15,,,,,,,,,,,,,,
Raw,8300,,,,,,,,,25,,,,,27,,,,,,,,,,,,,,
Raw,8300,,,,,,,,,31,,,,,25,,,,,,,,,,,,,,
Raw,8300,,,,,,,,,32,,,,,28,,,,,,,,,,,,,,
Raw,8400,,,,,,,,,10,,,,,26,,,,,,,,,,,,,,
Raw,8400,,,,,,,,,12,,,,,22,,,,,,,,,,,,,,
Raw,8400,,,,,,,,,15,,,,,13,,,,,,,,,,,,,,
Raw,8400,,,,,,,,,20,,,,,25,,,,,,,,,,,,,,
Raw,8400,,,,,,,,,24,,,,,15,,,,,,,,,,,,,,
Raw,8400,,,,,,,,,25,,,,,27,,,,,,,,,,,,,,
Raw,8400,,,,,,,,,31,,,,,25,,,,,,,,,,,,,,
Raw,8400,,,,,,,,,32,,,,,28,,,,,,,,,,,,,,
Raw,8500,,,,,,,,,10,,,,,26,,,,,,,,,,,,,,
Raw,8500,,,,,,,,,12,,,,,22,,,,,,,,,,,,,,
Raw,8500,,,,,,,,,15,,,,,13,,,,,,,,,,,,,,
Raw,8500,,,,,,,,,20,,,,,25,,,,,,,,,,,,,,
Raw,8500,,,,,,,,,24,,,,,15,,,,,,,,,,,,,,
Raw,8500,,,,,,,,,25,,,,,27,,,,,,,,,,,,,,
Raw,8500,,,,,,,,,31,,,,,25,,,,,,,,,,,,,,
Raw,8500,,,,,,,,,32,,,,,28,,,,,,,,,,,,,,
Raw,8600,,,,,,,,,10,,,,,26,,,,,,,,,,,,,,
Raw,8600,,,,,,,,,12,,,,,22,,,,,,,,,,,,,,
Raw,8600,,,,,,,,,15,,,,,13,,,,,,,,,,,,,,
Raw,8600,,,,,,,,,20,,,,,25,,,,,,,,,,,,,,
Raw,8600,,,,,,,,,24,,,,,15,,,,,,,,,,,,,,
Raw,8600,,,,,,,,,25,,,,,27,,,,,,,,,,,,,,
Raw,8600,,,,,,,,,31,,,,,25,,,,,,,,,,,,,,
Raw,8600,,,,,,,,,32,,,,,28,,,,,,,,,,,,,,
Raw,8700,,,,,,,,,10,,,,,27,,,,,,,,,,,,,,
Raw,8700,,,,,,,,,12,,,,,22,,,,,,,,,,,,,,
Raw,8700,,,,,,,,,15,,,,,13,,,,,,,,,,,,,,
Raw,8700,,,,,,,,,20,,,,,25,,,,,,,,,,,,,,
Raw,8700,,,,,,,,,24,,,,,15,,,,,,,,,,,,,,
Raw,8700,,,,,,,,,25,,,,,27,,,,,,,,,,,,,,
Raw,8700,,,,,,,,,31,,,,,25,,,,,,,,,,,,,,
Raw,8700,,,,,,,,,32,,,,,28,,,,,,,,,,,,,,
Raw,8800,,,,,,,,,10,,,,,26,,,,,,,,,,,,,,
Raw,8800,,,,,,,,,12,,,,,22,,,,,,,,,,,,,,
Raw,8800,,,,,,,,,15,,,,,13,,,,,,,,,,,,,,
Raw,8800,,,,,,,,,20,,,,,25,,,,,,,,,,,,,,
Raw,8800,,,,,,,,,24,,,,,15,,,,,,,,,,,,,,
Raw,8800,,,,,,,,,25,,,,,27,,,,,,,,,,,,,,
Raw,8800,,,,,,,,,31,,,,,25,,,,,,,,,,,,,,
Raw,8800,,,,,,,,,32,,,,,28,,,,,,,,,,,,,,
Raw,8900,,,,,,,,,10,,,,,26,,,,,,,,,,,,,,
Raw,8900,,,,,,,,,12,,,,,22,,,,,,,,,,,,,,
Raw,8900,,,,,,,,,15,,,,,13,,,,,,,,,,,,,,
Raw,8900,,,,,,,,,20,,,,,25,,,,,,,,,,,,,,
Raw,8900,,,,,,,,,24,,,,,15,,,,,,,,,,,,,,
Raw,8900,,,,,,,,,25,,,,,27,,,,,,,,,,,,,,
Raw,8900,,,,,,,,,31,,,,,25,,,,,,,,,,,,,,
Raw,8900,,,,,,,,,32,,,,,28,,,,,,,,,,,,,,
Raw,9000,,,,,,,,,10,,,,,26,,,,,,,,,,,,,,
Raw,9000,,,,,,,,,12,,,,,21,,,,,,,,,,,,,,
Raw,9000,,,,,,,,,14,,,,,19,,,,,,,,,,,,,,
Raw,9000,,,,,,,,,15,,,,,13,,,,,,,,,,,,,,
Raw,9000,,,,,,,,,20,,,,,25,,,,,,,,,,,,,,
Raw,9000,,,,,,,,,24,,,,,11,,,,,,,,,,,,,,
Raw,9000,,,,,,,,,25,,,,,27,,,,,,,,,,,,,,
Raw,9000,,,,,,,,,31,,,,,25,,,,,,,,,,,,,,
Raw,9000,,,,,,,,,32,,,,,28,,,,,,,,,,,,,,
Raw,9100,,,,,,,,,10,,,,,26,,,,,,,,,,,,,,
Raw,9100,,,,,,,,,12,,,,,21,,,,,,,,,,,,,,
Raw,9100,,,,,,,,,14,,,,,18,,,,,,,,,,,,,,
Raw,9100,,,,,,,,,15,,,,,13,,,,,,,,,,,,,,
Raw,9100,,,,,,,,,20,,,,,25,,,,,,,,,,,,,,
Raw,9100,,,,,,,,,24,,,,,11,,,,,,,,,,,,,,
Raw,9100,,,,,,,,,25,,,,,27,,,,,,,,,,,,,,
Raw,9100,,,,,,,,,31,,,,,25,,,,,,,,,,,,,,
Raw,9100,,,,,,,,,32,,,,,28,,,,,,,,,,,,,,
Raw,9200,,,,,,,,,10,,,,,26,,,,,,,,,,,,,,
Raw,9200,,,,,,,,,12,,,,,21,,,,,,,,,,,,,,
Raw,9200,,,,,,,,,14,,,,,18,,,,,,,,,,,,,,
Raw,9200,,,,,,,,,15,,,,,13,,,,,,,,,,,,,,
Raw,9200,,,,,,,,,20,,,,,25,,,,,,,,,,,,,,
Raw,9200,,,,,,,,,24,,,,,11,,,,,,,,,,,,,,
Raw,9200,,,,,,,,,25,,,,,27,,,,,,,,,,,,,,
Raw,9200,,,,,,,,,31,,,,,25,,,,,,,,,,,,,,
Raw,9200,,,,,,,,,32,,,,,28,,,,,,,,,,,,,,
Raw,9300,,,,,,,,,10,,,,,27,,,,,,,,,,,,,,
Raw,9300,,,,,,,,,12,,,,,21,,,,,,,,,,,,,,
Raw,9300,,,,,,,,,14,,,,,18,,,,,,,,,,,,,,
Raw,9300,,,,,,,,,15,,,,,13,,,,,,,,,,,,,,
Raw,9300,,,,,,,,,20,,,,,25,,,,,,,,,,,,,,
Raw,9300,,,,,,,,,24,,,,,11,,,,,,,,,,,,,,
Raw,9300,,,,,,,,,25,,,,,27,,,,,,,,,,,,,,
Raw,9300,,,,,,,,,31,,,,,25,,,,,,,,,,,,,,
Raw,9300,,,,,,,,,32,,,,,28,,,,,,,,,,,,,,
Raw,9400,,,,,,,,,10,,,,,27,,,,,,,,,,,,,,
Raw,9400,,,,,,,,,12,,,,,21,,,,,,,,,,,,,,
Raw,9400,,,,,,,,,14,,,,,18,,,,,,,,,,,,,,
Raw,9400,,,,,,,,,15,,,,,12,,,,,,,,,,,,,,
Raw,9400,,,,,,,,,20,,,,,25,,,,,,,,,,,,,,
Raw,9400,,,,,,,,,24,,,,,11,,,,,,,,,,,,,,
Raw,9400,,,,,,,,,25,,,,,27,,,,,,,,,,,,,,
Raw,9400,,,,,,,,,31,,,,,24,,,,,,,,,,,,,,
Raw,9400,,,,,,,,,32,,,,,27,,,,,,,,,,,,,,
Raw,9500,,,,,,,,,10,,,,,27,,,,,,,,,,,,,,
Raw,9500,,,,,,,,,12,,,,,22,,,,,,,,,,,,,,
Raw,9500,,,,,,,,,14,,,,,18,,,,,,,,,,,,,,
Raw,9500,,,,,,,,,15,,,,,12,,,,,,,,,,,,,,
Raw,9500,,,,,,,,,20,,,,,25,,,,,,,,,,,,,,
Raw,9500,,,,,,,,,24,,,,,11,,,,,,,,,,,,,,
Raw,9500,,,,,,,,,25,,,,,27,,,,,,,,,,,,,,
Raw,9500,,,,,,,,,31,,,,,24,,,,,,,,,,,,,,
Raw,9500,,,,,,,,,32,,,,,27,,,,,,,,,,,,,,
Raw,9600,,,,,,,,,10,,,,,27,,,,,,,,,,,,,,
Raw,9600,,,,,,,,,12,,,,,22,,,,,,,,,,,,,,
Raw,9600,,,,,,,,,14,,,,,17,,,,,,,,,,,,,,
Raw,9600,,,,,,,,,15,,,,,12,,,,,,,,,,,,,,
Raw,9600,,,,,,,,,20,,,,,25,,,,,,,,,,,,,,
Raw,9600,,,,,,,,,24,,,,,11,,,,,,,,,,,,,,
Raw,9600,,,,,,,,,25,,,,,27,,,,,,,,,,,,,,
Raw,9600,,,,,,,,,31,,,,,24,,,,,,,,,,,,,,
Raw,9600,,,,,,,,,32,,,,,27,,,,,,,,,,,,,,
Raw,9700,,,,,,,,,10,,,,,27,,,,,,,,,,,,,,
Raw,9700,,,,,,,,,12,,,,,22,,,,,,,,,,,,,,
Raw,9700,,,,,,,,,14,,,,,17,,,,,,,,,,,,,,
Raw,9700,,,,,,,,,15,,,,,12,,,,,,,,,,,,,,
Raw,9700,,,,,,,,,20,,,,,25,,,,,,,,,,,,,,
Raw,9700,,,,,,,,,24,,,,,11,,,,,,,,,,,,,,
Raw,9700,,,,,,,,,25,,,,,27,,,,,,,,,,,,,,
Raw,9700,,,,,,,,,31,,,,,24,,,,,,,,,,,,,,
Raw,9700,,,,,,,,,32,,,,,28,,,,,,,,,,,,,,
Raw,9800,,,,,,,,,10,,,,,27,,,,,,,,,,,,,,
Raw,9800,,,,,,,,,12,,,,,22,,,,,,,,,,,,,,
Raw,9800,,,,,,,,,14,,,,,17,,,,,,,,,,,,,,
Raw,9800,,,,,,,,,15,,,,,12,,,,,,,,,,,,,,
Raw,9800,,,,,,,,,20,,,,,25,,,,,,,,,,,,,,
Raw,9800,,,,,,,,,24,,,,,11,,,,,,,,,,,,,,
Raw,9800,,,,,,,,,25,,,,,27,,,,,,,,,,,,,,
Raw,9800,,,,,,,,,31,,,,,24,,,,,,,,,,,,,,
Raw,9800,,,,,,,,,32,,,,,28,,,,,,,,,,,,,,
Raw,9900,,,,,,,,,10,,,,,27,,,,,,,,,,,,,,
Raw,9900,,,,,,,,,12,,,,,22,,,,,,,,,,,,,,
Raw,9900,,,,,,,,,14,,,,,17,,,,,,,,,,,,,,
Raw,9900,,,,,,,,,15,,,,,12,,,,,,,,,,,,,,
Raw,9900,,,,,,,,,20,,,,,25,,,,,,,,,,,,,,
Raw,9900,,,,,,,,,24,,,,,11,,,,,,,,,,,,,,
Raw,9900,,,,,,,,,25,,,,,27,,,,,,,,,,,,,,
Raw,9900,,,,,,,,,31,,,,,24,,,,,,,,,,,,,,
Raw,9900,,,,,,,,,32,,,,,28,,,,,,,,,,,,,,
Raw,10000,,,,,,,,,10,,,,,26,,,,,,,,,,,,,,
Raw,10000,,,,,,,,,12,,,,,22,,,,,,,,,,,,,,
Raw,10000,,,,,,,,,14,,,,,17,,,,,,,,,,,,,,
Raw,10000,,,,,,,,,15,,,,,12,,,,,,,,,,,,,,
Raw,10000,,,,,,,,,20,,,,,25,,,,,,,,,,,,,,
Raw,10000,,,,,,,,,24,,,,,11,,,,,,,,,,,,,,
Raw,10000,,,,,,,,,25,,,,,27,,,,,,,,,,,,,,
Raw,10000,,,,,,,,,31,,,,,24,,,,,,,,,,,,,,
Raw,10000,,,,,,,,,32,,,,,28,,,,,,,,,,,,,,
Raw,10100,,,,,,,,,10,,,,,26,,,,,,,,,,,,,,
Raw,10100,,,,,,,,,12,,,,,22,,,,,,,,,,,,,,
Raw,10100,,,,,,,,,14,,,,,17,,,,,,,,,,,,,,
Raw,10100,,,,,,,,,15,,,,,11,,,,,,,,,,,,,,
Raw,10100,,,,,,,,,20,,,,,26,,,,,,,,,,,,,,
Raw,10100,,,,,,,,,24,,,,,11,,,,,,,,,,,,,,
Raw,10100,,,,,,,,,25,,,,,27,,,,,,,,,,,,,,
Raw,10100,,,,,,,,,31,,,,,24,,,,,,,,,,,,,,
Raw,10100,,,,,,,,,32,,,,,28,,,,,,,,,,,,,,
Raw,10200,,,,,,,,,10,,,,,26,,,,,,,,,,,,,,
Raw,10200,,,,,,,,,12,,,,,22,,,,,,,,,,,,,,
Raw,10200,,,,,,,,,14,,,,,17,,,,,,,,,,,,,,
Raw,10200,,,,,,,,,15,,,,,11,,,,,,,,,,,,,,
Raw,10200,,,,,,,,,20,,,,,26,,,,,,,,,,,,,,
Raw,10200,,,,,,,,,24,,,,,11,,,,,,,,,,,,,,
Raw,10200,,,,,,,,,25,,,,,27,,,,,,,,,,,,,,
Raw,10200,,,,,,,,,31,,,,,24,,,,,,,,,,,,,,
Raw,10200,,,,,,,,,32,,,,,28,,,,,,,,,,,,,,
Raw,10300,,,,,,,,,10,,,,,26,,,,,,,,,,,,,,
Raw,10300,,,,,,,,,12,,,,,22,,,,,,,,,,,,,,
Raw,10300,,,,,,,,,14,,,,,17,,,,,,,,,,,,,,
Raw,10300,,,,,,,,,15,,,,,11,,,,,,,,,,,,,,
Raw,10300,,,,,,,,,20,,,,,26,,,,,,,,,,,,,,
Raw,10300,,,,,,,,,24,,,,,11,,,,,,,,,,,,,,
Raw,10300,,,,,,,,,25,,,,,27,,,,,,,,,,,,,,
Raw,10300,,,,,,,,,31,,,,,24,,,,,,,,,,,,,,
Raw,10300,,,,,,,,,32,,,,,28,,,,,,,,,,,,,,
Raw,10400,,,,,,,,,10,,,,,26,,,,,,,,,,,,,,
Raw,10400,,,,,,,,,12,,,,,22,,,,,,,,,,,,,,
Raw,10400,,,,,,,,,14,,,,,17,,,,,,,,,,,,,,
Raw,10400,,,,,,,,,15,,,,,10,,,,,,,,,,,,,,
Raw,10400,,,,,,,,,20,,,,,26,,,,,,,,,,,,,,
Raw,10400,,,,,,,,,24,,,,,11,,,,,,,,,,,,,,
Raw,10400,,,,,,,,,25,,,,,27,,,,,,,,,,,,,,
Raw,10400,,,,,,,,,31,,,,,24,,,,,,,,,,,,,,
Raw,10400,,,,,,,,,32,,,,,28,,,,,,,,,,,,,,
Raw,10500,,,,,,,,,10,,,,,26,,,,,,,,,,,,,,
Raw,10500,,,,,,,,,12,,,,,22,,,,,,,,,,,,,,
Raw,10500,,,,,,,,,14,,,,,17,,,,,,,,,,,,,,
Raw,10500,,,,,,,,,15,,,,,10,,,,,,,,,,,,,,
Raw,10500,,,,,,,,,20,,,,,26,,,,,,,,,,,,,,
Raw,10500,,,,,,,,,24,,,,,11,,,,,,,,,,,,,,
Raw,10500,,,,,,,,,25,,,,,27,,,,,,,,,,,,,,
Raw,10500,,,,,,,,,31,,,,,25,,,,,,,,,,,,,,
Raw,10500,,,,,,,,,32,,,,,28,,,,,,,,,,,,,,
Raw,10600,,,,,,,,,10,,,,,25,,,,,,,,,,,,,,
Raw,10600,,,,,,,,,12,,,,,21,,,,,,,,,,,,,,
Raw,10600,,,,,,,,,14,,,,,17,,,,,,,,,,,,,,
Raw,10600,,,,,,,,,15,,,,,10,,,,,,,,,,,,,,
Raw,10600,,,,,,,,,20,,,,,26,,,,,,,,,,,,,,
Raw,10600,,,,,,,,,24,,,,,11,,,,,,,,,,,,,,
Raw,10600,,,,,,,,,25,,,,,27,,,,,,,,,,,,,,
Raw,10600,,,,,,,,,31,,,,,24,,,,,,,,,,,,,,
Raw,10600,,,,,,,,,32,,,,,28,,,,,,,,,,,,,,
Raw,10700,,,,,,,,,10,,,,,25,,,,,,,,,,,,,,
Raw,10700,,,,,,,,,12,,,,,21,,,,,,,,,,,,,,
Raw,10700,,,,,,,,,14,,,,,17,,,,,,,,,,,,,,
Raw,10700,,,,,,,,,15,,,,,11,,,,,,,,,,,,,,
Raw,10700,,,,,,,,,20,,,,,26,,,,,,,,,,,,,,
Raw,10700,,,,,,,,,24,,,,,11,,,,,,,,,,,,,,
Raw,10700,,,,,,,,,25,,,,,27,,,,,,,,,,,,,,
Raw,10700,,,,,,,,,31,,,,,24,,,,,,,,,,,,,,
Raw,10700,,,,,,,,,32,,,,,28,,,,,,,,,,,,,,
Raw,10800,,,,,,,,,10,,,,,25,,,,,,,,,,,,,,
Raw,10800,,,,,,,,,12,,,,,21,,,,,,,,,,,,,,
Raw,10800,,,,,,,,,14,,,,,16,,,,,,,,,,,,,,
Raw,10800,,,,,,,,,15,,,,,11,,,,,,,,,,,,,,
Raw,10800,,,,,,,,,20,,,,,26,,,,,,,,,,,,,,
Raw,10800,,,,,,,,,24,,,,,11,,,,,,,,,,,,,,
Raw,10800,,,,,,,,,25,,,,,27,,,,,,,,,,,,,,
Raw,10800,,,,,,,,,31,,,,,24,,,,,,,,,,,,,,
Raw,10800,,,,,,,,,32,,,,,28,,,,,,,,,,,,,,
Raw,10900,,,,,,,,,10,,,,,25,,,,,,,,,,,,,,
Raw,10900,,,,,,,,,12,,,,,21,,,,,,,,,,,,,,
Raw,10900,,,,,,,,,14,,,,,16,,,,,,,,,,,,,,
Raw,10900,,,,,,,,,15,,,,,11,,,,,,,,,,,,,,
Raw,10900,,,,,,,,,20,,,,,26,,,,,,,,,,,,,,
Raw,10900,,,,,,,,,24,,,,,11,,,,,,,,,,,,,,
Raw,10900,,,,,,,,,25,,,,,26,,,,,,,,,,,,,,
Raw,10900,,,,,,,,,31,,,,,24,,,,,,,,,,,,,,
Raw,10900,,,,,,,,,32,,,,,28,,,,,,,,,,,,,,
Raw,11000,,,,,,,,,10,,,,,25,,,,,,,,,,,,,,
Raw,11000,,,,,,,,,12,,,,,21,,,,,,,,,,,,,,
Raw,11000,,,,,,,,,14,,,,,17,,,,,,,,,,,,,,
Raw,11000,,,,,,,,,15,,,,,10,,,,,,,,,,,,,,
Raw,11000,,,,,,,,,20,,,,,26,,,,,,,,,,,,,,
Raw,11000,,,,,,,,,24,,,,,11,,,,,,,,,,,,,,
Raw,11000,,,,,,,,,25,,,,,26,,,,,,,,,,,,,,
Raw,11000,,,,,,,,,31,,,,,23,,,,,,,,,,,,,,
Raw,11000,,,,,,,,,32,,,,,28,,,,,,,,,,,,,,
Raw,11100,,,,,,,,,10,,,,,25,,,,,,,,,,,,,,
Raw,11100,,,,,,,,,12,,,,,21,,,,,,,,,,,,,,
Raw,11100,,,,,,,,,14,,,,,16,,,,,,,,,,,,,,
Raw,11100,,,,,,,,,15,,,,,10,,,,,,,,,,,,,,
Raw,11100,,,,,,,,,20,,,,,26,,,,,,,,,,,,,,
Raw,11100,,,,,,,,,24,,,,,11,,,,,,,,,,,,,,
Raw,11100,,,,,,,,,25,,,,,26,,,,,,,,,,,,,,
Raw,11100,,,,,,,,,31,,,,,23,,,,,,,,,,,,,,
Raw,11100,,,,,,,,,32,,,,,28,,,,,,,,,,,,,,
Raw,11200,,,,,,,,,10,,,,,25,,,,,,,,,,,,,,
Raw,11200,,,,,,,,,12,,,,,21,,,,,,,,,,,,,,
Raw,11200,,,,,,,,,14,,,,,16,,,,,,,,,,,,,,
Raw,11200,,,,,,,,,15,,,,,10,,,,,,,,,,,,,,
Raw,11200,,,,,,,,,20,,,,,26,,,,,,,,,,,,,,
Raw,11200,,,,,,,,,24,,,,,11,,,,,,,,,,,,,,
Raw,11200,,,,,,,,,25,,,,,26,,,,,,,,,,,,,,
Raw,11200,,,,,,,,,31,,,,,23,,,,,,,,,,,,,,
Raw,11200,,,,,,,,,32,,,,,28,,,,,,,,,,,,,,
Raw,11300,,,,,,,,,10,,,,,25,,,,,,,,,,,,,,
Raw,11300,,,,,,,,,12,,,,,21,,,,,,,,,,,,,,
Raw,11300,,,,,,,,,14,,,,,16,,,,,,,,,,,,,,
Raw,11300,,,,,,,,,15,,,,,10,,,,,,,,,,,,,,
Raw,11300,,,,,,,,,20,,,,,26,,,,,,,,,,,,,,
Raw,11300,,,,,,,,,24,,,,,11,,,,,,,,,,,,,,
Raw,11300,,,,,,,,,25,,,,,26,,,,,,,,,,,,,,
Raw,11300,,,,,,,,,31,,,,,23,,,,,,,,,,,,,,
Raw,11300,,,,,,,,,32,,,,,28,,,,,,,,,,,,,,
Raw,11400,,,,,,,,,10,,,,,25,,,,,,,,,,,,,,
Raw,11400,,,,,,,,,12,,,,,21,,,,,,,,,,,,,,
Raw,11400,,,,,,,,,14,,,,,16,,,,,,,,,,,,,,
Raw,11400,,,,,,,,,15,,,,,10,,,,,,,,,,,,,,
Raw,11400,,,,,,,,,20,,,,,26,,,,,,,,,,,,,,
Raw,11400,,,,,,,,,24,,,,,11,,,,,,,,,,,,,,
Raw,11400,,,,,,,,,25,,,,,26,,,,,,,,,,,,,,
Raw,11400,,,,,,,,,31,,,,,22,,,,,,,,,,,,,,
Raw,11400,,,,,,,,,32,,,,,28,,,,,,,,,,,,,,
Raw,11500,,,,,,,,,10,,,,,25,,,,,,,,,,,,,,
Raw,11500,,,,,,,,,12,,,,,21,,,,,,,,,,,,,,
Raw,11500,,,,,,,,,14,,,,,16,,,,,,,,,,,,,,
Raw,11500,,,,,,,,,15,,,,,10,,,,,,,,,,,,,,
Raw,11500,,,,,,,,,20,,,,,26,,,,,,,,,,,,,,
Raw,11500,,,,,,,,,24,,,,,11,,,,,,,,,,,,,,
Raw,11500,,,,,,,,,25,,,,,26,,,,,,,,,,,,,,
Raw,11500,,,,,,,,,31,,,,,22,,,,,,,,,,,,,,
Raw,11500,,,,,,,,,32,,,,,28,,,,,,,,,,,,,,
Raw,11600,,,,,,,,,10,,,,,25,,,,,,,,,,,,,,
Raw,11600,,,,,,,,,12,,,,,22,,,,,,,,,,,,,,
Raw,11600,,,,,,,,,14,,,,,16,,,,,,,,,,,,,,
Raw,11600,,,,,,,,,15,,,,,10,,,,,,,,,,,,,,
Raw,11600,,,,,,,,,20,,,,,26,,,,,,,,,,,,,,
Raw,11600,,,,,,,,,24,,,,,11,,,,,,,,,,,,,,
Raw,11600,,,,,,,,,25,,,,,26,,,,,,,,,,,,,,
Raw,11600,,,,,,,,,31,,,,,22,,,,,,,,,,,,,,
Raw,11600,,,,,,,,,32,,,,,28,,,,,,,,,,,,,,
Raw,11700,,,,,,,,,10,,,,,25,,,,,,,,,,,,,,
Raw,11700,,,,,,,,,12,,,,,21,,,,,,,,,,,,,,
Raw,11700,,,,,,,,,14,,,,,16,,,,,,,,,,,,,,
Raw,11700,,,,,,,,,15,,,,,11,,,,,,,,,,,,,,
Raw,11700,,,,,,,,,20,,,,,26,,,,,,,,,,,,,,
Raw,11700,,,,,,,,,24,,,,,11,,,,,,,,,,,,,,
Raw,11700,,,,,,,,,25,,,,,26,,,,,,,,,,,,,,
Raw,11700,,,,,,,,,31,,,,,22,,,,,,,,,,,,,,
Raw,11700,,,,,,,,,32,,,,,28,,,,,,,,,,,,,,
Raw,11800,,,,,,,,,10,,,,,25,,,,,,,,,,,,,,
Raw,11800,,,,,,,,,12,,,,,21,,,,,,,,,,,,,,
Raw,11800,,,,,,,,,14,,,,,15,,,,,,,,,,,,,,
Raw,11800,,,,,,,,,15,,,,,11,,,,,,,,,,,,,,
Raw,11800,,,,,,,,,20,,,,,26,,,,,,,,,,,,,,
Raw,11800,,,,,,,,,24,,,,,11,,,,,,,,,,,,,,
Raw,11800,,,,,,,,,25,,,,,26,,,,,,,,,,,,,,
Raw,11800,,,,,,,,,31,,,,,22,,,,,,,,,,,,,,
Raw,11800,,,,,,,,,32,,,,,29,,,,,,,,,,,,,,
Raw,11900,,,,,,,,,10,,,,,25,,,,,,,,,,,,,,
Raw,11900,,,,,,,,,12,,,,,21,,,,,,,,,,,,,,
Raw,11900,,,,,,,,,14,,,,,15,,,,,,,,,,,,,,
Raw,11900,,,,,,,,,15,,,,,10,,,,,,,,,,,,,,
Raw,11900,,,,,,,,,20,,,,,26,,,,,,,,,,,,,,
Raw,11900,,,,,,,,,24,,,,,11,,,,,,,,,,,,,,
Raw,11900,,,,,,,,,25,,,,,26,,,,,,,,,,,,,,
Raw,11900,,,,,,,,,31,,,,,21,,,,,,,,,,,,,,
Raw,11900,,,,,,,,,32,,,,,29,,,,,,,,,,,,,,
Raw,12000,,,,,,,,,10,,,,,25,,,,,,,,,,,,,,
Raw,12000,,,,,,,,,12,,,,,22,,,,,,,,,,,,,,
Raw,12000,,,,,,,,,14,,,,,15,,,,,,,,,,,,,,
Raw,12000,,,,,,,,,15,,,,,10,,,,,,,,,,,,,,
Raw,12000,,,,,,,,,20,,,,,26,,,,,,,,,,,,,,
Raw,12000,,,,,,,,,24,,,,,11,,,,,,,,,,,,,,
Raw,12000,,,,,,,,,25,,,,,26,,,,,,,,,,,,,,
Raw,12000,,,,,,,,,31,,,,,21,,,,,,,,,,,,,,
Raw,12000,,,,,,,,,32,,,,,29,,,,,,,,,,,,,,
Raw,12100,,,,,,,,,10,,,,,25,,,,,,,,,,,,,,
Raw,12100,,,,,,,,,12,,,,,22,,,,,,,,,,,,,,
Raw,12100,,,,,,,,,14,,,,,15,,,,,,,,,,,,,,
Raw,12100,,,,,,,,,15,,,,,10,,,,,,,,,,,,,,
Raw,12100,,,,,,,,,20,,,,,26,,,,,,,,,,,,,,
Raw,12100,,,,,,,,,24,,,,,11,,,,,,,,,,,,,,
Raw,12100,,,,,,,,,25,,,,,26,,,,,,,,,,,,,,
Raw,12100,,,,,,,,,31,,,,,21,,,,,,,,,,,,,,
Raw,12100,,,,,,,,,32,,,,,29,,,,,,,,,,,,,,
Raw,12200,,,,,,,,,10,,,,,25,,,,,,,,,,,,,,
Raw,12200,,,,,,,,,12,,,,,22,,,,,,,,,,,,,,
Raw,12200,,,,,,,,,14,,,,,14,,,,,,,,,,,,,,
Raw,12200,,,,,,,,,15,,,,,10,,,,,,,,,,,,,,
Raw,12200,,,,,,,,,20,,,,,26,,,,,,,,,,,,,,
Raw,12200,,,,,,,,,24,,,,,11,,,,,,,,,,,,,,
Raw,12200,,,,,,,,,25,,,,,26,,,,,,,,,,,,,,
Raw,12200,,,,,,,,,31,,,,,20,,,,,,,,,,,,,,
Raw,12200,,,,,,,,,32,,,,,29,,,,,,,,,,,,,,
Raw,12300,,,,,,,,,10,,,,,25,,,,,,,,,,,,,,
Raw,12300,,,,,,,,,12,,,,,22,,,,,,,,,,,,,,
Raw,12300,,,,,,,,,14,,,,,14,,,,,,,,,,,,,,
Raw,12300,,,,,,,,,15,,,,,10,,,,,,,,,,,,,,
Raw,12300,,,,,,,,,20,,,,,26,,,,,,,,,,,,,,
Raw,12300,,,,,,,,,24,,,,,11,,,,,,,,,,,,,,
Raw,12300,,,,,,,,,25,,,,,26,,,,,,,,,,,,,,
Raw,12300,,,,,,,,,31,,,,,20,,,,,,,,,,,,,,
Raw,12300,,,,,,,,,32,,,,,29,,,,,,,,,,,,,,
Raw,12400,,,,,,,,,10,,,,,26,,,,,,,,,,,,,,
Raw,12400,,,,,,,,,12,,,,,22,,,,,,,,,,,,,,
Raw,12400,,,,,,,,,14,,,,,14,,,,,,,,,,,,,,
Raw,12400,,,,,,,,,15,,,,,10,,,,,,,,,,,,,,
Raw,12400,,,,,,,,,20,,,,,26,,,,,,,,,,,,,,
Raw,12400,,,,,,,,,24,,,,,11,,,,,,,,,,,,,,
Raw,12400,,,,,,,,,25,,,,,26,,,,,,,,,,,,,,
Raw,12400,,,,,,,,,31,,,,,20,,,,,,,,,,,,,,
Raw,12400,,,,,,,,,32,,,,,29,,,,,,,,,,,,,,
Raw,12500,,,,,,,,,10,,,,,26,,,,,,,,,,,,,,
Raw,12500,,,,,,,,,12,,,,,22,,,,,,,,,,,,,,
Raw,12500,,,,,,,,,14,,,,,14,,,,,,,,,,,,,,
Raw,12500,,,,,,,,,15,,,,,10,,,,,,,,,,,,,,
Raw,12500,,,,,,,,,20,,,,,26,,,,,,,,,,,,,,
Raw,12500,,,,,,,,,24,,,,,11,,,,,,,,,,,,,,
Raw,12500,,,,,,,,,25,,,,,26,,,,,,,,,,,,,,
Raw,12500,,,,,,,,,31,,,,,20,,,,,,,,,,,,,,
Raw,12500,,,,,,,,,32,,,,,29,,,,,,,,,,,,,,
Raw,12600,,,,,,,,,10,,,,,26,,,,,,,,,,,,,,
Raw,12600,,,,,,,,,12,,,,,22,,,,,,,,,,,,,,
Raw,12600,,,,,,,,,14,,,,,14,,,,,,,,,,,,,,
Raw,12600,,,,,,,,,15,,,,,10,,,,,,,,,,,,,,
Raw,12600,,,,,,,,,20,,,,,26,,,,,,,,,,,,,,
Raw,12600,,,,,,,,,24,,,,,11,,,,,,,,,,,,,,
Raw,12600,,,,,,,,,25,,,,,26,,,,,,,,,,,,,,
Raw,12600,,,,,,,,,31,,,,,20,,,,,,,,,,,,,,
Raw,12600,,,,,,,,,32,,,,,30,,,,,,,,,,,,,,
Raw,12700,,,,,,,,,10,,,,,26,,,,,,,,,,,,,,
Raw,12700,,,,,,,,,12,,,,,22,,,,,,,,,,,,,,
Raw,12700,,,,,,,,,14,,,,,13,,,,,,,,,,,,,,
Raw,12700,,,,,,,,,15,,,,,10,,,,,,,,,,,,,,
Raw,12700,,,,,,,,,20,,,,,26,,,,,,,,,,,,,,
Raw,12700,,,,,,,,,24,,,,,11,,,,,,,,,,,,,,
Raw,12700,,,,,,,,,25,,,,,27,,,,,,,,,,,,,,
Raw,12700,,,,,,,,,31,,,,,20,,,,,,,,,,,,,,
Raw,12700,,,,,,,,,32,,,,,30,,,,,,,,,,,,,,
Raw,12800,,,,,,,,,10,,,,,26,,,,,,,,,,,,,,
Raw,12800,,,,,,,,,12,,,,,22,,,,,,,,,,,,,,
Raw,12800,,,,,,,,,14,,,,,14,,,,,,,,,,,,,,
Raw,12800,,,,,,,,,15,,,,,11,,,,,,,,,,,,,,
Raw,12800,,,,,,,,,20,,,,,27,,,,,,,,,,,,,,
Raw,12800,,,,,,,,,24,,,,,11,,,,,,,,,,,,,,
Raw,12800,,,,,,,,,25,,,,,27,,,,,,,,,,,,,,
Raw,12800,,,,,,,,,31,,,,,20,,,,,,,,,,,,,,
Raw,12800,,,,,,,,,32,,,,,30,,,,,,,,,,,,,,
Raw,12900,,,,,,,,,10,,,,,26,,,,,,,,,,,,,,
Raw,12900,,,,,,,,,12,,,,,22,,,,,,,,,,,,,,
Raw,12900,,,,,,,,,14,,,,,14,,,,,,,,,,,,,,
Raw,12900,,,,,,,,,15,,,,,10,,,,,,,,,,,,,,
Raw,12900,,,,,,,,,20,,,,,27,,,,,,,,,,,,,,
Raw,12900,,,,,,,,,24,,,,,11,,,,,,,,,,,,,,
Raw,12900,,,,,,,,,25,,,,,27,,,,,,,,,,,,,,
Raw,12900,,,,,,,,,31,,,,,20,,,,,,,,,,,,,,
Raw,12900,,,,,,,,,32,,,,,30,,,,,,,,,,,,,,
Raw,13000,,,,,,,,,10,,,,,26,,,,,,,,,,,,,,
Raw,13000,,,,,,,,,12,,,,,22,,,,,,,,,,,,,,
Raw,13000,,,,,,,,,14,,,,,14,,,,,,,,,,,,,,
Raw,13000,,,,,,,,,15,,,,,10,,,,,,,,,,,,,,
Raw,13000,,,,,,,,,20,,,,,27,,,,,,,,,,,,,,
Raw,13000,,,,,,,,,24,,,,,11,,,,,,,,,,,,,,
Raw,13000,,,,,,,,,25,,,,,27,,,,,,,,,,,,,,
Raw,13000,,,,,,,,,31,,,,,21,,,,,,,,,,,,,,
Raw,13000,,,,,,,,,32,,,,,31,,,,,,,,,,,,,,
Raw,13100,,,,,,,,,10,,,,,27,,,,,,,,,,,,,,
Raw,13100,,,,,,,,,12,,,,,22,,,,,,,,,,,,,,
Raw,13100,,,,,,,,,14,,,,,14,,,,,,,,,,,,,,
Raw,13100,,,,,,,,,15,,,,,10,,,,,,,,,,,,,,
Raw,13100,,,,,,,,,20,,,,,27,,,,,,,,,,,,,,
Raw,13100,,,,,,,,,24,,,,,11,,,,,,,,,,,,,,
Raw,13100,,,,,,,,,25,,,,,27,,,,,,,,,,,,,,
Raw,13100,,,,,,,,,31,,,,,21,,,,,,,,,,,,,,
Raw,13100,,,,,,,,,32,,,,,31,,,,,,,,,,,,,,
Raw,13200,,,,,,,,,10,,,,,27,,,,,,,,,,,,,,
Raw,13200,,,,,,,,,12,,,,,23,,,,,,,,,,,,,,
Raw,13200,,,,,,,,,14,,,,,14,,,,,,,,,,,,,,
Raw,13200,,,,,,,,,15,,,,,10,,,,,,,,,,,,,,
Raw,13200,,,,,,,,,20,,,,,27,,,,,,,,,,,,,,
Raw,13200,,,,,,,,,24,,,,,11,,,,,,,,,,,,,,
Raw,13200,,,,,,,,,25,,,,,27,,,,,,,,,,,,,,
Raw,13200,,,,,,,,,31,,,,,21,,,,,,,,,,,,,,
Raw,13200,,,,,,,,,32,,,,,31,,,,,,,,,,,,,,
Raw,13300,,,,,,,,,10,,,,,27,,,,,,,,,,,,,,
Raw,13300,,,,,,,,,12,,,,,23,,,,,,,,,,,,,,
Raw,13300,,,,,,,,,14,,,,,14,,,,,,,,,,,,,,
Raw,13300,,,,,,,,,15,,,,,09,,,,,,,,,,,,,,
Raw,13300,,,,,,,,,18,,,,,18,,,,,,,,,,,,,,
Raw,13300,,,,,,,,,20,,,,,27,,,,,,,,,,,,,,
Raw,13300,,,,,,,,,24,,,,,11,,,,,,,,,,,,,,
Raw,13300,,,,,,,,,25,,,,,27,,,,,,,,,,,,,,
Raw,13300,,,,,,,,,31,,,,,21,,,,,,,,,,,,,,
Raw,13300,,,,,,,,,32,,,,,31,,,,,,,,,,,,,,
Raw,13400,,,,,,,,,10,,,,,27,,,,,,,,,,,,,,
Raw,13400,,,,,,,,,12,,,,,23,,,,,,,,,,,,,,
Raw,13400,,,,,,,,,14,,,,,14,,,,,,,,,,,,,,
Raw,13400,,,,,,,,,15,,,,,09,,,,,,,,,,,,,,
Raw,13400,,,,,,,,,18,,,,,17,,,,,,,,,,,,,,
Raw,13400,,,,,,,,,20,,,,,27,,,,,,,,,,,,,,
Raw,13400,,,,,,,,,24,,,,,11,,,,,,,,,,,,,,
Raw,13400,,,,,,,,,25,,,,,27,,,,,,,,,,,,,,
Raw,13400,,,,,,,,,31,,,,,21,,,,,,,,,,,,,,
Raw,13400,,,,,,,,,32,,,,,31,,,,,,,,,,,,,,
Raw,13500,,,,,,,,,10,,,,,27,,,,,,,,,,,,,,
Raw,13500,,,,,,,,,12,,,,,23,,,,,,,,,,,,,,
Raw,13500,,,,,,,,,14,,,,,13,,,,,,,,,,,,,,
Raw,13500,,,,,,,,,15,,,,,10,,,,,,,,,,,,,,
Raw,13500,,,,,,,,,18,,,,,17,,,,,,,,,,,,,,
Raw,13500,,,,,,,,,20,,,,,27,,,,,,,,,,,,,,
Raw,13500,,,,,,,,,24,,,,,11,,,,,,,,,,,,,,
Raw,13500,,,,,,,,,25,,,,,28,,,,,,,,,,,,,,
Raw,13500,,,,,,,,,31,,,,,21,,,,,,,,,,,,,,
Raw,13500,,,,,,,,,32,,,,,31,,,,,,,,,,,,,,
Raw,13600,,,,,,,,,10,,,,,27,,,,,,,,,,,,,,
Raw,13600,,,,,,,,,12,,,,,23,,,,,,,,,,,,,,
Raw,13600,,,,,,,,,14,,,,,13,,,,,,,,,,,,,,
Raw,13600,,,,,,,,,15,,,,,09,,,,,,,,,,,,,,
Raw,13600,,,,,,,,,18,,,,,17,,,,,,,,,,,,,,
Raw,13600,,,,,,,,,20,,,,,27,,,,,,,,,,,,,,
Raw,13600,,,,,,,,,24,,,,,11,,,,,,,,,,,,,,
Raw,13600,,,,,,,,,25,,,,,28,,,,,,,,,,,,,,
Raw,13600,,,,,,,,,31,,,,,21,,,,,,,,,,,,,,
Raw,13600,,,,,,,,,32,,,,,31,,,,,,,,,,,,,,
Raw,13700,,,,,,,,,10,,,,,28,,,,,,,,,,,,,,
Raw,13700,,,,,,,,,12,,,,,23,,,,,,,,,,,,,,
Raw,13700,,,,,,,,,14,,,,,14,,,,,,,,,,,,,,
Raw,13700,,,,,,,,,15,,,,,09,,,,,,,,,,,,,,
Raw,13700,,,,,,,,,18,,,,,17,,,,,,,,,,,,,,
Raw,13700,,,,,,,,,20,,,,,28,,,,,,,,,,,,,,
Raw,13700,,,,,,,,,24,,,,,11,,,,,,,,,,,,,,
Raw,13700,,,,,,,,,25,,,,,28,,,,,,,,,,,,,,
Raw,13700,,,,,,,,,31,,,,,20,,,,,,,,,,,,,,
Raw,13700,,,,,,,,,32,,,,,31,,,,,,,,,,,,,,
Raw,13800,,,,,,,,,10,,,,,28,,,,,,,,,,,,,,
Raw,13800,,,,,,,,,12,,,,,23,,,,,,,,,,,,,,
Raw,13800,,,,,,,,,14,,,,,14,,,,,,,,,,,,,,
Raw,13800,,,,,,,,,15,,,,,09,,,,,,,,,,,,,,
Raw,13800,,,,,,,,,18,,,,,17,,,,,,,,,,,,,,
Raw,13800,,,,,,,,,20,,,,,28,,,,,,,,,,,,,,
Raw,13800,,,,,,,,,24,,,,,11,,,,,,,,,,,,,,
Raw,13800,,,,,,,,,25,,,,,28,,,,,,,,,,,,,,
Raw,13800,,,,,,,,,31,,,,,20,,,,,,,,,,,,,,
Raw,13800,,,,,,,,,32,,,,,31,,,,,,,,,,,,,,
Raw,13900,,,,,,,,,10,,,,,28,,,,,,,,,,,,,,
Raw,13900,,,,,,,,,12,,,,,23,,,,,,,,,,,,,,
Raw,13900,,,,,,,,,14,,,,,13,,,,,,,,,,,,,,
Raw,13900,,,,,,,,,15,,,,,09,,,,,,,,,,,,,,
Raw,13900,,,,,,,,,18,,,,,17,,,,,,,,,,,,,,
Raw,13900,,,,,,,,,20,,,,,28,,,,,,,,,,,,,,
Raw,13900,,,,,,,,,24,,,,,11,,,,,,,,,,,,,,
Raw,13900,,,,,,,,,25,,,,,28,,,,,,,,,,,,,,
Raw,13900,,,,,,,,,31,,,,,20,,,,,,,,,,,,,,
Raw,13900,,,,,,,,,32,,,,,31,,,,,,,,,,,,,,
Raw,14000,,,,,,,,,10,,,,,28,,,,,,,,,,,,,,
Raw,14000,,,,,,,,,12,,,,,23,,,,,,,,,,,,,,
Raw,14000,,,,,,,,,14,,,,,13,,,,,,,,,,,,,,
Raw,14000,,,,,,,,,15,,,,,09,,,,,,,,,,,,,,
Raw,14000,,,,,,,,,18,,,,,16,,,,,,,,,,,,,,
Raw,14000,,,,,,,,,20,,,,,28,,,,,,,,,,,,,,
Raw,14000,,,,,,,,,24,,,,,11,,,,,,,,,,,,,,
Raw,14000,,,,,,,,,25,,,,,28,,,,,,,,,,,,,,
Raw,14000,,,,,,,,,31,,,,,20,,,,,,,,,,,,,,
Raw,14000,,,,,,,,,32,,,,,32,,,,,,,,,,,,,,
Raw,14100,,,,,,,,,10,,,,,28,,,,,,,,,,,,,,
Raw,14100,,,,,,,,,12,,,,,23,,,,,,,,,,,,,,
Raw,14100,,,,,,,,,14,,,,,13,,,,,,,,,,,,,,
Raw,14100,,,,,,,,,15,,,,,08,,,,,,,,,,,,,,
Raw,14100,,,,,,,,,18,,,,,17,,,,,,,,,,,,,,
Raw,14100,,,,,,,,,20,,,,,28,,,,,,,,,,,,,,
Raw,14100,,,,,,,,,24,,,,,11,,,,,,,,,,,,,,
Raw,14100,,,,,,,,,25,,,,,28,,,,,,,,,,,,,,
Raw,14100,,,,,,,,,31,,,,,20,,,,,,,,,,,,,,
Raw,14100,,,,,,,,,32,,,,,31,,,,,,,,,,,,,,
Raw,14200,,,,,,,,,10,,,,,28,,,,,,,,,,,,,,
Raw,14200,,,,,,,,,12,,,,,23,,,,,,,,,,,,,,
Raw,14200,,,,,,,,,14,,,,,13,,,,,,,,,,,,,,
Raw,14200,,,,,,,,,15,,,,,08,,,,,,,,,,,,,,
Raw,14200,,,,,,,,,18,,,,,17,,,,,,,,,,,,,,
Raw,14200,,,,,,,,,20,,,,,28,,,,,,,,,,,,,,
Raw,14200,,,,,,,,,24,,,,,11,,,,,,,,,,,,,,
Raw,14200,,,,,,,,,25,,,,,28,,,,,,,,,,,,,,
Raw,14200,,,,,,,,,31,,,,,20,,,,,,,,,,,,,,
Raw,14200,,,,,,,,,32,,,,,32,,,,,,,,,,,,,,
Raw,14300,,,,,,,,,10,,,,,28,,,,,,,,,,,,,,
Raw,14300,,,,,,,,,12,,,,,23,,,,,,,,,,,,,,
Raw,14300,,,,,,,,,14,,,,,13,,,,,,,,,,,,,,
Raw,14300,,,,,,,,,15,,,,,09,,,,,,,,,,,,,,
Raw,14300,,,,,,,,,18,,,,,16,,,,,,,,,,,,,,
Raw,14300,,,,,,,,,20,,,,,28,,,,,,,,,,,,,,
Raw,14300,,,,,,,,,24,,,,,11,,,,,,,,,,,,,,
Raw,14300,,,,,,,,,25,,,,,28,,,,,,,,,,,,,,
Raw,14300,,,,,,,,,31,,,,,20,,,,,,,,,,,,,,
Raw,14300,,,,,,,,,32,,,,,32,,,,,,,,,,,,,,
Raw,14400,,,,,,,,,10,,,,,28,,,,,,,,,,,,,,
Raw,14400,,,,,,,,,12,,,,,23,,,,,,,,,,,,,,
Raw,14400,,,,,,,,,14,,,,,13,,,,,,,,,,,,,,
Raw,14400,,,,,,,,,15,,,,,09,,,,,,,,,,,,,,
Raw,14400,,,,,,,,,18,,,,,17,,,,,,,,,,,,,,
Raw,14400,,,,,,,,,20,,,,,28,,,,,,,,,,,,,,
Raw,14400,,,,,,,,,25,,,,,28,,,,,,,,,,,,,,
Raw,14400,,,,,,,,,31,,,,,21,,,,,,,,,,,,,,
Raw,14400,,,,,,,,,32,,,,,32,,,,,,,,,,,,,,
Raw,14500,,,,,,,,,10,,,,,28,,,,,,,,,,,,,,
Raw,14500,,,,,,,,,12,,,,,23,,,,,,,,,,,,,,
Raw,14500,,,,,,,,,14,,,,,13,,,,,,,,,,,,,,
Raw,14500,,,,,,,,,15,,,,,09,,,,,,,,,,,,,,
Raw,14500,,,,,,,,,18,,,,,16,,,,,,,,,,,,,,
Raw,14500,,,,,,,,,20,,,,,28,,,,,,,,,,,,,,
Raw,14500,,,,,,,,,25,,,,,28,,,,,,,,,,,,,,
Raw,14500,,,,,,,,,31,,,,,21,,,,,,,,,,,,,,
Raw,14500,,,,,,,,,32,,,,,32,,,,,,,,,,,,,,
Raw,14600,,,,,,,,,10,,,,,28,,,,,,,,,,,,,,
Raw,14600,,,,,,,,,12,,,,,23,,,,,,,,,,,,,,
Raw,14600,,,,,,,,,14,,,,,13,,,,,,,,,,,,,,
Raw,14600,,,,,,,,,15,,,,,09,,,,,,,,,,,,,,
Raw,14600,,,,,,,,,18,,,,,16,,,,,,,,,,,,,,
Raw,14600,,,,,,,,,20,,,,,28,,,,,,,,,,,,,,
Raw,14600,,,,,,,,,25,,,,,28,,,,,,,,,,,,,,
Raw,14600,,,,,,,,,31,,,,,21,,,,,,,,,,,,,,
Raw,14600,,,,,,,,,32,,,,,32,,,,,,,,,,,,,,
Raw,14700,,,,,,,,,10,,,,,28,,,,,,,,,,,,,,
Raw,14700,,,,,,,,,12,,,,,23,,,,,,,,,,,,,,
Raw,14700,,,,,,,,,14,,,,,13,,,,,,,,,,,,,,
Raw,14700,,,,,,,,,15,,,,,10,,,,,,,,,,,,,,
Raw,14700,,,,,,,,,18,,,,,16,,,,,,,,,,,,,,
Raw,14700,,,,,,,,,20,,,,,28,,,,,,,,,,,,,,
Raw,14700,,,,,,,,,25,,,,,28,,,,,,,,,,,,,,
Raw,14700,,,,,,,,,31,,,,,21,,,,,,,,,,,,,,
Raw,14700,,,,,,,,,32,,,,,32,,,,,,,,,,,,,,
Raw,14800,,,,,,,,,10,,,,,28,,,,,,,,,,,,,,
Raw,14800,,,,,,,,,12,,,,,23,,,,,,,,,,,,,,
Raw,14800,,,,,,,,,14,,,,,13,,,,,,,,,,,,,,
Raw,14800,,,,,,,,,15,,,,,10,,,,,,,,,,,,,,
Raw,14800,,,,,,,,,18,,,,,16,,,,,,,,,,,,,,
Raw,14800,,,,,,,,,20,,,,,28,,,,,,,,,,,,,,
Raw,14800,,,,,,,,,25,,,,,28,,,,,,,,,,,,,,
Raw,14800,,,,,,,,,31,,,,,21,,,,,,,,,,,,,,
Raw,14800,,,,,,,,,32,,,,,32,,,,,,,,,,,,,,
Raw,14900,,,,,,,,,10,,,,,28,,,,,,,,,,,,,,
Raw,14900,,,,,,,,,12,,,,,23,,,,,,,,,,,,,,
Raw,14900,,,,,,,,,14,,,,,13,,,,,,,,,,,,,,
Raw,14900,,,,,,,,,15,,,,,10,,,,,,,,,,,,,,
Raw,14900,,,,,,,,,18,,,,,16,,,,,,,,,,,,,,
Raw,14900,,,,,,,,,20,,,,,28,,,,,,,,,,,,,,
Raw,14900,,,,,,,,,25,,,,,28,,,,,,,,,,,,,,
Raw,14900,,,,,,,,,31,,,,,21,,,,,,,,,,,,,,
Raw,14900,,,,,,,,,32,,,,,32,,,,,,,,,,,,,,
Raw,15000,,,,,,,,,10,,,,,28,,,,,,,,,,,,,,
Raw,15000,,,,,,,,,12,,,,,23,,,,,,,,,,,,,,
Raw,15000,,,,,,,,,14,,,,,13,,,,,,,,,,,,,,
Raw,15000,,,,,,,,,15,,,,,10,,,,,,,,,,,,,,
Raw,15000,,,,,,,,,18,,,,,16,,,,,,,,,,,,,,
Raw,15000,,,,,,,,,20,,,,,28,,,,,,,,,,,,,,
Raw,15000,,,,,,,,,25,,,,,28,,,,,,,,,,,,,,
Raw,15000,,,,,,,,,31,,,,,21,,,,,,,,,,,,,,
Raw,15000,,,,,,,,,32,,,,,32,,,,,,,,,,,,,,
Raw,15100,,,,,,,,,10,,,,,28,,,,,,,,,,,,,,
Raw,15100,,,,,,,,,12,,,,,23,,,,,,,,,,,,,,
Raw,15100,,,,,,,,,14,,,,,13,,,,,,,,,,,,,,
Raw,15100,,,,,,,,,15,,,,,10,,,,,,,,,,,,,,
Raw,15100,,,,,,,,,18,,,,,15,,,,,,,,,,,,,,
Raw,15100,,,,,,,,,20,,,,,28,,,,,,,,,,,,,,
Raw,15100,,,,,,,,,25,,,,,28,,,,,,,,,,,,,,
Raw,15100,,,,,,,,,31,,,,,21,,,,,,,,,,,,,,
Raw,15100,,,,,,,,,32,,,,,32,,,,,,,,,,,,,,
Raw,15200,,,,,,,,,10,,,,,28,,,,,,,,,,,,,,
Raw,15200,,,,,,,,,12,,,,,23,,,,,,,,,,,,,,
Raw,15200,,,,,,,,,14,,,,,13,,,,,,,,,,,,,,
Raw,15200,,,,,,,,,15,,,,,10,,,,,,,,,,,,,,
Raw,15200,,,,,,,,,18,,,,,15,,,,,,,,,,,,,,
Raw,15200,,,,,,,,,20,,,,,28,,,,,,,,,,,,,,
Raw,15200,,,,,,,,,25,,,,,28,,,,,,,,,,,,,,
Raw,15200,,,,,,,,,31,,,,,21,,,,,,,,,,,,,,
Raw,15200,,,,,,,,,32,,,,,32,,,,,,,,,,,,,,
Raw,15300,,,,,,,,,10,,,,,28,,,,,,,,,,,,,,
Raw,15300,,,,,,,,,12,,,,,23,,,,,,,,,,,,,,
Raw,15300,,,,,,,,,14,,,,,12,,,,,,,,,,,,,,
Raw,15300,,,,,,,,,15,,,,,10,,,,,,,,,,,,,,
Raw,15300,,,,,,,,,18,,,,,15,,,,,,,,,,,,,,
Raw,15300,,,,,,,,,20,,,,,28,,,,,,,,,,,,,,
Raw,15300,,,,,,,,,25,,,,,28,,,,,,,,,,,,,,
Raw,15300,,,,,,,,,31,,,,,21,,,,,,,,,,,,,,
Raw,15300,,,,,,,,,32,,,,,32,,,,,,,,,,,,,,
Raw,15400,,,,,,,,,10,,,,,28,,,,,,,,,,,,,,
Raw,15400,,,,,,,,,12,,,,,23,,,,,,,,,,,,,,
Raw,15400,,,,,,,,,14,,,,,12,,,,,,,,,,,,,,
Raw,15400,,,,,,,,,15,,,,,10,,,,,,,,,,,,,,
Raw,15400,,,,,,,,,18,,,,,15,,,,,,,,,,,,,,
Raw,15400,,,,,,,,,20,,,,,28,,,,,,,,,,,,,,
Raw,15400,,,,,,,,,25,,,,,28,,,,,,,,,,,,,,
Raw,15400,,,,,,,,,31,,,,,21,,,,,,,,,,,,,,
Raw,15400,,,,,,,,,32,,,,,32,,,,,,,,,,,,,,
Raw,15500,,,,,,,,,10,,,,,28,,,,,,,,,,,,,,
Raw,15500,,,,,,,,,12,,,,,23,,,,,,,,,,,,,,
Raw,15500,,,,,,,,,14,,,,,12,,,,,,,,,,,,,,
Raw,15500,,,,,,,,,15,,,,,10,,,,,,,,,,,,,,
Raw,15500,,,,,,,,,18,,,,,15,,,,,,,,,,,,,,
Raw,15500,,,,,,,,,20,,,,,28,,,,,,,,,,,,,,
Raw,15500,,,,,,,,,25,,,,,28,,,,,,,,,,,,,,
Raw,15500,,,,,,,,,31,,,,,21,,,,,,,,,,,,,,
Raw,15500,,,,,,,,,32,,,,,32,,,,,,,,,,,,,,
Raw,15600,,,,,,,,,10,,,,,28,,,,,,,,,,,,,,
Raw,15600,,,,,,,,,12,,,,,23,,,,,,,,,,,,,,
Raw,15600,,,,,,,,,14,,,,,12,,,,,,,,,,,,,,
Raw,15600,,,,,,,,,15,,,,,10,,,,,,,,,,,,,,
Raw,15600,,,,,,,,,18,,,,,14,,,,,,,,,,,,,,
Raw,15600,,,,,,,,,20,,,,,28,,,,,,,,,,,,,,
Raw,15600,,,,,,,,,25,,,,,28,,,,,,,,,,,,,,
Raw,15600,,,,,,,,,31,,,,,21,,,,,,,,,,,,,,
Raw,15600,,,,,,,,,32,,,,,32,,,,,,,,,,,,,,
Raw,15700,,,,,,,,,10,,,,,28,,,,,,,,,,,,,,
Raw,15700,,,,,,,,,12,,,,,23,,,,,,,,,,,,,,
Raw,15700,,,,,,,,,14,,,,,12,,,,,,,,,,,,,,
Raw,15700,,,,,,,,,15,,,,,10,,,,,,,,,,,,,,
Raw,15700,,,,,,,,,18,,,,,14,,,,,,,,,,,,,,
Raw,15700,,,,,,,,,20,,,,,28,,,,,,,,,,,,,,
Raw,15700,,,,,,,,,25,,,,,29,,,,,,,,,,,,,,
Raw,15700,,,,,,,,,31,,,,,22,,,,,,,,,,,,,,
Raw,15700,,,,,,,,,32,,,,,32,,,,,,,,,,,,,,
Raw,15800,,,,,,,,,10,,,,,28,,,,,,,,,,,,,,
Raw,15800,,,,,,,,,12,,,,,23,,,,,,,,,,,,,,
Raw,15800,,,,,,,,,14,,,,,11,,,,,,,,,,,,,,
Raw,15800,,,,,,,,,15,,,,,11,,,,,,,,,,,,,,
Raw,15800,,,,,,,,,18,,,,,14,,,,,,,,,,,,,,
Raw,15800,,,,,,,,,20,,,,,28,,,,,,,,,,,,,,
Raw,15800,,,,,,,,,25,,,,,29,,,,,,,,,,,,,,
Raw,15800,,,,,,,,,31,,,,,22,,,,,,,,,,,,,,
Raw,15800,,,,,,,,,32,,,,,32,,,,,,,,,,,,,,
Raw,15900,,,,,,,,,10,,,,,28,,,,,,,,,,,,,,
Raw,15900,,,,,,,,,12,,,,,23,,,,,,,,,,,,,,
Raw,15900,,,,,,,,,14,,,,,11,,,,,,,,,,,,,,
Raw,15900,,,,,,,,,15,,,,,11,,,,,,,,,,,,,,
Raw,15900,,,,,,,,,18,,,,,14,,,,,,,,,,,,,,
Raw,15900,,,,,,,,,20,,,,,28,,,,,,,,,,,,,,
Raw,15900,,,,,,,,,25,,,,,29,,,,,,,,,,,,,,
Raw,15900,,,,,,,,,31,,,,,22,,,,,,,,,,,,,,
Raw,15900,,,,,,,,,32,,,,,32,,,,,,,,,,,,,,
Raw,16000,,,,,,,,,10,,,,,28,,,,,,,,,,,,,,
Raw,16000,,,,,,,,,12,,,,,23,,,,,,,,,,,,,,
Raw,16000,,,,,,,,,14,,,,,11,,,,,,,,,,,,,,
Raw,16000,,,,,,,,,15,,,,,11,,,,,,,,,,,,,,
Raw,16000,,,,,,,,,18,,,,,14,,,,,,,,,,,,,,
Raw,16000,,,,,,,,,20,,,,,28,,,,,,,,,,,,,,
Raw,16000,,,,,,,,,25,,,,,29,,,,,,,,,,,,,,
Raw,16000,,,,,,,,,31,,,,,22,,,,,,,,,,,,,,
Raw,16000,,,,,,,,,32,,,,,32,,,,,,,,,,,,,,
Raw,16100,,,,,,,,,10,,,,,28,,,,,,,,,,,,,,
Raw,16100,,,,,,,,,12,,,,,23,,,,,,,,,,,,,,
Raw,16100,,,,,,,,,14,,,,,12,,,,,,,,,,,,,,
Raw,16100,,,,,,,,,15,,,,,11,,,,,,,,,,,,,,
Raw,16100,,,,,,,,,18,,,,,14,,,,,,,,,,,,,,
Raw,16100,,,,,,,,,20,,,,,28,,,,,,,,,,,,,,
Raw,16100,,,,,,,,,25,,,,,29,,,,,,,,,,,,,,
Raw,16100,,,,,,,,,31,,,,,22,,,,,,,,,,,,,,
Raw,16100,,,,,,,,,32,,,,,32,,,,,,,,,,,,,,
Raw,16200,,,,,,,,,10,,,,,28,,,,,,,,,,,,,,
Raw,16200,,,,,,,,,12,,,,,23,,,,,,,,,,,,,,
Raw,16200,,,,,,,,,14,,,,,12,,,,,,,,,,,,,,
Raw,16200,,,,,,,,,15,,,,,11,,,,,,,,,,,,,,
Raw,16200,,,,,,,,,18,,,,,14,,,,,,,,,,,,,,
Raw,16200,,,,,,,,,20,,,,,28,,,,,,,,,,,,,,
Raw,16200,,,,,,,,,25,,,,,29,,,,,,,,,,,,,,
Raw,16200,,,,,,,,,31,,,,,22,,,,,,,,,,,,,,
Raw,16200,,,,,,,,,32,,,,,32,,,,,,,,,,,,,,
Raw,16300,,,,,,,,,10,,,,,28,,,,,,,,,,,,,,
Raw,16300,,,,,,,,,12,,,,,23,,,,,,,,,,,,,,
Raw,16300,,,,,,,,,14,,,,,12,,,,,,,,,,,,,,
Raw,16300,,,,,,,,,15,,,,,11,,,,,,,,,,,,,,
Raw,16300,,,,,,,,,18,,,,,15,,,,,,,,,,,,,,
Raw,16300,,,,,,,,,20,,,,,28,,,,,,,,,,,,,,
Raw,16300,,,,,,,,,25,,,,,29,,,,,,,,,,,,,,
Raw,16300,,,,,,,,,31,,,,,22,,,,,,,,,,,,,,
Raw,16300,,,,,,,,,32,,,,,32,,,,,,,,,,,,,,
Raw,16400,,,,,,,,,10,,,,,28,,,,,,,,,,,,,,
Raw,16400,,,,,,,,,12,,,,,23,,,,,,,,,,,,,,
Raw,16400,,,,,,,,,14,,,,,11,,,,,,,,,,,,,,
Raw,16400,,,,,,,,,15,,,,,11,,,,,,,,,,,,,,
Raw,16400,,,,,,,,,18,,,,,15,,,,,,,,,,,,,,
Raw,16400,,,,,,,,,20,,,,,28,,,,,,,,,,,,,,
Raw,16400,,,,,,,,,25,,,,,29,,,,,,,,,,,,,,
Raw,16400,,,,,,,,,31,,,,,22,,,,,,,,,,,,,,
Raw,16400,,,,,,,,,32,,,,,31,,,,,,,,,,,,,,
Raw,16500,,,,,,,,,10,,,,,28,,,,,,,,,,,,,,
Raw,16500,,,,,,,,,12,,,,,23,,,,,,,,,,,,,,
Raw,16500,,,,,,,,,14,,,,,11,,,,,,,,,,,,,,
Raw,16500,,,,,,,,,15,,,,,12,,,,,,,,,,,,,,
Raw,16500,,,,,,,,,18,,,,,15,,,,,,,,,,,,,,
Raw,16500,,,,,,,,,20,,,,,28,,,,,,,,,,,,,,
Raw,16500,,,,,,,,,25,,,,,29,,,,,,,,,,,,,,
Raw,16500,,,,,,,,,31,,,,,22,,,,,,,,,,,,,,
Raw,16500,,,,,,,,,32,,,,,27,,,,,,,,,,,,,,
Raw,16600,,,,,,,,,10,,,,,27,,,,,,,,,,,,,,
Raw,16600,,,,,,,,,12,,,,,23,,,,,,,,,,,,,,
Raw,16600,,,,,,,,,14,,,,,11,,,,,,,,,,,,,,
Raw,16600,,,,,,,,,15,,,,,11,,,,,,,,,,,,,,
Raw,16600,,,,,,,,,18,,,,,15,,,,,,,,,,,,,,
Raw,16600,,,,,,,,,20,,,,,28,,,,,,,,,,,,,,
Raw,16600,,,,,,,,,25,,,,,29,,,,,,,,,,,,,,
Raw,16600,,,,,,,,,31,,,,,22,,,,,,,,,,,,,,
Raw,16600,,,,,,,,,32,,,,,27,,,,,,,,,,,,,,
Raw,16700,,,,,,,,,10,,,,,27,,,,,,,,,,,,,,
Raw,16700,,,,,,,,,12,,,,,23,,,,,,,,,,,,,,
Raw,16700,,,,,,,,,14,,,,,11,,,,,,,,,,,,,,
Raw,16700,,,,,,,,,15,,,,,11,,,,,,,,,,,,,,
Raw,16700,,,,,,,,,18,,,,,15,,,,,,,,,,,,,,
Raw,16700,,,,,,,,,20,,,,,28,,,,,,,,,,,,,,
Raw,16700,,,,,,,,,25,,,,,29,,,,,,,,,,,,,,
Raw,16700,,,,,,,,,31,,,,,22,,,,,,,,,,,,,,
Raw,16700,,,,,,,,,32,,,,,27,,,,,,,,,,,,,,
Raw,16800,,,,,,,,,10,,,,,27,,,,,,,,,,,,,,
Raw,16800,,,,,,,,,12,,,,,23,,,,,,,,,,,,,,
Raw,16800,,,,,,,,,14,,,,,11,,,,,,,,,,,,,,
Raw,16800,,,,,,,,,15,,,,,11,,,,,,,,,,,,,,
Raw,16800,,,,,,,,,18,,,,,15,,,,,,,,,,,,,,
Raw,16800,,,,,,,,,20,,,,,28,,,,,,,,,,,,,,
Raw,16800,,,,,,,,,25,,,,,29,,,,,,,,,,,,,,
Raw,16800,,,,,,,,,31,,,,,23,,,,,,,,,,,,,,
Raw,16800,,,,,,,,,32,,,,,27,,,,,,,,,,,,,,
Raw,16900,,,,,,,,,10,,,,,27,,,,,,,,,,,,,,
Raw,16900,,,,,,,,,12,,,,,23,,,,,,,,,,,,,,
Raw,16900,,,,,,,,,14,,,,,11,,,,,,,,,,,,,,
Raw,16900,,,,,,,,,15,,,,,11,,,,,,,,,,,,,,
Raw,16900,,,,,,,,,18,,,,,15,,,,,,,,,,,,,,
Raw,16900,,,,,,,,,20,,,,,28,,,,,,,,,,,,,,
Raw,16900,,,,,,,,,25,,,,,29,,,,,,,,,,,,,,
Raw,16900,,,,,,,,,31,,,,,23,,,,,,,,,,,,,,
Raw,16900,,,,,,,,,32,,,,,27,,,,,,,,,,,,,,
Raw,17000,,,,,,,,,10,,,,,27,,,,,,,,,,,,,,
Raw,17000,,,,,,,,,12,,,,,23,,,,,,,,,,,,,,
Raw,17000,,,,,,,,,14,,,,,11,,,,,,,,,,,,,,
Raw,17000,,,,,,,,,15,,,,,11,,,,,,,,,,,,,,
Raw,17000,,,,,,,,,18,,,,,15,,,,,,,,,,,,,,
Raw,17000,,,,,,,,,20,,,,,28,,,,,,,,,,,,,,
Raw,17000,,,,,,,,,25,,,,,29,,,,,,,,,,,,,,
Raw,17000,,,,,,,,,31,,,,,23,,,,,,,,,,,,,,
Raw,17000,,,,,,,,,32,,,,,27,,,,,,,,,,,,,,
Raw,17100,,,,,,,,,10,,,,,26,,,,,,,,,,,,,,
Raw,17100,,,,,,,,,12,,,,,23,,,,,,,,,,,,,,
Raw,17100,,,,,,,,,14,,,,,11,,,,,,,,,,,,,,
Raw,17100,,,,,,,,,15,,,,,11,,,,,,,,,,,,,,
Raw,17100,,,,,,,,,18,,,,,15,,,,,,,,,,,,,,
Raw,17100,,,,,,,,,20,,,,,28,,,,,,,,,,,,,,
Raw,17100,,,,,,,,,25,,,,,29,,,,,,,,,,,,,,
Raw,17100,,,,,,,,,31,,,,,24,,,,,,,,,,,,,,
Raw,17100,,,,,,,,,32,,,,,27,,,,,,,,,,,,,,
Raw,17200,,,,,,,,,10,,,,,26,,,,,,,,,,,,,,
Raw,17200,,,,,,,,,12,,,,,23,,,,,,,,,,,,,,
Raw,17200,,,,,,,,,14,,,,,11,,,,,,,,,,,,,,
Raw,17200,,,,,,,,,15,,,,,10,,,,,,,,,,,,,,
Raw,17200,,,,,,,,,18,,,,,14,,,,,,,,,,,,,,
Raw,17200,,,,,,,,,20,,,,,28,,,,,,,,,,,,,,
Raw,17200,,,,,,,,,25,,,,,29,,,,,,,,,,,,,,
Raw,17200,,,,,,,,,31,,,,,24,,,,,,,,,,,,,,
Raw,17200,,,,,,,,,32,,,,,27,,,,,,,,,,,,,,
Raw,17300,,,,,,,,,10,,,,,26,,,,,,,,,,,,,,
Raw,17300,,,,,,,,,12,,,,,23,,,,,,,,,,,,,,
Raw,17300,,,,,,,,,14,,,,,11,,,,,,,,,,,,,,
Raw,17300,,,,,,,,,15,,,,,10,,,,,,,,,,,,,,
Raw,17300,,,,,,,,,18,,,,,14,,,,,,,,,,,,,,
Raw,17300,,,,,,,,,20,,,,,28,,,,,,,,,,,,,,
Raw,17300,,,,,,,,,25,,,,,29,,,,,,,,,,,,,,
Raw,17300,,,,,,,,,31,,,,,25,,,,,,,,,,,,,,
Raw,17300,,,,,,,,,32,,,,,27,,,,,,,,,,,,,,
Raw,17400,,,,,,,,,10,,,,,26,,,,,,,,,,,,,,
Raw,17400,,,,,,,,,12,,,,,23,,,,,,,,,,,,,,
Raw,17400,,,,,,,,,14,,,,,11,,,,,,,,,,,,,,
Raw,17400,,,,,,,,,15,,,,,10,,,,,,,,,,,,,,
Raw,17400,,,,,,,,,18,,,,,14,,,,,,,,,,,,,,
Raw,17400,,,,,,,,,20,,,,,28,,,,,,,,,,,,,,
Raw,17400,,,,,,,,,25,,,,,29,,,,,,,,,,,,,,
Raw,17400,,,,,,,,,31,,,,,25,,,,,,,,,,,,,,
Raw,17400,,,,,,,,,32,,,,,28,,,,,,,,,,,,,,
Raw,17500,,,,,,,,,10,,,,,26,,,,,,,,,,,,,,
Raw,17500,,,,,,,,,12,,,,,23,,,,,,,,,,,,,,
Raw,17500,,,,,,,,,14,,,,,11,,,,,,,,,,,,,,
Raw,17500,,,,,,,,,15,,,,,10,,,,,,,,,,,,,,
Raw,17500,,,,,,,,,18,,,,,15,,,,,,,,,,,,,,
Raw,17500,,,,,,,,,20,,,,,28,,,,,,,,,,,,,,
Raw,17500,,,,,,,,,25,,,,,29,,,,,,,,,,,,,,
Raw,17500,,,,,,,,,31,,,,,25,,,,,,,,,,,,,,
Raw,17500,,,,,,,,,32,,,,,28,,,,,,,,,,,,,,
Raw,17600,,,,,,,,,10,,,,,26,,,,,,,,,,,,,,
Raw,17600,,,,,,,,,12,,,,,23,,,,,,,,,,,,,,
Raw,17600,,,,,,,,,14,,,,,11,,,,,,,,,,,,,,
Raw,17600,,,,,,,,,15,,,,,10,,,,,,,,,,,,,,
Raw,17600,,,,,,,,,18,,,,,15,,,,,,,,,,,,,,
Raw,17600,,,,,,,,,20,,,,,28,,,,,,,,,,,,,,
Raw,17600,,,,,,,,,21,,,,,21,,,,,,,,,,,,,,
Raw,17600,,,,,,,,,25,,,,,29,,,,,,,,,,,,,,
Raw,17600,,,,,,,,,31,,,,,25,,,,,,,,,,,,,,
Raw,17600,,,,,,,,,32,,,,,28,,,,,,,,,,,,,,
Raw,17700,,,,,,,,,10,,,,,26,,,,,,,,,,,,,,
Raw,17700,,,,,,,,,12,,,,,23,,,,,,,,,,,,,,
Raw,17700,,,,,,,,,14,,,,,11,,,,,,,,,,,,,,
Raw,17700,,,,,,,,,15,,,,,10,,,,,,,,,,,,,,
Raw,17700,,,,,,,,,18,,,,,15,,,,,,,,,,,,,,
Raw,17700,,,,,,,,,20,,,,,28,,,,,,,,,,,,,,
Raw,17700,,,,,,,,,21,,,,,21,,,,,,,,,,,,,,
Raw,17700,,,,,,,,,25,,,,,29,,,,,,,,,,,,,,
Raw,17700,,,,,,,,,31,,,,,25,,,,,,,,,,,,,,
Raw,17700,,,,,,,,,32,,,,,28,,,,,,,,,,,,,,
Raw,17800,,,,,,,,,10,,,,,26,,,,,,,,,,,,,,
Raw,17800,,,,,,,,,12,,,,,23,,,,,,,,,,,,,,
Raw,17800,,,,,,,,,14,,,,,11,,,,,,,,,,,,,,
Raw,17800,,,,,,,,,15,,,,,09,,,,,,,,,,,,,,
Raw,17800,,,,,,,,,18,,,,,15,,,,,,,,,,,,,,
Raw,17800,,,,,,,,,20,,,,,28,,,,,,,,,,,,,,
Raw,17800,,,,,,,,,21,,,,,21,,,,,,,,,,,,,,
Raw,17800,,,,,,,,,25,,,,,29,,,,,,,,,,,,,,
Raw,17800,,,,,,,,,31,,,,,26,,,,,,,,,,,,,,
Raw,17800,,,,,,,,,32,,,,,28,,,,,,,,,,,,,,
Raw,17900,,,,,,,,,01,,,,,22,,,,,,,,,,,,,,
Raw,17900,,,,,,,,,10,,,,,26,,,,,,,,,,,,,,
Raw,17900,,,,,,,,,12,,,,,23,,,,,,,,,,,,,,
Raw,17900,,,,,,,,,14,,,,,11,,,,,,,,,,,,,,
Raw,17900,,,,,,,,,15,,,,,10,,,,,,,,,,,,,,
Raw,17900,,,,,,,,,18,,,,,15,,,,,,,,,,,,,,
Raw,17900,,,,,,,,,20,,,,,28,,,,,,,,,,,,,,
Raw,17900,,,,,,,,,21,,,,,21,,,,,,,,,,,,,,
Raw,17900,,,,,,,,,25,,,,,29,,,,,,,,,,,,,,
Raw,17900,,,,,,,,,31,,,,,26,,,,,,,,,,,,,,
Raw,17900,,,,,,,,,32,,,,,28,,,,,,,,,,,,,,
Raw,18000,,,,,,,,,01,,,,,22,,,,,,,,,,,,,,
Raw,18000,,,,,,,,,10,,,,,26,,,,,,,,,,,,,,
Raw,18000,,,,,,,,,12,,,,,23,,,,,,,,,,,,,,
Raw,18000,,,,,,,,,14,,,,,11,,,,,,,,,,,,,,
Raw,18000,,,,,,,,,15,,,,,10,,,,,,,,,,,,,,
Raw,18000,,,,,,,,,18,,,,,15,,,,,,,,,,,,,,
Raw,18000,,,,,,,,,20,,,,,28,,,,,,,,,,,,,,
Raw,18000,,,,,,,,,21,,,,,21,,,,,,,,,,,,,,
Raw,18000,,,,,,,,,25,,,,,29,,,,,,,,,,,,,,
Raw,18000,,,,,,,,,31,,,,,26,,,,,,,,,,,,,,
Raw,18000,,,,,,,,,32,,,,,28,,,,,,,,,,,,,,
Raw,18100,,,,,,,,,01,,,,,21,,,,,,,,,,,,,,
Raw,18100,,,,,,,,,10,,,,,26,,,,,,,,,,,,,,
Raw,18100,,,,,,,,,12,,,,,23,,,,,,,,,,,,,,
Raw,18100,,,,,,,,,14,,,,,12,,,,,,,,,,,,,,
Raw,18100,,,,,,,,,15,,,,,10,,,,,,,,,,,,,,
Raw,18100,,,,,,,,,18,,,,,15,,,,,,,,,,,,,,
Raw,18100,,,,,,,,,20,,,,,28,,,,,,,,,,,,,,
Raw,18100,,,,,,,,,21,,,,,21,,,,,,,,,,,,,,
Raw,18100,,,,,,,,,25,,,,,29,,,,,,,,,,,,,,
Raw,18100,,,,,,,,,31,,,,,25,,,,,,,,,,,,,,
Raw,18100,,,,,,,,,32,,,,,28,,,,,,,,,,,,,,
Raw,18200,,,,,,,,,01,,,,,21,,,,,,,,,,,,,,
Raw,18200,,,,,,,,,10,,,,,26,,,,,,,,,,,,,,
Raw,18200,,,,,,,,,12,,,,,23,,,,,,,,,,,,,,
Raw,18200,,,,,,,,,14,,,,,12,,,,,,,,,,,,,,
Raw,18200,,,,,,,,,15,,,,,10,,,,,,,,,,,,,,
Raw,18200,,,,,,,,,18,,,,,14,,,,,,,,,,,,,,
Raw,18200,,,,,,,,,20,,,,,27,,,,,,,,,,,,,,
Raw,18200,,,,,,,,,21,,,,,20,,,,,,,,,,,,,,
Raw,18200,,,,,,,,,25,,,,,29,,,,,,,,,,,,,,
Raw,18200,,,,,,,,,31,,,,,25,,,,,,,,,,,,,,
Raw,18200,,,,,,,,,32,,,,,28,,,,,,,,,,,,,,
Raw,18300,,,,,,,,,01,,,,,21,,,,,,,,,,,,,,
Raw,18300,,,,,,,,,10,,,,,26,,,,,,,,,,,,,,
Raw,18300,,,,,,,,,12,,,,,23,,,,,,,,,,,,,,
Raw,18300,,,,,,,,,15,,,,,10,,,,,,,,,,,,,,
Raw,18300,,,,,,,,,18,,,,,14,,,,,,,,,,,,,,
Raw,18300,,,,,,,,,20,,,,,27,,,,,,,,,,,,,,
Raw,18300,,,,,,,,,21,,,,,20,,,,,,,,,,,,,,
Raw,18300,,,,,,,,,25,,,,,28,,,,,,,,,,,,,,
Raw,18300,,,,,,,,,31,,,,,25,,,,,,,,,,,,,,
Raw,18300,,,,,,,,,32,,,,,28,,,,,,,,,,,,,,
Raw,18400,,,,,,,,,01,,,,,21,,,,,,,,,,,,,,
Raw,18400,,,,,,,,,10,,,,,26,,,,,,,,,,,,,,
Raw,18400,,,,,,,,,12,,,,,23,,,,,,,,,,,,,,
Raw,18400,,,,,,,,,15,,,,,10,,,,,,,,,,,,,,
Raw,18400,,,,,,,,,18,,,,,14,,,,,,,,,,,,,,
Raw,18400,,,,,,,,,20,,,,,27,,,,,,,,,,,,,,
Raw,18400,,,,,,,,,21,,,,,20,,,,,,,,,,,,,,
Raw,18400,,,,,,,,,25,,,,,28,,,,,,,,,,,,,,
Raw,18400,,,,,,,,,31,,,,,24,,,,,,,,,,,,,,
Raw,18400,,,,,,,,,32,,,,,29,,,,,,,,,,,,,,
Raw,18500,,,,,,,,,01,,,,,21,,,,,,,,,,,,,,
Raw,18500,,,,,,,,,10,,,,,26,,,,,,,,,,,,,,
Raw,18500,,,,,,,,,12,,,,,23,,,,,,,,,,,,,,
Raw,18500,,,,,,,,,15,,,,,10,,,,,,,,,,,,,,
Raw,18500,,,,,,,,,18,,,,,14,,,,,,,,,,,,,,
Raw,18500,,,,,,,,,20,,,,,27,,,,,,,,,,,,,,
Raw,18500,,,,,,,,,21,,,,,20,,,,,,,,,,,,,,
Raw,18500,,,,,,,,,25,,,,,28,,,,,,,,,,,,,,
Raw,18500,,,,,,,,,31,,,,,24,,,,,,,,,,,,,,
Raw,18500,,,,,,,,,32,,,,,29,,,,,,,,,,,,,,
Raw,18600,,,,,,,,,01,,,,,20,,,,,,,,,,,,,,
Raw,18600,,,,,,,,,10,,,,,26,,,,,,,,,,,,,,
Raw,18600,,,,,,,,,12,,,,,22,,,,,,,,,,,,,,
Raw,18600,,,,,,,,,15,,,,,10,,,,,,,,,,,,,,
Raw,18600,,,,,,,,,18,,,,,14,,,,,,,,,,,,,,
Raw,18600,,,,,,,,,20,,,,,27,,,,,,,,,,,,,,
Raw,18600,,,,,,,,,21,,,,,19,,,,,,,,,,,,,,
Raw,18600,,,,,,,,,25,,,,,28,,,,,,,,,,,,,,
Raw,18600,,,,,,,,,31,,,,,24,,,,,,,,,,,,,,
Raw,18600,,,,,,,,,32,,,,,29,,,,,,,,,,,,,,
Raw,18700,,,,,,,,,01,,,,,20,,,,,,,,,,,,,,
Raw,18700,,,,,,,,,10,,,,,26,,,,,,,,,,,,,,
Raw,18700,,,,,,,,,12,,,,,22,,,,,,,,,,,,,,
Raw,18700,,,,,,,,,15,,,,,10,,,,,,,,,,,,,,
Raw,18700,,,,,,,,,18,,,,,14,,,,,,,,,,,,,,
Raw,18700,,,,,,,,,20,,,,,27,,,,,,,,,,,,,,
Raw,18700,,,,,,,,,21,,,,,19,,,,,,,,,,,,,,
Raw,18700,,,,,,,,,25,,,,,28,,,,,,,,,,,,,,
Raw,18700,,,,,,,,,31,,,,,24,,,,,,,,,,,,,,
Raw,18700,,,,,,,,,32,,,,,29,,,,,,,,,,,,,,
Raw,18800,,,,,,,,,01,,,,,20,,,,,,,,,,,,,,
Raw,18800,,,,,,,,,10,,,,,26,,,,,,,,,,,,,,
Raw,18800,,,,,,,,,12,,,,,22,,,,,,,,,,,,,,
Raw,18800,,,,,,,,,15,,,,,10,,,,,,,,,,,,,,
Raw,18800,,,,,,,,,18,,,,,14,,,,,,,,,,,,,,
Raw,18800,,,,,,,,,20,,,,,27,,,,,,,,,,,,,,
Raw,18800,,,,,,,,,21,,,,,19,,,,,,,,,,,,,,
Raw,18800,,,,,,,,,25,,,,,28,,,,,,,,,,,,,,
Raw,18800,,,,,,,,,31,,,,,24,,,,,,,,,,,,,,
Raw,18800,,,,,,,,,32,,,,,29,,,,,,,,,,,,,,
Raw,18900,,,,,,,,,01,,,,,20,,,,,,,,,,,,,,
Raw,18900,,,,,,,,,10,,,,,26,,,,,,,,,,,,,,
Raw,18900,,,,,,,,,12,,,,,22,,,,,,,,,,,,,,
Raw,18900,,,,,,,,,15,,,,,10,,,,,,,,,,,,,,
Raw,18900,,,,,,,,,18,,,,,14,,,,,,,,,,,,,,
Raw,18900,,,,,,,,,20,,,,,27,,,,,,,,,,,,,,
Raw,18900,,,,,,,,,21,,,,,19,,,,,,,,,,,,,,
Raw,18900,,,,,,,,,25,,,,,28,,,,,,,,,,,,,,
Raw,18900,,,,,,,,,31,,,,,23,,,,,,,,,,,,,,
Raw,18900,,,,,,,,,32,,,,,29,,,,,,,,,,,,,,
Raw,19000,,,,,,,,,01,,,,,19,,,,,,,,,,,,,,
Raw,19000,,,,,,,,,10,,,,,26,,,,,,,,,,,,,,
Raw,19000,,,,,,,,,12,,,,,22,,,,,,,,,,,,,,
Raw,19000,,,,,,,,,15,,,,,10,,,,,,,,,,,,,,
Raw,19000,,,,,,,,,18,,,,,13,,,,,,,,,,,,,,
Raw,19000,,,,,,,,,20,,,,,27,,,,,,,,,,,,,,
Raw,19000,,,,,,,,,21,,,,,19,,,,,,,,,,,,,,
Raw,19000,,,,,,,,,25,,,,,28,,,,,,,,,,,,,,
Raw,19000,,,,,,,,,31,,,,,23,,,,,,,,,,,,,,
Raw,19000,,,,,,,,,32,,,,,29,,,,,,,,,,,,,,
Raw,19100,,,,,,,,,01,,,,,19,,,,,,,,,,,,,,
Raw,19100,,,,,,,,,10,,,,,26,,,,,,,,,,,,,,
Raw,19100,,,,,,,,,12,,,,,22,,,,,,,,,,,,,,
Raw,19100,,,,,,,,,15,,,,,10,,,,,,,,,,,,,,
Raw,19100,,,,,,,,,18,,,,,13,,,,,,,,,,,,,,
Raw,19100,,,,,,,,,20,,,,,27,,,,,,,,,,,,,,
Raw,19100,,,,,,,,,21,,,,,19,,,,,,,,,,,,,,
Raw,19100,,,,,,,,,25,,,,,28,,,,,,,,,,,,,,
Raw,19100,,,,,,,,,31,,,,,23,,,,,,,,,,,,,,
Raw,19100,,,,,,,,,32,,,,,29,,,,,,,,,,,,,,
Raw,19200,,,,,,,,,01,,,,,19,,,,,,,,,,,,,,
Raw,19200,,,,,,,,,10,,,,,26,,,,,,,,,,,,,,
Raw,19200,,,,,,,,,12,,,,,23,,,,,,,,,,,,,,
Raw,19200,,,,,,,,,15,,,,,10,,,,,,,,,,,,,,
Raw,19200,,,,,,,,,18,,,,,13,,,,,,,,,,,,,,
Raw,19200,,,,,,,,,20,,,,,27,,,,,,,,,,,,,,
Raw,19200,,,,,,,,,21,,,,,19,,,,,,,,,,,,,,
Raw,19200,,,,,,,,,25,,,,,28,,,,,,,,,,,,,,
Raw,19200,,,,,,,,,31,,,,,23,,,,,,,,,,,,,,
Raw,19200,,,,,,,,,32,,,,,29,,,,,,,,,,,,,,
Raw,19300,,,,,,,,,01,,,,,19,,,,,,,,,,,,,,
Raw,19300,,,,,,,,,10,,,,,26,,,,,,,,,,,,,,
Raw,19300,,,,,,,,,12,,,,,23,,,,,,,,,,,,,,
Raw,19300,,,,,,,,,15,,,,,10,,,,,,,,,,,,,,
Raw,19300,,,,,,,,,20,,,,,27,,,,,,,,,,,,,,
Raw,19300,,,,,,,,,21,,,,,18,,,,,,,,,,,,,,
Raw,19300,,,,,,,,,25,,,,,28,,,,,,,,,,,,,,
Raw,19300,,,,,,,,,31,,,,,23,,,,,,,,,,,,,,
Raw,19300,,,,,,,,,32,,,,,29,,,,,,,,,,,,,,
Raw,19400,,,,,,,,,01,,,,,19,,,,,,,,,,,,,,
Raw,19400,,,,,,,,,10,,,,,26,,,,,,,,,,,,,,
Raw,19400,,,,,,,,,12,,,,,22,,,,,,,,,,,,,,
Raw,19400,,,,,,,,,15,,,,,10,,,,,,,,,,,,,,
Raw,19400,,,,,,,,,20,,,,,27,,,,,,,,,,,,,,
Raw,19400,,,,,,,,,21,,,,,18,,,,,,,,,,,,,,
Raw,19400,,,,,,,,,25,,,,,27,,,,,,,,,,,,,,
Raw,19400,,,,,,,,,31,,,,,23,,,,,,,,,,,,,,
Raw,19400,,,,,,,,,32,,,,,29,,,,,,,,,,,,,,
Raw,19500,,,,,,,,,01,,,,,19,,,,,,,,,,,,,,
Raw,19500,,,,,,,,,10,,,,,26,,,,,,,,,,,,,,
Raw,19500,,,,,,,,,12,,,,,23,,,,,,,,,,,,,,
Raw,19500,,,,,,,,,15,,,,,10,,,,,,,,,,,,,,
Raw,19500,,,,,,,,,20,,,,,27,,,,,,,,,,,,,,
Raw,19500,,,,,,,,,21,,,,,18,,,,,,,,,,,,,,
Raw,19500,,,,,,,,,25,,,,,27,,,,,,,,,,,,,,
Raw,19500,,,,,,,,,31,,,,,23,,,,,,,,,,,,,,
Raw,19500,,,,,,,,,32,,,,,29,,,,,,,,,,,,,,
Raw,19600,,,,,,,,,01,,,,,18,,,,,,,,,,,,,,
Raw,19600,,,,,,,,,10,,,,,26,,,,,,,,,,,,,,
Raw,19600,,,,,,,,,12,,,,,23,,,,,,,,,,,,,,
Raw,19600,,,,,,,,,15,,,,,10,,,,,,,,,,,,,,
Raw,19600,,,,,,,,,20,,,,,27,,,,,,,,,,,,,,
Raw,19600,,,,,,,,,21,,,,,18,,,,,,,,,,,,,,
Raw,19600,,,,,,,,,25,,,,,27,,,,,,,,,,,,,,
Raw,19600,,,,,,,,,31,,,,,23,,,,,,,,,,,,,,
Raw,19600,,,,,,,,,32,,,,,29,,,,,,,,,,,,,,
Raw,19700,,,,,,,,,01,,,,,18,,,,,,,,,,,,,,
Raw,19700,,,,,,,,,10,,,,,26,,,,,,,,,,,,,,
Raw,19700,,,,,,,,,12,,,,,23,,,,,,,,,,,,,,
