# 
# Header Description:
# 
# Version: v2.0.0.1 Platform: 8.0.0 Manufacturer: Xiaomi Model: MIX 2
# 
# Raw,ElapsedRealtimeMillis,TimeNanos,LeapSecond,TimeUncertaintyNanos,FullBiasNanos,BiasNanos,BiasUncertaintyNanos,DriftNanosPerSecond,DriftUncertaintyNanosPerSecond,HardwareClockDiscontinuityCount,Svid,TimeOffsetNanos,State,ReceivedSvTimeNanos,ReceivedSvTimeUncertaintyNanos,Cn0DbHz,PseudorangeRateMetersPerSecond,PseudorangeRateUncertaintyMetersPerSecond,AccumulatedDeltaRangeState,AccumulatedDeltaRangeMeters,AccumulatedDeltaRangeUncertaintyMeters,CarrierFrequencyHz,CarrierCycles,CarrierPhase,CarrierPhaseUncertainty,MultipathIndicator,SnrInDb,ConstellationType,AgcDb,CarrierFrequencyHz
# 
# Fix,Provider,Latitude,Longitude,Altitude,Speed,Accuracy,(UTC)TimeInMs
# 
# Nav,Svid,Type,Status,MessageId,Sub-messageId,Data(Bytes)
# 
Raw,579566,254700000000,,,-1221746219740051456,0.0,39.901180571177974,7.675258531847302,10.461248919912995,8,14,0.0,207,61256368295822,13,31.4,-575.8143310546875,0.23720000684261322,0,0.0,0.0,,,,,0,,3,,
Raw,579567,254700000000,,,-1221746219740051456,0.0,39.901180571177974,7.675258531847302,10.461248919912995,8,2,0.0,207,61256374206688,16,29.4,256.6929931640625,0.24770000576972961,0,0.0,0.0,,,,,0,,3,,
Raw,579567,254700000000,,,-1221746219740051456,0.0,39.901180571177974,7.675258531847302,10.461248919912995,8,13,0.0,207,61256375855394,1250,17.0,34.44792556762695,23.724000930786133,0,0.0,0.0,,,,,0,,3,,
Raw,579567,254700000000,,,-1221746219740051456,0.0,39.901180571177974,7.675258531847302,10.461248919912995,8,12,0.0,207,61256366737479,27,24.7,697.8425903320312,0.875499963760376,0,0.0,0.0,,,,,0,,3,,
Raw,579568,254700000000,,,-1221746219740051456,0.0,39.901180571177974,7.675258531847302,10.461248919912995,8,3,0.0,207,61256373479458,16,29.7,-441.2638854980469,0.24619999527931213,0,0.0,0.0,,,,,0,,3,,
Raw,579568,254700000000,,,-1221746219740051456,0.0,39.901180571177974,7.675258531847302,10.461248919912995,8,1,0.0,15,50474357921747,41,21.3,127.48724365234375,1.2230000495910645,0,0.0,0.0,,,,,0,,1,,
Raw,579568,254700000000,,,-1221746219740051456,0.0,39.901180571177974,7.675258531847302,10.461248919912995,8,10,0.0,15,50474367037591,13,31.8,585.8408203125,0.0357000008225441,0,0.0,0.0,,,,,0,,1,,
Raw,579569,254700000000,,,-1221746219740051456,0.0,39.901180571177974,7.675258531847302,10.461248919912995,8,14,0.0,15,50474369730275,9,35.0,-146.4502410888672,0.035100001841783524,0,0.0,0.0,,,,,0,,1,,
Raw,579569,254700000000,,,-1221746219740051456,0.0,39.901180571177974,7.675258531847302,10.461248919912995,8,16,0.0,15,50474356451022,84,16.4,-756.22705078125,2.0304999351501465,0,0.0,0.0,,,,,0,,1,,
Raw,579570,254700000000,,,-1221746219740051456,0.0,39.901180571177974,7.675258531847302,10.461248919912995,8,20,0.0,15,50474358981199,41,21.2,713.4395141601562,1.221500039100647,0,0.0,0.0,,,,,0,,1,,
Raw,579570,254700000000,,,-1221746219740051456,0.0,39.901180571177974,7.675258531847302,10.461248919912995,8,25,0.0,15,50474366295210,13,31.6,367.67486572265625,0.03420000150799751,0,0.0,0.0,,,,,0,,1,,
Raw,579570,254700000000,,,-1221746219740051456,0.0,39.901180571177974,7.675258531847302,10.461248919912995,8,26,0.0,15,50474365098989,12,32.5,-636.8606567382812,0.03140000253915787,0,0.0,0.0,,,,,0,,1,,
Raw,579571,254700000000,,,-1221746219740051456,0.0,39.901180571177974,7.675258531847302,10.461248919912995,8,29,0.0,15,50474355929622,809,17.9,-392.0525207519531,5.89900016784668,0,0.0,0.0,,,,,0,,1,,
Raw,579571,254700000000,,,-1221746219740051456,0.0,39.901180571177974,7.675258531847302,10.461248919912995,8,31,0.0,15,50474371948982,31,23.9,-0.44719016551971436,0.6829999685287476,0,0.0,0.0,,,,,0,,1,,
Raw,579571,254700000000,,,-1221746219740051456,0.0,39.901180571177974,7.675258531847302,10.461248919912995,8,32,0.0,15,50474370004237,5,41.3,67.73191833496094,0.0340999998152256,0,0.0,0.0,,,,,0,,1,,
Raw,579571,254700000000,,,-1221746219740051456,0.0,39.901180571177974,7.675258531847302,10.461248919912995,8,2,0.0,783,50460315938022,21,27.1,9.083467483520508,1.165000081062317,0,0.0,0.0,,,,,0,,5,,
Raw,579572,254700000000,,,-1221746219740051456,0.0,39.901180571177974,7.675258531847302,10.461248919912995,8,3,0.0,783,50460316501084,55,26.0,-4.628151893615723,4.0985002517700195,0,0.0,0.0,,,,,0,,5,,
Raw,579572,254700000000,,,-1221746219740051456,0.0,39.901180571177974,7.675258531847302,10.461248919912995,8,4,0.0,783,50460307814305,6,38.7,-1.6035298109054565,0.1850000023841858,0,0.0,0.0,,,,,0,,5,,
Raw,579572,254700000000,,,-1221746219740051456,0.0,39.901180571177974,7.675258531847302,10.461248919912995,8,5,0.0,783,50460310828413,1393,22.0,8.776205062866211,25.01850128173828,0,0.0,0.0,,,,,0,,5,,
Raw,579572,254700000000,,,-1221746219740051456,0.0,39.901180571177974,7.675258531847302,10.461248919912995,8,6,0.0,15,50460318945338,11,33.7,-38.655731201171875,0.04990000277757645,0,0.0,0.0,,,,,0,,5,,
Raw,579573,254700000000,,,-1221746219740051456,0.0,39.901180571177974,7.675258531847302,10.461248919912995,8,7,0.0,15,50460319103280,12,32.6,-99.57150268554688,0.052400000393390656,0,0.0,0.0,,,,,0,,5,,
Raw,579573,254700000000,,,-1221746219740051456,0.0,39.901180571177974,7.675258531847302,10.461248919912995,8,9,0.0,15,50460319505184,17,28.7,-88.24774169921875,0.03180000185966492,0,0.0,0.0,,,,,0,,5,,
Raw,579573,254700000000,,,-1221746219740051456,0.0,39.901180571177974,7.675258531847302,10.461248919912995,8,10,0.0,15,50460316625374,13,31.4,-158.6748809814453,0.04920000210404396,0,0.0,0.0,,,,,0,,5,,
Raw,579573,254700000000,,,-1221746219740051456,0.0,39.901180571177974,7.675258531847302,10.461248919912995,8,16,0.0,15,50460320116657,10,34.5,-37.874542236328125,0.022099999710917473,0,0.0,0.0,,,,,0,,5,,
Raw,579574,254700000000,,,-1221746219740051456,0.0,39.901180571177974,7.675258531847302,10.461248919912995,8,5,0.0,7183,50474354639725,2897,30.4,334.5648193359375,36.16850280761719,0,0.0,0.0,,,,,0,,6,,
Raw,580573,255700000000,,,-1221746219740051456,0.0,41.54804992140271,6.887659762824304,11.456639718129784,8,14,0.0,207,61257368297785,13,31.7,-579.1236572265625,0.23720000684261322,0,0.0,0.0,,,,,0,,3,,
Raw,580574,255700000000,,,-1221746219740051456,0.0,41.54804992140271,6.887659762824304,11.456639718129784,8,2,0.0,207,61257374205873,14,30.6,253.42262268066406,0.2468000054359436,0,0.0,0.0,,,,,0,,3,,
Raw,580574,255700000000,,,-1221746219740051456,0.0,41.54804992140271,6.887659762824304,11.456639718129784,8,13,0.0,207,61257375855279,1409,17.0,34.44792556762695,25.224000930786133,0,0.0,0.0,,,,,0,,3,,
Raw,580574,255700000000,,,-1221746219740051456,0.0,41.54804992140271,6.887659762824304,11.456639718129784,8,12,0.0,207,61257366735159,31,23.7,694.0049438476562,0.9354999661445618,0,0.0,0.0,,,,,0,,3,,
Raw,580575,255700000000,,,-1221746219740051456,0.0,41.54804992140271,6.887659762824304,11.456639718129784,8,3,0.0,207,61257373480959,19,27.4,-444.5443420410156,0.26080000400543213,0,0.0,0.0,,,,,0,,3,,
Raw,580575,255700000000,,,-1221746219740051456,0.0,41.54804992140271,6.887659762824304,11.456639718129784,8,1,0.0,15,50475357921178,35,22.9,124.2998275756836,0.7519999742507935,0,0.0,0.0,,,,,0,,1,,
Raw,580575,255700000000,,,-1221746219740051456,0.0,41.54804992140271,6.887659762824304,11.456639718129784,8,10,0.0,15,50475367035643,13,31.3,582.5613403320312,0.0357000008225441,0,0.0,0.0,,,,,0,,1,,
Raw,580576,255700000000,,,-1221746219740051456,0.0,41.54804992140271,6.887659762824304,11.456639718129784,8,14,0.0,15,50475369730753,10,34.0,-149.78846740722656,0.035600002855062485,0,0.0,0.0,,,,,0,,1,,
Raw,580576,255700000000,,,-1221746219740051456,0.0,41.54804992140271,6.887659762824304,11.456639718129784,8,16,0.0,15,50475356453545,98,16.4,-756.22705078125,3.5305001735687256,0,0.0,0.0,,,,,0,,1,,
Raw,580576,255700000000,,,-1221746219740051456,0.0,41.54804992140271,6.887659762824304,11.456639718129784,8,20,0.0,15,50475358978885,40,21.0,710.470947265625,0.8734999895095825,0,0.0,0.0,,,,,0,,1,,
Raw,580577,255700000000,,,-1221746219740051456,0.0,41.54804992140271,6.887659762824304,11.456639718129784,8,25,0.0,15,50475366293975,11,33.0,364.43798828125,0.03189999982714653,0,0.0,0.0,,,,,0,,1,,
Raw,580577,255700000000,,,-1221746219740051456,0.0,41.54804992140271,6.887659762824304,11.456639718129784,8,26,0.0,15,50475365101122,13,31.9,-640.1694946289062,0.03270000219345093,0,0.0,0.0,,,,,0,,1,,
Raw,580577,255700000000,,,-1221746219740051456,0.0,41.54804992140271,6.887659762824304,11.456639718129784,8,29,0.0,15,50475355930923,828,17.7,-392.07159423828125,6.64900016784668,0,0.0,0.0,,,,,0,,1,,
Raw,580578,255700000000,,,-1221746219740051456,0.0,41.54804992140271,6.887659762824304,11.456639718129784,8,31,0.0,15,50475371949051,14,30.0,-3.425286054611206,0.43299999833106995,0,0.0,0.0,,,,,0,,1,,
Raw,580578,255700000000,,,-1221746219740051456,0.0,41.54804992140271,6.887659762824304,11.456639718129784,8,32,0.0,15,50475370004017,5,40.9,64.40996551513672,0.03440000116825104,0,0.0,0.0,,,,,0,,1,,
Raw,580579,255700000000,,,-1221746219740051456,0.0,41.54804992140271,6.887659762824304,11.456639718129784,8,2,0.0,783,50461315937991,33,27.1,9.083467483520508,2.6650002002716064,0,0.0,0.0,,,,,0,,5,,
Raw,580579,255700000000,,,-1221746219740051456,0.0,41.54804992140271,6.887659762824304,11.456639718129784,8,3,0.0,783,50461316501059,37,23.6,1.5651220083236694,2.0134999752044678,0,0.0,0.0,,,,,0,,5,,
Raw,580579,255700000000,,,-1221746219740051456,0.0,41.54804992140271,6.887659762824304,11.456639718129784,8,4,0.0,783,50461307814311,5,40.1,-3.8599939346313477,0.1550000011920929,0,0.0,0.0,,,,,0,,5,,
Raw,580579,255700000000,,,-1221746219740051456,0.0,41.54804992140271,6.887659762824304,11.456639718129784,8,6,0.0,15,50461318945473,12,32.2,-42.0463752746582,0.05090000107884407,0,0.0,0.0,,,,,0,,5,,
Raw,580580,255700000000,,,-1221746219740051456,0.0,41.54804992140271,6.887659762824304,11.456639718129784,8,7,0.0,15,50461319103619,11,33.6,-102.94230651855469,0.05140000209212303,0,0.0,0.0,,,,,0,,5,,
Raw,580580,255700000000,,,-1221746219740051456,0.0,41.54804992140271,6.887659762824304,11.456639718129784,8,9,0.0,15,50461319505484,14,30.8,-91.54827117919922,0.024300001561641693,0,0.0,0.0,,,,,0,,5,,
Raw,580580,255700000000,,,-1221746219740051456,0.0,41.54804992140271,6.887659762824304,11.456639718129784,8,10,0.0,15,50461316625916,13,31.9,-162.04103088378906,0.04920000210404396,0,0.0,0.0,,,,,0,,5,,
Raw,580581,255700000000,,,-1221746219740051456,0.0,41.54804992140271,6.887659762824304,11.456639718129784,8,16,0.0,15,50461320116786,10,34.4,-41.19361114501953,0.022099999710917473,0,0.0,0.0,,,,,0,,5,,
Raw,581574,256700000000,,,-1221746219740051456,0.0,43.21750748204067,-4.096011363905589,12.411016399302222,8,14,0.0,207,61258368299667,11,33.5,-579.0557250976562,0.23490001261234283,0,0.0,0.0,,,,,0,,3,,
Raw,581574,256700000000,,,-1221746219740051456,0.0,43.21750748204067,-4.096011363905589,12.411016399302222,8,2,0.0,207,61258374205003,10,34.1,253.49124145507812,0.24310001730918884,0,0.0,0.0,,,,,0,,3,,
Raw,581575,256700000000,,,-1221746219740051456,0.0,43.21750748204067,-4.096011363905589,12.411016399302222,8,13,0.0,207,61258375854921,308,12.3,35.562171936035156,9.719000816345215,0,0.0,0.0,,,,,0,,3,,
Raw,581575,256700000000,,,-1221746219740051456,0.0,43.21750748204067,-4.096011363905589,12.411016399302222,8,12,0.0,207,61258366732789,21,26.0,694.134765625,0.32019999623298645,0,0.0,0.0,,,,,0,,3,,
Raw,581576,256700000000,,,-1221746219740051456,0.0,43.21750748204067,-4.096011363905589,12.411016399302222,8,3,0.0,207,61258373482518,27,24.0,-444.3051452636719,0.8859999775886536,0,0.0,0.0,,,,,0,,3,,
Raw,581576,256700000000,,,-1221746219740051456,0.0,43.21750748204067,-4.096011363905589,12.411016399302222,8,1,0.0,15,50476357920749,35,22.9,125.13712310791016,0.7519999742507935,0,0.0,0.0,,,,,0,,1,,
Raw,581576,256700000000,,,-1221746219740051456,0.0,43.21750748204067,-4.096011363905589,12.411016399302222,8,10,0.0,15,50476367033643,12,32.0,582.5830078125,0.03440000116825104,0,0.0,0.0,,,,,0,,1,,
Raw,581577,256700000000,,,-1221746219740051456,0.0,43.21750748204067,-4.096011363905589,12.411016399302222,8,14,0.0,15,50476369731248,14,30.0,-149.78619384765625,0.03930000215768814,0,0.0,0.0,,,,,0,,1,,
Raw,581577,256700000000,,,-1221746219740051456,0.0,43.21750748204067,-4.096011363905589,12.411016399302222,8,20,0.0,15,50476358976420,31,23.3,710.432861328125,0.7534999847412109,0,0.0,0.0,,,,,0,,1,,
Raw,581578,256700000000,,,-1221746219740051456,0.0,43.21750748204067,-4.096011363905589,12.411016399302222,8,22,0.0,15,50476360773081,16,29.8,-530.8411254882812,0.053700003772974014,0,0.0,0.0,,,,,0,,1,,
Raw,581578,256700000000,,,-1221746219740051456,0.0,43.21750748204067,-4.096011363905589,12.411016399302222,8,25,0.0,15,50476366292777,10,34.0,364.50225830078125,0.03110000118613243,0,0.0,0.0,,,,,0,,1,,
Raw,581579,256700000000,,,-1221746219740051456,0.0,43.21750748204067,-4.096011363905589,12.411016399302222,8,26,0.0,15,50476365103234,14,30.0,-640.1655883789062,0.0333000011742115,0,0.0,0.0,,,,,0,,1,,
Raw,581579,256700000000,,,-1221746219740051456,0.0,43.21750748204067,-4.096011363905589,12.411016399302222,8,29,0.0,15,50476355932229,850,17.6,-392.52825927734375,7.39900016784668,0,0.0,0.0,,,,,0,,1,,
Raw,581580,256700000000,,,-1221746219740051456,0.0,43.21750748204067,-4.096011363905589,12.411016399302222,8,31,0.0,15,50476371949093,10,34.4,-3.4443154335021973,0.3229999840259552,0,0.0,0.0,,,,,0,,1,,
Raw,581580,256700000000,,,-1221746219740051456,0.0,43.21750748204067,-4.096011363905589,12.411016399302222,8,32,0.0,15,50476370003809,6,39.6,64.41737365722656,0.03460000082850456,0,0.0,0.0,,,,,0,,1,,
Raw,581580,256700000000,,,-1221746219740051456,0.0,43.21750748204067,-4.096011363905589,12.411016399302222,8,2,0.0,783,50462315938000,26,25.8,6.481332778930664,1.2450000047683716,0,0.0,0.0,,,,,0,,5,,
Raw,581581,256700000000,,,-1221746219740051456,0.0,43.21750748204067,-4.096011363905589,12.411016399302222,8,3,0.0,783,50462316501054,54,23.6,1.5651220083236694,3.513500213623047,0,0.0,0.0,,,,,0,,5,,
Raw,581581,256700000000,,,-1221746219740051456,0.0,43.21750748204067,-4.096011363905589,12.411016399302222,8,4,0.0,783,50462307814322,5,41.3,-4.013625144958496,0.14499999582767487,0,0.0,0.0,,,,,0,,5,,
Raw,581582,256700000000,,,-1221746219740051456,0.0,43.21750748204067,-4.096011363905589,12.411016399302222,8,6,0.0,15,50462318945622,11,33.1,-42.090816497802734,0.04990000277757645,0,0.0,0.0,,,,,0,,5,,
Raw,581582,256700000000,,,-1221746219740051456,0.0,43.21750748204067,-4.096011363905589,12.411016399302222,8,7,0.0,15,50462319103955,11,33.7,-102.98948669433594,0.05140000209212303,0,0.0,0.0,,,,,0,,5,,
Raw,581583,256700000000,,,-1221746219740051456,0.0,43.21750748204067,-4.096011363905589,12.411016399302222,8,9,0.0,15,50462319505790,16,29.9,-91.6066665649414,0.025200001895427704,0,0.0,0.0,,,,,0,,5,,
Raw,581583,256700000000,,,-1221746219740051456,0.0,43.21750748204067,-4.096011363905589,12.411016399302222,8,10,0.0,15,50462316626455,14,30.0,-162.07896423339844,0.049800001084804535,0,0.0,0.0,,,,,0,,5,,
Raw,581583,256700000000,,,-1221746219740051456,0.0,43.21750748204067,-4.096011363905589,12.411016399302222,8,16,0.0,15,50462320116936,10,34.0,-41.21178436279297,0.022099999710917473,0,0.0,0.0,,,,,0,,5,,
Raw,582575,257700000000,,,-1221746219740051456,0.0,43.10523945605382,-4.251652589713011,10.408192691639963,8,14,0.0,207,61259368301570,10,34.0,-576.3538208007812,0.23410001397132874,0,0.0,0.0,,,,,0,,3,,
Raw,582575,257700000000,,,-1221746219740051456,0.0,43.10523945605382,-4.251652589713011,10.408192691639963,8,2,0.0,207,61259374204143,8,36.2,256.2215881347656,0.24220001697540283,0,0.0,0.0,,,,,0,,3,,
Raw,582576,257700000000,,,-1221746219740051456,0.0,43.10523945605382,-4.251652589713011,10.408192691639963,8,13,0.0,207,61259375855070,40,21.3,35.740074157714844,1.069000005722046,0,0.0,0.0,,,,,0,,3,,
Raw,582576,257700000000,,,-1221746219740051456,0.0,43.10523945605382,-4.251652589713011,10.408192691639963,8,12,0.0,207,61259366730419,21,26.8,696.75732421875,0.32019999623298645,0,0.0,0.0,,,,,0,,3,,
Raw,582576,257700000000,,,-1221746219740051456,0.0,43.10523945605382,-4.251652589713011,10.408192691639963,8,3,0.0,207,61259373484007,31,23.2,-441.6711120605469,0.9459999799728394,0,0.0,0.0,,,,,0,,3,,
Raw,582577,257700000000,,,-1221746219740051456,0.0,43.10523945605382,-4.251652589713011,10.408192691639963,8,1,0.0,15,50477357920377,40,21.9,127.00199890136719,0.8119999766349792,0,0.0,0.0,,,,,0,,1,,
Raw,582577,257700000000,,,-1221746219740051456,0.0,43.10523945605382,-4.251652589713011,10.408192691639963,8,10,0.0,15,50477367031675,12,32.1,585.2628784179688,0.03440000116825104,0,0.0,0.0,,,,,0,,1,,
Raw,582578,257700000000,,,-1221746219740051456,0.0,43.10523945605382,-4.251652589713011,10.408192691639963,8,14,0.0,15,50477369731781,19,27.8,-147.1444091796875,0.05480000376701355,0,0.0,0.0,,,,,0,,1,,
Raw,582578,257700000000,,,-1221746219740051456,0.0,43.10523945605382,-4.251652589713011,10.408192691639963,8,18,0.0,15,50477359015871,21,27.2,355.66839599609375,1.1399999856948853,0,0.0,0.0,,,,,0,,1,,
Raw,582578,257700000000,,,-1221746219740051456,0.0,43.10523945605382,-4.251652589713011,10.408192691639963,8,20,0.0,15,50477358974062,24,25.4,713.57275390625,0.643500030040741,0,0.0,0.0,,,,,0,,1,,
Raw,582579,257700000000,,,-1221746219740051456,0.0,43.10523945605382,-4.251652589713011,10.408192691639963,8,22,0.0,15,50477360774867,12,32.5,-528.1222534179688,0.023900000378489494,0,0.0,0.0,,,,,0,,1,,
Raw,582579,257700000000,,,-1221746219740051456,0.0,43.10523945605382,-4.251652589713011,10.408192691639963,8,25,0.0,15,50477366291572,8,36.0,367.2253112792969,0.03020000085234642,0,0.0,0.0,,,,,0,,1,,
Raw,582579,257700000000,,,-1221746219740051456,0.0,43.10523945605382,-4.251652589713011,10.408192691639963,8,26,0.0,15,50477365105399,16,29.9,-637.50732421875,0.03420000150799751,0,0.0,0.0,,,,,0,,1,,
Raw,582580,257700000000,,,-1221746219740051456,0.0,43.10523945605382,-4.251652589713011,10.408192691639963,8,29,0.0,15,50477355933403,62,18.5,-387.9992980957031,1.3760000467300415,0,0.0,0.0,,,,,0,,1,,
Raw,582580,257700000000,,,-1221746219740051456,0.0,43.10523945605382,-4.251652589713011,10.408192691639963,8,31,0.0,15,50477371949097,7,37.0,-0.7276262044906616,0.03710000216960907,0,0.0,0.0,,,,,0,,1,,
Raw,582580,257700000000,,,-1221746219740051456,0.0,43.10523945605382,-4.251652589713011,10.408192691639963,8,32,0.0,15,50477370003584,7,37.7,67.08963012695312,0.035600002855062485,0,0.0,0.0,,,,,0,,1,,
Raw,582580,257700000000,,,-1221746219740051456,0.0,43.10523945605382,-4.251652589713011,10.408192691639963,8,2,0.0,783,50463315937978,38,25.8,6.481332778930664,2.745000123977661,0,0.0,0.0,,,,,0,,5,,
Raw,582581,257700000000,,,-1221746219740051456,0.0,43.10523945605382,-4.251652589713011,10.408192691639963,8,3,0.0,783,50463316501098,23,26.6,-0.0,1.2335000038146973,0,0.0,0.0,,,,,0,,5,,
Raw,582581,257700000000,,,-1221746219740051456,0.0,43.10523945605382,-4.251652589713011,10.408192691639963,8,4,0.0,783,50463307814340,5,41.6,-1.0946251153945923,0.14499999582767487,0,0.0,0.0,,,,,0,,5,,
Raw,582581,257700000000,,,-1221746219740051456,0.0,43.10523945605382,-4.251652589713011,10.408192691639963,8,6,0.0,15,50463318945754,10,34.0,-39.483612060546875,0.04910000041127205,0,0.0,0.0,,,,,0,,5,,
Raw,582581,257700000000,,,-1221746219740051456,0.0,43.10523945605382,-4.251652589713011,10.408192691639963,8,7,0.0,15,50463319104287,11,33.3,-100.37759399414062,0.05140000209212303,0,0.0,0.0,,,,,0,,5,,
Raw,582582,257700000000,,,-1221746219740051456,0.0,43.10523945605382,-4.251652589713011,10.408192691639963,8,9,0.0,15,50463319506096,17,28.7,-88.98470306396484,0.03180000185966492,0,0.0,0.0,,,,,0,,5,,
Raw,582582,257700000000,,,-1221746219740051456,0.0,43.10523945605382,-4.251652589713011,10.408192691639963,8,10,0.0,15,50463316626989,16,29.8,-159.47023010253906,0.050700001418590546,0,0.0,0.0,,,,,0,,5,,
Raw,582582,257700000000,,,-1221746219740051456,0.0,43.10523945605382,-4.251652589713011,10.408192691639963,8,16,0.0,15,50463320117071,10,34.9,-38.59326934814453,0.022099999710917473,0,0.0,0.0,,,,,0,,5,,
Raw,582582,257700000000,,,-1221746219740051456,0.0,43.10523945605382,-4.251652589713011,10.408192691639963,8,2,0.0,7183,50477360352250,12,32.2,-290.8353271484375,0.5295000076293945,0,0.0,0.0,,,,,0,,6,,
Raw,582583,257700000000,,,-1221746219740051456,0.0,43.10523945605382,-4.251652589713011,10.408192691639963,8,3,0.0,7183,50477362013714,15,30.9,-45.641937255859375,0.5914999842643738,0,0.0,0.0,,,,,0,,6,,
Raw,582583,257700000000,,,-1221746219740051456,0.0,43.10523945605382,-4.251652589713011,10.408192691639963,8,5,0.0,7183,50477354635555,239,23.3,328.7132873535156,0.7985000014305115,0,0.0,0.0,,,,,0,,6,,
Raw,582583,257700000000,,,-1221746219740051456,0.0,43.10523945605382,-4.251652589713011,10.408192691639963,8,8,0.0,7183,50477361362541,13,31.9,-409.1218566894531,0.5479999780654907,0,0.0,0.0,,,,,0,,6,,
Raw,582584,257700000000,,,-1221746219740051456,0.0,43.10523945605382,-4.251652589713011,10.408192691639963,8,25,0.0,7183,50477362411847,11,33.1,242.71006774902344,0.5065000057220459,0,0.0,0.0,,,,,0,,6,,
Raw,583584,258700000000,,,-1221746219740051456,0.0,43.262851249892265,4.3598128891077,9.846400606648432,8,14,0.0,207,61260368303460,13,31.4,-575.18701171875,0.23720000684261322,0,0.0,0.0,,,,,0,,3,,
Raw,583584,258700000000,,,-1221746219740051456,0.0,43.262851249892265,4.3598128891077,9.846400606648432,8,2,0.0,207,61260374203313,8,36.4,257.4453125,0.24220001697540283,0,0.0,0.0,,,,,0,,3,,
Raw,583585,258700000000,,,-1221746219740051456,0.0,43.262851249892265,4.3598128891077,9.846400606648432,8,13,0.0,207,61260375854964,31,23.4,37.04158401489258,0.9489999413490295,0,0.0,0.0,,,,,0,,3,,
Raw,583585,258700000000,,,-1221746219740051456,0.0,43.262851249892265,4.3598128891077,9.846400606648432,8,12,0.0,207,61260366728112,27,24.6,698.1140747070312,0.875499963760376,0,0.0,0.0,,,,,0,,3,,
Raw,583585,258700000000,,,-1221746219740051456,0.0,43.262851249892265,4.3598128891077,9.846400606648432,8,3,0.0,207,61260373485365,27,24.5,-440.6623840332031,0.8859999775886536,0,0.0,0.0,,,,,0,,3,,
Raw,583585,258700000000,,,-1221746219740051456,0.0,43.262851249892265,4.3598128891077,9.846400606648432,8,1,0.0,15,50478357919804,53,19.2,128.85736083984375,1.0220000743865967,0,0.0,0.0,,,,,0,,1,,
Raw,583586,258700000000,,,-1221746219740051456,0.0,43.262851249892265,4.3598128891077,9.846400606648432,8,10,0.0,15,50478367029714,13,31.1,586.4069213867188,0.0357000008225441,0,0.0,0.0,,,,,0,,1,,
Raw,583586,258700000000,,,-1221746219740051456,0.0,43.262851249892265,4.3598128891077,9.846400606648432,8,14,0.0,15,50478369732247,16,29.8,-146.05270385742188,0.04020000249147415,0,0.0,0.0,,,,,0,,1,,
Raw,583586,258700000000,,,-1221746219740051456,0.0,43.262851249892265,4.3598128891077,9.846400606648432,8,18,0.0,15,50478359014819,24,25.0,355.2073669433594,0.41030001640319824,0,0.0,0.0,,,,,0,,1,,
Raw,583587,258700000000,,,-1221746219740051456,0.0,43.262851249892265,4.3598128891077,9.846400606648432,8,20,0.0,15,50478358971646,27,24.9,714.876220703125,0.643500030040741,0,0.0,0.0,,,,,0,,1,,
Raw,583587,258700000000,,,-1221746219740051456,0.0,43.262851249892265,4.3598128891077,9.846400606648432,8,22,0.0,15,50478360776659,12,32.8,-527.0054931640625,0.023900000378489494,0,0.0,0.0,,,,,0,,1,,
Raw,583587,258700000000,,,-1221746219740051456,0.0,43.262851249892265,4.3598128891077,9.846400606648432,8,25,0.0,15,50478366290345,9,35.7,368.41650390625,0.03060000203549862,0,0.0,0.0,,,,,0,,1,,
Raw,583588,258700000000,,,-1221746219740051456,0.0,43.262851249892265,4.3598128891077,9.846400606648432,8,26,0.0,15,50478365107589,16,29.0,-636.3826293945312,0.03420000150799751,0,0.0,0.0,,,,,0,,1,,
Raw,583588,258700000000,,,-1221746219740051456,0.0,43.262851249892265,4.3598128891077,9.846400606648432,8,31,0.0,15,50478371949100,6,39.2,0.430479496717453,0.03610000014305115,0,0.0,0.0,,,,,0,,1,,
Raw,583588,258700000000,,,-1221746219740051456,0.0,43.262851249892265,4.3598128891077,9.846400606648432,8,32,0.0,15,50478370003368,7,37.8,68.223388671875,0.035600002855062485,0,0.0,0.0,,,,,0,,1,,
Raw,583589,258700000000,,,-1221746219740051456,0.0,43.262851249892265,4.3598128891077,9.846400606648432,8,2,0.0,783,50464315937956,59,25.8,6.481332778930664,4.24500036239624,0,0.0,0.0,,,,,0,,5,,
Raw,583589,258700000000,,,-1221746219740051456,0.0,43.262851249892265,4.3598128891077,9.846400606648432,8,3,0.0,783,50464316501114,17,28.7,-0.04800987243652344,0.41350001096725464,0,0.0,0.0,,,,,0,,5,,
Raw,583589,258700000000,,,-1221746219740051456,0.0,43.262851249892265,4.3598128891077,9.846400606648432,8,4,0.0,783,50464307814348,5,41.5,-1.0274112224578857,0.14499999582767487,0,0.0,0.0,,,,,0,,5,,
Raw,583590,258700000000,,,-1221746219740051456,0.0,43.262851249892265,4.3598128891077,9.846400606648432,8,6,0.0,15,50464318945876,9,35.6,-38.37543487548828,0.048600003123283386,0,0.0,0.0,,,,,0,,5,,
Raw,583590,258700000000,,,-1221746219740051456,0.0,43.262851249892265,4.3598128891077,9.846400606648432,8,7,0.0,15,50464319104619,11,33.3,-99.23360443115234,0.05140000209212303,0,0.0,0.0,,,,,0,,5,,
Raw,583591,258700000000,,,-1221746219740051456,0.0,43.262851249892265,4.3598128891077,9.846400606648432,8,9,0.0,15,50464319506373,24,25.1,-87.91883850097656,0.38030001521110535,0,0.0,0.0,,,,,0,,5,,
Raw,583591,258700000000,,,-1221746219740051456,0.0,43.262851249892265,4.3598128891077,9.846400606648432,8,10,0.0,15,50464316627534,19,27.9,-158.33258056640625,0.06530000269412994,0,0.0,0.0,,,,,0,,5,,
Raw,583591,258700000000,,,-1221746219740051456,0.0,43.262851249892265,4.3598128891077,9.846400606648432,8,16,0.0,15,50464320117186,8,36.2,-37.52177047729492,0.02120000123977661,0,0.0,0.0,,,,,0,,5,,
Raw,583592,258700000000,,,-1221746219740051456,0.0,43.262851249892265,4.3598128891077,9.846400606648432,8,2,0.0,7183,50478360353240,13,31.0,-291.4602966308594,0.04920000210404396,0,0.0,0.0,,,,,0,,6,,
Raw,583592,258700000000,,,-1221746219740051456,0.0,43.262851249892265,4.3598128891077,9.846400606648432,8,3,0.0,7183,50478362013863,16,29.6,-46.01967239379883,0.053700003772974014,0,0.0,0.0,,,,,0,,6,,
Raw,583592,258700000000,,,-1221746219740051456,0.0,43.262851249892265,4.3598128891077,9.846400606648432,8,5,0.0,7183,50478354634391,16,29.1,346.2964172363281,0.6065000295639038,0,0.0,0.0,,,,,0,,6,,
Raw,583592,258700000000,,,-1221746219740051456,0.0,43.262851249892265,4.3598128891077,9.846400606648432,8,8,0.0,7183,50478361363914,13,31.6,-409.819580078125,0.050700001418590546,0,0.0,0.0,,,,,0,,6,,
Raw,583593,258700000000,,,-1221746219740051456,0.0,43.262851249892265,4.3598128891077,9.846400606648432,8,25,0.0,7183,50478362411036,11,33.8,242.04440307617188,0.04990000277757645,0,0.0,0.0,,,,,0,,6,,
Raw,584563,259700000000,,,-1221746219740051456,0.0,47.20673314295709,6.3348356389521925,13.655501234674125,8,14,0.0,207,61261368305417,13,31.4,-574.62646484375,0.23720000684261322,0,0.0,0.0,,,,,0,,3,,
Raw,584564,259700000000,,,-1221746219740051456,0.0,47.20673314295709,6.3348356389521925,13.655501234674125,8,2,0.0,207,61261374202447,8,36.4,257.9980773925781,0.24220001697540283,0,0.0,0.0,,,,,0,,3,,
Raw,584564,259700000000,,,-1221746219740051456,0.0,47.20673314295709,6.3348356389521925,13.655501234674125,8,13,0.0,207,61261375854909,24,25.1,37.67973327636719,0.6042999625205994,0,0.0,0.0,,,,,0,,3,,
Raw,584564,259700000000,,,-1221746219740051456,0.0,47.20673314295709,6.3348356389521925,13.655501234674125,8,12,0.0,207,61261366725859,31,23.0,697.6741333007812,0.9354999661445618,0,0.0,0.0,,,,,0,,3,,
Raw,584565,259700000000,,,-1221746219740051456,0.0,47.20673314295709,6.3348356389521925,13.655501234674125,8,3,0.0,207,61261373486797,21,26.6,-440.1305847167969,0.33070001006126404,0,0.0,0.0,,,,,0,,3,,
Raw,584565,259700000000,,,-1221746219740051456,0.0,47.20673314295709,6.3348356389521925,13.655501234674125,8,1,0.0,15,50479357919375,61,19.2,128.85736083984375,2.5220000743865967,0,0.0,0.0,,,,,0,,1,,
Raw,584566,259700000000,,,-1221746219740051456,0.0,47.20673314295709,6.3348356389521925,13.655501234674125,8,10,0.0,15,50479367027751,14,30.3,586.9021606445312,0.03629999980330467,0,0.0,0.0,,,,,0,,1,,
Raw,584566,259700000000,,,-1221746219740051456,0.0,47.20673314295709,6.3348356389521925,13.655501234674125,8,14,0.0,15,50479369732735,13,31.7,-145.59381103515625,0.038700003176927567,0,0.0,0.0,,,,,0,,1,,
Raw,584566,259700000000,,,-1221746219740051456,0.0,47.20673314295709,6.3348356389521925,13.655501234674125,8,18,0.0,15,50479359013664,27,24.3,355.8777160644531,0.6949999928474426,0,0.0,0.0,,,,,0,,1,,
Raw,584567,259700000000,,,-1221746219740051456,0.0,47.20673314295709,6.3348356389521925,13.655501234674125,8,22,0.0,15,50479360778413,10,34.3,-526.498046875,0.022099999710917473,0,0.0,0.0,,,,,0,,1,,
Raw,584567,259700000000,,,-1221746219740051456,0.0,47.20673314295709,6.3348356389521925,13.655501234674125,8,25,0.0,15,50479366289117,9,35.5,368.9654235839844,0.03060000203549862,0,0.0,0.0,,,,,0,,1,,
Raw,584568,259700000000,,,-1221746219740051456,0.0,47.20673314295709,6.3348356389521925,13.655501234674125,8,26,0.0,15,50479365109654,14,30.0,-635.885986328125,0.0333000011742115,0,0.0,0.0,,,,,0,,1,,
Raw,584568,259700000000,,,-1221746219740051456,0.0,47.20673314295709,6.3348356389521925,13.655501234674125,8,31,0.0,15,50479371949103,5,41.3,0.9313164949417114,0.035600002855062485,0,0.0,0.0,,,,,0,,1,,
Raw,584568,259700000000,,,-1221746219740051456,0.0,47.20673314295709,6.3348356389521925,13.655501234674125,8,32,0.0,15,50479370003128,6,39.7,68.698974609375,0.03460000082850456,0,0.0,0.0,,,,,0,,1,,
Raw,584569,259700000000,,,-1221746219740051456,0.0,47.20673314295709,6.3348356389521925,13.655501234674125,8,2,0.0,783,50465315937908,31,25.5,6.126059532165527,1.9950000047683716,0,0.0,0.0,,,,,0,,5,,
Raw,584569,259700000000,,,-1221746219740051456,0.0,47.20673314295709,6.3348356389521925,13.655501234674125,8,3,0.0,783,50465316501134,16,29.9,0.3456710875034332,0.3935000002384186,0,0.0,0.0,,,,,0,,5,,
Raw,584569,259700000000,,,-1221746219740051456,0.0,47.20673314295709,6.3348356389521925,13.655501234674125,8,4,0.0,783,50465307814355,5,40.9,-0.30726319551467896,0.1550000011920929,0,0.0,0.0,,,,,0,,5,,
Raw,584570,259700000000,,,-1221746219740051456,0.0,47.20673314295709,6.3348356389521925,13.655501234674125,8,6,0.0,15,50465318946006,8,36.1,-37.933528900146484,0.04820000380277634,0,0.0,0.0,,,,,0,,5,,
Raw,584570,259700000000,,,-1221746219740051456,0.0,47.20673314295709,6.3348356389521925,13.655501234674125,8,7,0.0,15,50465319104935,11,33.3,-98.77214050292969,0.05140000209212303,0,0.0,0.0,,,,,0,,5,,
Raw,584571,259700000000,,,-1221746219740051456,0.0,47.20673314295709,6.3348356389521925,13.655501234674125,8,9,0.0,15,50465319506699,61,18.5,-87.3875732421875,0.8449999690055847,0,0.0,0.0,,,,,0,,5,,
Raw,584571,259700000000,,,-1221746219740051456,0.0,47.20673314295709,6.3348356389521925,13.655501234674125,8,10,0.0,15,50465316628061,17,28.9,-157.88272094726562,0.05730000138282776,0,0.0,0.0,,,,,0,,5,,
Raw,584571,259700000000,,,-1221746219740051456,0.0,47.20673314295709,6.3348356389521925,13.655501234674125,8,16,0.0,15,50465320117312,8,36.4,-37.08201599121094,0.02120000123977661,0,0.0,0.0,,,,,0,,5,,
Raw,584572,259700000000,,,-1221746219740051456,0.0,47.20673314295709,6.3348356389521925,13.655501234674125,8,2,0.0,7183,50479360354183,13,31.4,-290.5318298339844,0.04920000210404396,0,0.0,0.0,,,,,0,,6,,
Raw,584572,259700000000,,,-1221746219740051456,0.0,47.20673314295709,6.3348356389521925,13.655501234674125,8,3,0.0,7183,50479362014009,19,27.5,-45.09715270996094,0.06830000132322311,0,0.0,0.0,,,,,0,,6,,
Raw,584572,259700000000,,,-1221746219740051456,0.0,47.20673314295709,6.3348356389521925,13.655501234674125,8,5,0.0,7183,50479354633252,16,29.7,345.8840026855469,0.053700003772974014,0,0.0,0.0,,,,,0,,6,,
Raw,584573,259700000000,,,-1221746219740051456,0.0,47.20673314295709,6.3348356389521925,13.655501234674125,8,8,0.0,7183,50479361365275,12,32.5,-408.4110412597656,0.049400001764297485,0,0.0,0.0,,,,,0,,6,,
Raw,584574,259700000000,,,-1221746219740051456,0.0,47.20673314295709,6.3348356389521925,13.655501234674125,8,25,0.0,7183,50479362410239,10,34.3,242.97113037109375,0.04910000041127205,0,0.0,0.0,,,,,0,,6,,
Raw,585582,260700000000,,,-1221746219740051456,0.0,49.51869777869433,8.786546896672084,15.862132624861593,8,14,0.0,207,61262368307284,21,26.2,-574.9835815429688,0.323199987411499,0,0.0,0.0,,,,,0,,3,,
Raw,585582,260700000000,,,-1221746219740051456,0.0,49.51869777869433,8.786546896672084,15.862132624861593,8,2,0.0,207,61262374201568,8,36.0,257.83905029296875,0.24220001697540283,0,0.0,0.0,,,,,0,,3,,
Raw,585582,260700000000,,,-1221746219740051456,0.0,49.51869777869433,8.786546896672084,15.862132624861593,8,13,0.0,207,61262375854670,19,27.1,37.529056549072266,0.2637999951839447,0,0.0,0.0,,,,,0,,3,,
Raw,585583,260700000000,,,-1221746219740051456,0.0,49.51869777869433,8.786546896672084,15.862132624861593,8,12,0.0,207,61262366723226,53,19.4,696.8411254882812,1.2055001258850098,0,0.0,0.0,,,,,0,,3,,
Raw,585583,260700000000,,,-1221746219740051456,0.0,49.51869777869433,8.786546896672084,15.862132624861593,8,3,0.0,207,61262373488345,17,28.2,-440.3608093261719,0.25280001759529114,0,0.0,0.0,,,,,0,,3,,
Raw,585584,260700000000,,,-1221746219740051456,0.0,49.51869777869433,8.786546896672084,15.862132624861593,8,1,0.0,15,50480357918945,80,19.2,128.85736083984375,4.022000312805176,0,0.0,0.0,,,,,0,,1,,
Raw,585584,260700000000,,,-1221746219740051456,0.0,49.51869777869433,8.786546896672084,15.862132624861593,8,10,0.0,15,50480367025833,16,29.6,586.6926879882812,0.03720000013709068,0,0.0,0.0,,,,,0,,1,,
Raw,585584,260700000000,,,-1221746219740051456,0.0,49.51869777869433,8.786546896672084,15.862132624861593,8,14,0.0,15,50480369733225,11,33.6,-145.863037109375,0.036400001496076584,0,0.0,0.0,,,,,0,,1,,
Raw,585585,260700000000,,,-1221746219740051456,0.0,49.51869777869433,8.786546896672084,15.862132624861593,8,18,0.0,15,50480359012530,31,23.6,355.0975036621094,0.6949999928474426,0,0.0,0.0,,,,,0,,1,,
Raw,585585,260700000000,,,-1221746219740051456,0.0,49.51869777869433,8.786546896672084,15.862132624861593,8,22,0.0,15,50480360780175,11,33.7,-526.7564086914062,0.02290000021457672,0,0.0,0.0,,,,,0,,1,,
Raw,585585,260700000000,,,-1221746219740051456,0.0,49.51869777869433,8.786546896672084,15.862132624861593,8,25,0.0,15,50480366287893,13,31.9,368.7781677246094,0.03420000150799751,0,0.0,0.0,,,,,0,,1,,
Raw,585585,260700000000,,,-1221746219740051456,0.0,49.51869777869433,8.786546896672084,15.862132624861593,8,26,0.0,15,50480365111823,14,30.3,-636.1268310546875,0.0333000011742115,0,0.0,0.0,,,,,0,,1,,
Raw,585586,260700000000,,,-1221746219740051456,0.0,49.51869777869433,8.786546896672084,15.862132624861593,8,31,0.0,15,50480371949096,4,42.1,0.7118862271308899,0.03530000150203705,0,0.0,0.0,,,,,0,,1,,
Raw,585586,260700000000,,,-1221746219740051456,0.0,49.51869777869433,8.786546896672084,15.862132624861593,8,32,0.0,15,50480370002885,5,40.6,68.45369720458984,0.03440000116825104,0,0.0,0.0,,,,,0,,1,,
Raw,585586,260700000000,,,-1221746219740051456,0.0,49.51869777869433,8.786546896672084,15.862132624861593,8,2,0.0,783,50466315937888,47,25.5,6.126059532165527,3.495000123977661,0,0.0,0.0,,,,,0,,5,,
Raw,585587,260700000000,,,-1221746219740051456,0.0,49.51869777869433,8.786546896672084,15.862132624861593,8,3,0.0,783,50466316501131,14,30.9,-1.9780068397521973,0.3634999990463257,0,0.0,0.0,,,,,0,,5,,
Raw,585587,260700000000,,,-1221746219740051456,0.0,49.51869777869433,8.786546896672084,15.862132624861593,8,4,0.0,783,50466307814361,6,39.3,-0.22084540128707886,0.17499999701976776,0,0.0,0.0,,,,,0,,5,,
Raw,585587,260700000000,,,-1221746219740051456,0.0,49.51869777869433,8.786546896672084,15.862132624861593,8,5,0.0,783,50466310828607,68,26.4,2.0164146423339844,4.81850004196167,0,0.0,0.0,,,,,0,,5,,
Raw,585588,260700000000,,,-1221746219740051456,0.0,49.51869777869433,8.786546896672084,15.862132624861593,8,6,0.0,15,50466318946136,8,36.0,-38.21753692626953,0.04820000380277634,0,0.0,0.0,,,,,0,,5,,
Raw,585588,260700000000,,,-1221746219740051456,0.0,49.51869777869433,8.786546896672084,15.862132624861593,8,7,0.0,15,50466319105274,12,32.9,-99.03256225585938,0.052400000393390656,0,0.0,0.0,,,,,0,,5,,
Raw,585588,260700000000,,,-1221746219740051456,0.0,49.51869777869433,8.786546896672084,15.862132624861593,8,9,0.0,15,50466319506995,46,20.7,-87.62762451171875,0.7249999642372131,0,0.0,0.0,,,,,0,,5,,
Raw,585589,260700000000,,,-1221746219740051456,0.0,49.51869777869433,8.786546896672084,15.862132624861593,8,10,0.0,15,50466316628584,14,30.2,-158.1519317626953,0.049800001084804535,0,0.0,0.0,,,,,0,,5,,
Raw,585589,260700000000,,,-1221746219740051456,0.0,49.51869777869433,8.786546896672084,15.862132624861593,8,16,0.0,15,50466320117437,9,35.3,-37.376277923583984,0.02160000056028366,0,0.0,0.0,,,,,0,,5,,
Raw,585589,260700000000,,,-1221746219740051456,0.0,49.51869777869433,8.786546896672084,15.862132624861593,8,2,0.0,7183,50480360355139,12,32.0,-288.61785888671875,0.0479000024497509,0,0.0,0.0,,,,,0,,6,,
Raw,585589,260700000000,,,-1221746219740051456,0.0,49.51869777869433,8.786546896672084,15.862132624861593,8,3,0.0,7183,50480362014227,40,21.1,-44.83319091796875,0.6934999823570251,0,0.0,0.0,,,,,0,,6,,
Raw,585590,260700000000,,,-1221746219740051456,0.0,49.51869777869433,8.786546896672084,15.862132624861593,8,5,0.0,7183,50480354632079,16,29.9,347.3016357421875,0.053700003772974014,0,0.0,0.0,,,,,0,,6,,
Raw,585590,260700000000,,,-1221746219740051456,0.0,49.51869777869433,8.786546896672084,15.862132624861593,8,8,0.0,7183,50480361366642,12,32.8,-407.4800720214844,0.049400001764297485,0,0.0,0.0,,,,,0,,6,,
Raw,585590,260700000000,,,-1221746219740051456,0.0,49.51869777869433,8.786546896672084,15.862132624861593,8,25,0.0,7183,50480362409425,11,33.6,244.36065673828125,0.04990000277757645,0,0.0,0.0,,,,,0,,6,,
Raw,585591,260700000000,,,-1221746219740051456,0.0,49.51869777869433,8.786546896672084,15.862132624861593,8,30,0.0,7183,50480352474905,765,15.0,-543.2408447265625,3.5455000400543213,0,0.0,0.0,,,,,0,,6,,
Raw,586582,261700000000,,,-1221746219740051456,0.0,44.56809983821586,8.834711365192929,14.349938662020895,8,14,0.0,207,61263368309232,24,25.7,-574.7073364257812,0.5938000082969666,0,0.0,0.0,,,,,0,,3,,
Raw,586583,261700000000,,,-1221746219740051456,0.0,44.56809983821586,8.834711365192929,14.349938662020895,8,2,0.0,207,61263374200716,8,36.3,258.0090637207031,0.24220001697540283,0,0.0,0.0,,,,,0,,3,,
Raw,586583,261700000000,,,-1221746219740051456,0.0,44.56809983821586,8.834711365192929,14.349938662020895,8,13,0.0,207,61263375854586,16,29.0,37.69361877441406,0.2492000013589859,0,0.0,0.0,,,,,0,,3,,
Raw,586583,261700000000,,,-1221746219740051456,0.0,44.56809983821586,8.834711365192929,14.349938662020895,8,12,0.0,207,61263366720856,61,18.0,698.4042358398438,1.2855000495910645,0,0.0,0.0,,,,,0,,3,,
Raw,586584,261700000000,,,-1221746219740051456,0.0,44.56809983821586,8.834711365192929,14.349938662020895,8,3,0.0,207,61263373489747,16,29.7,-440.2033996582031,0.24619999527931213,0,0.0,0.0,,,,,0,,3,,
Raw,586584,261700000000,,,-1221746219740051456,0.0,44.56809983821586,8.834711365192929,14.349938662020895,8,1,0.0,15,50481357918515,108,19.2,128.85736083984375,5.522000312805176,0,0.0,0.0,,,,,0,,1,,
Raw,586584,261700000000,,,-1221746219740051456,0.0,44.56809983821586,8.834711365192929,14.349938662020895,8,10,0.0,15,50481367023900,16,29.1,586.79248046875,0.03720000013709068,0,0.0,0.0,,,,,0,,1,,
Raw,586585,261700000000,,,-1221746219740051456,0.0,44.56809983821586,8.834711365192929,14.349938662020895,8,14,0.0,15,50481369733693,10,34.6,-145.78213500976562,0.035600002855062485,0,0.0,0.0,,,,,0,,1,,
Raw,586585,261700000000,,,-1221746219740051456,0.0,44.56809983821586,8.834711365192929,14.349938662020895,8,18,0.0,15,50481359011341,31,23.8,355.6874084472656,0.6949999928474426,0,0.0,0.0,,,,,0,,1,,
Raw,586585,261700000000,,,-1221746219740051456,0.0,44.56809983821586,8.834711365192929,14.349938662020895,8,22,0.0,15,50481360781931,11,33.7,-526.6481323242188,0.02290000021457672,0,0.0,0.0,,,,,0,,1,,
Raw,586585,261700000000,,,-1221746219740051456,0.0,44.56809983821586,8.834711365192929,14.349938662020895,8,25,0.0,15,50481366286706,21,26.0,368.9502868652344,0.12020000070333481,0,0.0,0.0,,,,,0,,1,,
Raw,586586,261700000000,,,-1221746219740051456,0.0,44.56809983821586,8.834711365192929,14.349938662020895,8,26,0.0,15,50481365113971,16,29.7,-636.0269775390625,0.03420000150799751,0,0.0,0.0,,,,,0,,1,,
Raw,586586,261700000000,,,-1221746219740051456,0.0,44.56809983821586,8.834711365192929,14.349938662020895,8,31,0.0,15,50481371949095,4,42.5,0.8243938684463501,0.03530000150203705,0,0.0,0.0,,,,,0,,1,,
Raw,586586,261700000000,,,-1221746219740051456,0.0,44.56809983821586,8.834711365192929,14.349938662020895,8,32,0.0,15,50481370002661,5,40.5,68.54900360107422,0.03440000116825104,0,0.0,0.0,,,,,0,,1,,
Raw,586587,261700000000,,,-1221746219740051456,0.0,44.56809983821586,8.834711365192929,14.349938662020895,8,1,0.0,783,50467313104014,210,24.1,-4.128849029541016,1.3949999809265137,0,0.0,0.0,,,,,0,,5,,
Raw,586587,261700000000,,,-1221746219740051456,0.0,44.56809983821586,8.834711365192929,14.349938662020895,8,2,0.0,783,50467315937845,23,26.7,8.334514617919922,1.2050000429153442,0,0.0,0.0,,,,,0,,5,,
Raw,586587,261700000000,,,-1221746219740051456,0.0,44.56809983821586,8.834711365192929,14.349938662020895,8,3,0.0,783,50467316501123,12,32.4,-0.057611849159002304,0.3135000169277191,0,0.0,0.0,,,,,0,,5,,
Raw,586588,261700000000,,,-1221746219740051456,0.0,44.56809983821586,8.834711365192929,14.349938662020895,8,4,0.0,783,50467307814367,6,38.4,-0.24965135753154755,0.1850000023841858,0,0.0,0.0,,,,,0,,5,,
Raw,586588,261700000000,,,-1221746219740051456,0.0,44.56809983821586,8.834711365192929,14.349938662020895,8,5,0.0,783,50467310828600,104,26.4,2.0164146423339844,6.31850004196167,0,0.0,0.0,,,,,0,,5,,
Raw,586588,261700000000,,,-1221746219740051456,0.0,44.56809983821586,8.834711365192929,14.349938662020895,8,6,0.0,15,50467318946265,9,35.0,-38.15370559692383,0.048600003123283386,0,0.0,0.0,,,,,0,,5,,
Raw,586589,261700000000,,,-1221746219740051456,0.0,44.56809983821586,8.834711365192929,14.349938662020895,8,7,0.0,15,50467319105594,12,32.4,-98.97399139404297,0.052400000393390656,0,0.0,0.0,,,,,0,,5,,
Raw,586589,261700000000,,,-1221746219740051456,0.0,44.56809983821586,8.834711365192929,14.349938662020895,8,9,0.0,15,50467319507300,21,26.7,-87.76154327392578,0.10970000177621841,0,0.0,0.0,,,,,0,,5,,
Raw,586589,261700000000,,,-1221746219740051456,0.0,44.56809983821586,8.834711365192929,14.349938662020895,8,10,0.0,15,50467316629122,13,31.5,-158.0797882080078,0.04920000210404396,0,0.0,0.0,,,,,0,,5,,
Raw,586590,261700000000,,,-1221746219740051456,0.0,44.56809983821586,8.834711365192929,14.349938662020895,8,2,0.0,7183,50481360356098,12,32.9,-290.1671142578125,0.0479000024497509,0,0.0,0.0,,,,,0,,6,,
Raw,586590,261700000000,,,-1221746219740051456,0.0,44.56809983821586,8.834711365192929,14.349938662020895,8,3,0.0,7183,50481362014376,47,21.1,-44.83319091796875,2.19350004196167,0,0.0,0.0,,,,,0,,6,,
Raw,586590,261700000000,,,-1221746219740051456,0.0,44.56809983821586,8.834711365192929,14.349938662020895,8,5,0.0,7183,50481354630940,14,30.5,346.7283630371094,0.052800003439188004,0,0.0,0.0,,,,,0,,6,,
Raw,586590,261700000000,,,-1221746219740051456,0.0,44.56809983821586,8.834711365192929,14.349938662020895,8,8,0.0,7183,50481361368011,11,33.5,-408.2875671386719,0.04840000346302986,0,0.0,0.0,,,,,0,,6,,
Raw,586591,261700000000,,,-1221746219740051456,0.0,44.56809983821586,8.834711365192929,14.349938662020895,8,25,0.0,7183,50481362408610,11,33.4,243.64279174804688,0.04990000277757645,0,0.0,0.0,,,,,0,,6,,
Raw,586591,261700000000,,,-1221746219740051456,0.0,44.56809983821586,8.834711365192929,14.349938662020895,8,30,0.0,7183,50481352476716,776,15.0,-543.1647338867188,4.2955002784729,0,0.0,0.0,,,,,0,,6,,
Raw,587592,262700000000,,,-1221746219740051456,0.0,38.76922346535139,8.424875581799464,10.743613444668947,8,14,0.0,207,61264368311233,21,26.6,-574.51123046875,0.323199987411499,0,0.0,0.0,,,,,0,,3,,
Raw,587592,262700000000,,,-1221746219740051456,0.0,38.76922346535139,8.424875581799464,10.743613444668947,8,2,0.0,207,61264374199856,7,37.4,258.2166442871094,0.24160000681877136,0,0.0,0.0,,,,,0,,3,,
Raw,587592,262700000000,,,-1221746219740051456,0.0,38.76922346535139,8.424875581799464,10.743613444668947,8,13,0.0,207,61264375854458,14,30.5,37.91899490356445,0.2483000010251999,0,0.0,0.0,,,,,0,,3,,
Raw,587593,262700000000,,,-1221746219740051456,0.0,38.76922346535139,8.424875581799464,10.743613444668947,8,12,0.0,207,61264366718681,53,19.1,698.5540161132812,1.2055001258850098,0,0.0,0.0,,,,,0,,3,,
Raw,587593,262700000000,,,-1221746219740051456,0.0,38.76922346535139,8.424875581799464,10.743613444668947,8,3,0.0,207,61264373491248,13,31.3,-440.0527038574219,0.24469999969005585,0,0.0,0.0,,,,,0,,3,,
Raw,587593,262700000000,,,-1221746219740051456,0.0,38.76922346535139,8.424875581799464,10.743613444668947,8,10,0.0,15,50482367021974,13,31.8,586.9722290039062,0.0357000008225441,0,0.0,0.0,,,,,0,,1,,
Raw,587594,262700000000,,,-1221746219740051456,0.0,38.76922346535139,8.424875581799464,10.743613444668947,8,14,0.0,15,50482369734197,9,35.6,-145.6563262939453,0.035100001841783524,0,0.0,0.0,,,,,0,,1,,
Raw,587594,262700000000,,,-1221746219740051456,0.0,38.76922346535139,8.424875581799464,10.743613444668947,8,18,0.0,15,50482359010126,35,22.5,354.878662109375,0.7549999952316284,0,0.0,0.0,,,,,0,,1,,
Raw,587595,262700000000,,,-1221746219740051456,0.0,38.76922346535139,8.424875581799464,10.743613444668947,8,22,0.0,15,50482360783687,10,34.2,-526.4931640625,0.022099999710917473,0,0.0,0.0,,,,,0,,1,,
Raw,587595,262700000000,,,-1221746219740051456,0.0,38.76922346535139,8.424875581799464,10.743613444668947,8,25,0.0,15,50482366285461,16,29.8,369.1371765136719,0.0357000008225441,0,0.0,0.0,,,,,0,,1,,
Raw,587595,262700000000,,,-1221746219740051456,0.0,38.76922346535139,8.424875581799464,10.743613444668947,8,26,0.0,15,50482365116054,14,30.3,-635.8875732421875,0.0333000011742115,0,0.0,0.0,,,,,0,,1,,
Raw,587596,262700000000,,,-1221746219740051456,0.0,38.76922346535139,8.424875581799464,10.743613444668947,8,31,0.0,15,50482371949078,4,43.0,0.9921250939369202,0.035100001841783524,0,0.0,0.0,,,,,0,,1,,
Raw,587596,262700000000,,,-1221746219740051456,0.0,38.76922346535139,8.424875581799464,10.743613444668947,8,32,0.0,15,50482370002428,6,39.8,68.68892669677734,0.03460000082850456,0,0.0,0.0,,,,,0,,1,,
Raw,587596,262700000000,,,-1221746219740051456,0.0,38.76922346535139,8.424875581799464,10.743613444668947,8,1,0.0,783,50468313104028,223,24.1,-4.128849029541016,2.8950002193450928,0,0.0,0.0,,,,,0,,5,,
Raw,587597,262700000000,,,-1221746219740051456,0.0,38.76922346535139,8.424875581799464,10.743613444668947,8,2,0.0,783,50468315937816,19,27.3,12.837839126586914,0.4150000214576721,0,0.0,0.0,,,,,0,,5,,
Raw,587597,262700000000,,,-1221746219740051456,0.0,38.76922346535139,8.424875581799464,10.743613444668947,8,3,0.0,783,50468316501140,10,34.1,-2.0164146423339844,0.273499995470047,0,0.0,0.0,,,,,0,,5,,
Raw,587597,262700000000,,,-1221746219740051456,0.0,38.76922346535139,8.424875581799464,10.743613444668947,8,4,0.0,783,50468307814380,7,37.6,0.19203948974609375,0.19500000774860382,0,0.0,0.0,,,,,0,,5,,
Raw,587598,262700000000,,,-1221746219740051456,0.0,38.76922346535139,8.424875581799464,10.743613444668947,8,5,0.0,783,50468310828594,150,26.4,2.0164146423339844,7.818500518798828,0,0.0,0.0,,,,,0,,5,,
Raw,587598,262700000000,,,-1221746219740051456,0.0,38.76922346535139,8.424875581799464,10.743613444668947,8,6,0.0,15,50468318946397,11,33.2,-38.06529235839844,0.04990000277757645,0,0.0,0.0,,,,,0,,5,,
Raw,587598,262700000000,,,-1221746219740051456,0.0,38.76922346535139,8.424875581799464,10.743613444668947,8,7,0.0,15,50468319105926,12,32.3,-98.87397766113281,0.052400000393390656,0,0.0,0.0,,,,,0,,5,,
Raw,587599,262700000000,,,-1221746219740051456,0.0,38.76922346535139,8.424875581799464,10.743613444668947,8,9,0.0,15,50468319507588,14,30.4,-87.64231872558594,0.024300001561641693,0,0.0,0.0,,,,,0,,5,,
Raw,587599,262700000000,,,-1221746219740051456,0.0,38.76922346535139,8.424875581799464,10.743613444668947,8,10,0.0,15,50468316629640,12,32.1,-157.9652099609375,0.0479000024497509,0,0.0,0.0,,,,,0,,5,,
Raw,587599,262700000000,,,-1221746219740051456,0.0,38.76922346535139,8.424875581799464,10.743613444668947,8,2,0.0,7183,50482360357065,11,33.8,-289.80029296875,0.04690000042319298,0,0.0,0.0,,,,,0,,6,,
Raw,587600,262700000000,,,-1221746219740051456,0.0,38.76922346535139,8.424875581799464,10.743613444668947,8,3,0.0,7183,50482362014435,37,22.2,-44.12910461425781,1.3935000896453857,0,0.0,0.0,,,,,0,,6,,
Raw,587600,262700000000,,,-1221746219740051456,0.0,38.76922346535139,8.424875581799464,10.743613444668947,8,5,0.0,7183,50482354629809,14,30.1,346.57763671875,0.052800003439188004,0,0.0,0.0,,,,,0,,6,,
Raw,587600,262700000000,,,-1221746219740051456,0.0,38.76922346535139,8.424875581799464,10.743613444668947,8,8,0.0,7183,50482361369368,11,33.9,-408.3450927734375,0.04840000346302986,0,0.0,0.0,,,,,0,,6,,
Raw,587601,262700000000,,,-1221746219740051456,0.0,38.76922346535139,8.424875581799464,10.743613444668947,8,25,0.0,7183,50482362407806,12,32.7,243.90089416503906,0.05090000107884407,0,0.0,0.0,,,,,0,,6,,
Raw,587601,262700000000,,,-1221746219740051456,0.0,38.76922346535139,8.424875581799464,10.743613444668947,8,30,0.0,7183,50482352478527,806,15.0,-543.1647338867188,5.7955002784729,0,0.0,0.0,,,,,0,,6,,
Raw,588579,263700000000,,,-1221746219740051456,0.0,35.922352253692225,8.249336878651796,11.2591306435118,8,14,0.0,207,61265368313077,27,24.2,-575.5771484375,0.8784999847412109,0,0.0,0.0,,,,,0,,3,,
Raw,588579,263700000000,,,-1221746219740051456,0.0,35.922352253692225,8.249336878651796,11.2591306435118,8,2,0.0,207,61265374198990,9,35.4,257.6213684082031,0.24260000884532928,0,0.0,0.0,,,,,0,,3,,
Raw,588580,263700000000,,,-1221746219740051456,0.0,35.922352253692225,8.249336878651796,11.2591306435118,8,13,0.0,207,61265375854326,17,28.9,37.349552154541016,0.2558000087738037,0,0.0,0.0,,,,,0,,3,,
Raw,588580,263700000000,,,-1221746219740051456,0.0,35.922352253692225,8.249336878651796,11.2591306435118,8,12,0.0,207,61265366716351,62,19.1,698.5540161132812,2.7055001258850098,0,0.0,0.0,,,,,0,,3,,
Raw,588580,263700000000,,,-1221746219740051456,0.0,35.922352253692225,8.249336878651796,11.2591306435118,8,3,0.0,207,61265373492656,19,27.5,-440.6837158203125,0.26080000400543213,0,0.0,0.0,,,,,0,,3,,
Raw,588581,263700000000,,,-1221746219740051456,0.0,35.922352253692225,8.249336878651796,11.2591306435118,8,10,0.0,15,50483367020012,13,31.8,586.3323974609375,0.0357000008225441,0,0.0,0.0,,,,,0,,1,,
Raw,588581,263700000000,,,-1221746219740051456,0.0,35.922352253692225,8.249336878651796,11.2591306435118,8,14,0.0,15,50483369734679,9,35.4,-146.36630249023438,0.035100001841783524,0,0.0,0.0,,,,,0,,1,,
Raw,588581,263700000000,,,-1221746219740051456,0.0,35.922352253692225,8.249336878651796,11.2591306435118,8,18,0.0,15,50483359009026,53,19.3,355.83013916015625,1.024999976158142,0,0.0,0.0,,,,,0,,1,,
Raw,588581,263700000000,,,-1221746219740051456,0.0,35.922352253692225,8.249336878651796,11.2591306435118,8,20,0.0,15,50483358959668,15,30.6,713.1350708007812,0.7615000009536743,0,0.0,0.0,,,,,0,,1,,
Raw,588582,263700000000,,,-1221746219740051456,0.0,35.922352253692225,8.249336878651796,11.2591306435118,8,22,0.0,15,50483360785477,14,30.7,-527.1994018554688,0.025800000876188278,0,0.0,0.0,,,,,0,,1,,
Raw,588582,263700000000,,,-1221746219740051456,0.0,35.922352253692225,8.249336878651796,11.2591306435118,8,25,0.0,15,50483366284198,12,32.8,368.5303955078125,0.03290000185370445,0,0.0,0.0,,,,,0,,1,,
Raw,588582,263700000000,,,-1221746219740051456,0.0,35.922352253692225,8.249336878651796,11.2591306435118,8,26,0.0,15,50483365118177,14,30.1,-636.5783081054688,0.0333000011742115,0,0.0,0.0,,,,,0,,1,,
Raw,588582,263700000000,,,-1221746219740051456,0.0,35.922352253692225,8.249336878651796,11.2591306435118,8,31,0.0,15,50483371949083,5,41.8,0.3513067364692688,0.035600002855062485,0,0.0,0.0,,,,,0,,1,,
Raw,588583,263700000000,,,-1221746219740051456,0.0,35.922352253692225,8.249336878651796,11.2591306435118,8,32,0.0,15,50483370002195,7,37.1,68.02479553222656,0.035600002855062485,0,0.0,0.0,,,,,0,,1,,
Raw,588583,263700000000,,,-1221746219740051456,0.0,35.922352253692225,8.249336878651796,11.2591306435118,8,1,0.0,783,50469313104004,16,29.9,-4.244072914123535,0.6650000214576721,0,0.0,0.0,,,,,0,,5,,
Raw,588583,263700000000,,,-1221746219740051456,0.0,35.922352253692225,8.249336878651796,11.2591306435118,8,2,0.0,783,50469315937795,17,28.8,10.408540725708008,0.3850000202655792,0,0.0,0.0,,,,,0,,5,,
Raw,588583,263700000000,,,-1221746219740051456,0.0,35.922352253692225,8.249336878651796,11.2591306435118,8,3,0.0,783,50469316501130,10,34.9,-1.5843257904052734,0.273499995470047,0,0.0,0.0,,,,,0,,5,,
Raw,588584,263700000000,,,-1221746219740051456,0.0,35.922352253692225,8.249336878651796,11.2591306435118,8,4,0.0,783,50469307814393,8,36.1,-1.4402961730957031,0.2150000035762787,0,0.0,0.0,,,,,0,,5,,
Raw,588584,263700000000,,,-1221746219740051456,0.0,35.922352253692225,8.249336878651796,11.2591306435118,8,5,0.0,783,50469310828587,205,26.4,2.0164146423339844,9.318500518798828,0,0.0,0.0,,,,,0,,5,,
Raw,588584,263700000000,,,-1221746219740051456,0.0,35.922352253692225,8.249336878651796,11.2591306435118,8,6,0.0,15,50469318946521,14,30.4,-38.74087905883789,0.052800003439188004,0,0.0,0.0,,,,,0,,5,,
Raw,588584,263700000000,,,-1221746219740051456,0.0,35.922352253692225,8.249336878651796,11.2591306435118,8,7,0.0,15,50469319106257,13,31.8,-99.52950286865234,0.053700003772974014,0,0.0,0.0,,,,,0,,5,,
Raw,588585,263700000000,,,-1221746219740051456,0.0,35.922352253692225,8.249336878651796,11.2591306435118,8,9,0.0,15,50469319507876,13,31.0,-88.41239166259766,0.02370000071823597,0,0.0,0.0,,,,,0,,5,,
Raw,588585,263700000000,,,-1221746219740051456,0.0,35.922352253692225,8.249336878651796,11.2591306435118,8,10,0.0,15,50469316630159,12,32.3,-158.65609741210938,0.0479000024497509,0,0.0,0.0,,,,,0,,5,,
Raw,588585,263700000000,,,-1221746219740051456,0.0,35.922352253692225,8.249336878651796,11.2591306435118,8,16,0.0,15,50469320117863,31,25.4,-37.325477600097656,10.529999732971191,0,0.0,0.0,,,,,0,,5,,
Raw,588585,263700000000,,,-1221746219740051456,0.0,35.922352253692225,8.249336878651796,11.2591306435118,8,2,0.0,7183,50483360358035,12,32.4,-288.9525451660156,0.0479000024497509,0,0.0,0.0,,,,,0,,6,,
Raw,588586,263700000000,,,-1221746219740051456,0.0,35.922352253692225,8.249336878651796,11.2591306435118,8,3,0.0,7183,50483362014607,19,27.5,-45.461158752441406,0.44350001215934753,0,0.0,0.0,,,,,0,,6,,
Raw,588586,263700000000,,,-1221746219740051456,0.0,35.922352253692225,8.249336878651796,11.2591306435118,8,5,0.0,7183,50483354628656,19,27.9,347.532958984375,0.06830000132322311,0,0.0,0.0,,,,,0,,6,,
Raw,588586,263700000000,,,-1221746219740051456,0.0,35.922352253692225,8.249336878651796,11.2591306435118,8,8,0.0,7183,50483361370748,14,30.8,-407.28375244140625,0.05130000039935112,0,0.0,0.0,,,,,0,,6,,
Raw,588587,263700000000,,,-1221746219740051456,0.0,35.922352253692225,8.249336878651796,11.2591306435118,8,25,0.0,7183,50483362406989,13,31.5,244.81414794921875,0.05220000073313713,0,0.0,0.0,,,,,0,,6,,
Raw,588587,263700000000,,,-1221746219740051456,0.0,35.922352253692225,8.249336878651796,11.2591306435118,8,30,0.0,7183,50483352480339,847,15.0,-543.1647338867188,7.2955002784729,0,0.0,0.0,,,,,0,,6,,
Raw,589578,264700000000,,,-1221746219740051456,0.0,38.04075458901934,7.2930730009435205,12.933671225161149,8,14,0.0,207,61266368315017,21,26.1,-576.07373046875,0.323199987411499,0,0.0,0.0,,,,,0,,3,,
Raw,589578,264700000000,,,-1221746219740051456,0.0,38.04075458901934,7.2930730009435205,12.933671225161149,8,2,0.0,207,61266374198113,8,36.8,256.7216796875,0.24220001697540283,0,0.0,0.0,,,,,0,,3,,
Raw,589578,264700000000,,,-1221746219740051456,0.0,38.04075458901934,7.2930730009435205,12.933671225161149,8,13,0.0,207,61266375854211,14,30.3,36.45199966430664,0.2483000010251999,0,0.0,0.0,,,,,0,,3,,
Raw,589579,264700000000,,,-1221746219740051456,0.0,38.04075458901934,7.2930730009435205,12.933671225161149,8,12,0.0,207,61266366713940,74,17.8,696.6539306640625,2.125499963760376,0,0.0,0.0,,,,,0,,3,,
Raw,589579,264700000000,,,-1221746219740051456,0.0,38.04075458901934,7.2930730009435205,12.933671225161149,8,3,0.0,207,61266373494185,19,27.5,-441.61639404296875,0.26080000400543213,0,0.0,0.0,,,,,0,,3,,
Raw,589579,264700000000,,,-1221746219740051456,0.0,38.04075458901934,7.2930730009435205,12.933671225161149,8,1,0.0,15,50484357917546,652,18.5,128.68609619140625,2.072000026702881,0,0.0,0.0,,,,,0,,1,,
Raw,589580,264700000000,,,-1221746219740051456,0.0,38.04075458901934,7.2930730009435205,12.933671225161149,8,10,0.0,15,50484367018064,11,33.8,585.3860473632812,0.033400002866983414,0,0.0,0.0,,,,,0,,1,,
Raw,589580,264700000000,,,-1221746219740051456,0.0,38.04075458901934,7.2930730009435205,12.933671225161149,8,14,0.0,15,50484369735165,9,35.6,-147.34144592285156,0.035100001841783524,0,0.0,0.0,,,,,0,,1,,
Raw,589580,264700000000,,,-1221746219740051456,0.0,38.04075458901934,7.2930730009435205,12.933671225161149,8,18,0.0,15,50484359007839,61,19.3,355.83013916015625,2.5250000953674316,0,0.0,0.0,,,,,0,,1,,
Raw,589580,264700000000,,,-1221746219740051456,0.0,38.04075458901934,7.2930730009435205,12.933671225161149,8,20,0.0,15,50484358957301,13,31.3,712.9190673828125,0.05220000073313713,0,0.0,0.0,,,,,0,,1,,
Raw,589581,264700000000,,,-1221746219740051456,0.0,38.04075458901934,7.2930730009435205,12.933671225161149,8,22,0.0,15,50484360787282,13,31.4,-528.151123046875,0.025200000032782555,0,0.0,0.0,,,,,0,,1,,
Raw,589581,264700000000,,,-1221746219740051456,0.0,38.04075458901934,7.2930730009435205,12.933671225161149,8,25,0.0,15,50484366282963,9,35.4,367.6211242675781,0.03060000203549862,0,0.0,0.0,,,,,0,,1,,
Raw,589582,264700000000,,,-1221746219740051456,0.0,38.04075458901934,7.2930730009435205,12.933671225161149,8,26,0.0,15,50484365120292,13,31.3,-637.5313720703125,0.03270000219345093,0,0.0,0.0,,,,,0,,1,,
Raw,589582,264700000000,,,-1221746219740051456,0.0,38.04075458901934,7.2930730009435205,12.933671225161149,8,31,0.0,15,50484371949082,5,40.5,-0.5955753922462463,0.03590000048279762,0,0.0,0.0,,,,,0,,1,,
Raw,589582,264700000000,,,-1221746219740051456,0.0,38.04075458901934,7.2930730009435205,12.933671225161149,8,32,0.0,15,50484370001975,10,34.7,67.06910705566406,0.03710000216960907,0,0.0,0.0,,,,,0,,1,,
Raw,589582,264700000000,,,-1221746219740051456,0.0,38.04075458901934,7.2930730009435205,12.933671225161149,8,1,0.0,783,50470313104033,14,30.4,-6.0300397872924805,0.33500000834465027,0,0.0,0.0,,,,,0,,5,,
Raw,589583,264700000000,,,-1221746219740051456,0.0,38.04075458901934,7.2930730009435205,12.933671225161149,8,2,0.0,783,50470315937765,14,30.1,7.758395671844482,0.33500000834465027,0,0.0,0.0,,,,,0,,5,,
Raw,589583,264700000000,,,-1221746219740051456,0.0,38.04075458901934,7.2930730009435205,12.933671225161149,8,3,0.0,783,50470316501145,9,35.2,-0.8449738025665283,0.25349998474121094,0,0.0,0.0,,,,,0,,5,,
Raw,589583,264700000000,,,-1221746219740051456,0.0,38.04075458901934,7.2930730009435205,12.933671225161149,8,4,0.0,783,50470307814429,9,35.3,-1.200246810913086,0.22499999403953552,0,0.0,0.0,,,,,0,,5,,
Raw,589583,264700000000,,,-1221746219740051456,0.0,38.04075458901934,7.2930730009435205,12.933671225161149,8,5,0.0,783,50470310828580,271,26.4,2.0164146423339844,10.818500518798828,0,0.0,0.0,,,,,0,,5,,
Raw,589584,264700000000,,,-1221746219740051456,0.0,38.04075458901934,7.2930730009435205,12.933671225161149,8,6,0.0,15,50470318946674,17,28.3,-39.76142120361328,0.06030000001192093,0,0.0,0.0,,,,,0,,5,,
Raw,589584,264700000000,,,-1221746219740051456,0.0,38.04075458901934,7.2930730009435205,12.933671225161149,8,7,0.0,15,50470319106595,13,31.4,-100.5398941040039,0.053700003772974014,0,0.0,0.0,,,,,0,,5,,
Raw,589584,264700000000,,,-1221746219740051456,0.0,38.04075458901934,7.2930730009435205,12.933671225161149,8,9,0.0,15,50470319508172,12,32.1,-89.39112091064453,0.02240000106394291,0,0.0,0.0,,,,,0,,5,,
Raw,589585,264700000000,,,-1221746219740051456,0.0,38.04075458901934,7.2930730009435205,12.933671225161149,8,10,0.0,15,50470316630695,12,32.7,-159.6586151123047,0.0479000024497509,0,0.0,0.0,,,,,0,,5,,
