# 
# Header Description:
# 
# Version: v2.0.0.1 Platform: 8.0.0 Manufacturer: Xiaomi Model: MIX 2
# 
# Raw,ElapsedRealtimeMillis,TimeNanos,LeapSecond,TimeUncertaintyNanos,FullBiasNanos,BiasNanos,BiasUncertaintyNanos,DriftNanosPerSecond,DriftUncertaintyNanosPerSecond,HardwareClockDiscontinuityCount,Svid,TimeOffsetNanos,State,ReceivedSvTimeNanos,ReceivedSvTimeUncertaintyNanos,Cn0DbHz,PseudorangeRateMetersPerSecond,PseudorangeRateUncertaintyMetersPerSecond,AccumulatedDeltaRangeState,AccumulatedDeltaRangeMeters,AccumulatedDeltaRangeUncertaintyMeters,CarrierFrequencyHz,CarrierCycles,CarrierPhase,CarrierPhaseUncertainty,MultipathIndicator,SnrInDb,ConstellationType,AgcDb,CarrierFrequencyHz
# 
# Fix,Provider,Latitude,Longitude,Altitude,Speed,Accuracy,(UTC)TimeInMs
# 
# Nav,Svid,Type,Status,MessageId,Sub-messageId,Data(Bytes)
# 
Raw,253922945,32705740000000,,,-1221706436699088384,0.0,14.515542716253549,-1.585957560477653,9.512081314724433,48,10,0.0,15,43142370517097,5,48.5,-312.4898986816406,0.03280000016093254,0,0.0,0.0,,,,,0,,1,,
Raw,253922955,32705740000000,,,-1221706436699088384,0.0,14.515542716253549,-1.585957560477653,9.512081314724433,48,12,0.0,15,43142365133030,5,46.3,22.32623863220215,0.02550000138580799,0,0.0,0.0,,,,,0,,1,,
Raw,253922956,32705740000000,,,-1221706436699088384,0.0,14.515542716253549,-1.585957560477653,9.512081314724433,48,14,0.0,15,43142359979853,4,44.7,-266.0461730957031,0.01680000126361847,0,0.0,0.0,,,,,0,,1,,
Raw,253922957,32705740000000,,,-1221706436699088384,0.0,14.515542716253549,-1.585957560477653,9.512081314724433,48,15,0.0,15,43142357200014,4,42.7,368.60723876953125,0.04430000111460686,0,0.0,0.0,,,,,0,,1,,
Raw,253922957,32705740000000,,,-1221706436699088384,0.0,14.515542716253549,-1.585957560477653,9.512081314724433,48,20,0.0,15,43142372397845,4,51.5,95.77135467529297,0.03580000251531601,0,0.0,0.0,,,,,0,,1,,
Raw,253922958,32705740000000,,,-1221706436699088384,0.0,14.515542716253549,-1.585957560477653,9.512081314724433,48,21,0.0,15,43142362910463,4,44.2,471.6208801269531,0.021300001069903374,0,0.0,0.0,,,,,0,,1,,
Raw,253922958,32705740000000,,,-1221706436699088384,0.0,14.515542716253549,-1.585957560477653,9.512081314724433,48,24,0.0,15,43142360711706,4,43.4,613.5726318359375,0.01860000006854534,0,0.0,0.0,,,,,0,,1,,
Raw,253922958,32705740000000,,,-1221706436699088384,0.0,14.515542716253549,-1.585957560477653,9.512081314724433,48,25,0.0,15,43142366488278,5,47.8,-397.88677978515625,0.02680000104010105,0,0.0,0.0,,,,,0,,1,,
Raw,253922958,32705740000000,,,-1221706436699088384,0.0,14.515542716253549,-1.585957560477653,9.512081314724433,48,31,0.0,15,43142362972107,4,44.6,-525.4761962890625,0.021300001069903374,0,0.0,0.0,,,,,0,,1,,
Raw,253922959,32705740000000,,,-1221706436699088384,0.0,14.515542716253549,-1.585957560477653,9.512081314724433,48,32,0.0,15,43142364199483,5,47.1,-232.599609375,0.023800000548362732,0,0.0,0.0,,,,,0,,1,,
Raw,253923992,32706740000000,,,-1221706436699088384,0.0,15.492085367441177,-2.7940672393164188,10.488624005946127,48,10,0.0,15,43143370518145,5,47.4,-314.4497375488281,0.03280000016093254,0,0.0,0.0,,,,,0,,1,,
Raw,253923993,32706740000000,,,-1221706436699088384,0.0,15.492085367441177,-2.7940672393164188,10.488624005946127,48,12,0.0,15,43143365132956,4,44.3,20.40410804748535,0.025800000876188278,0,0.0,0.0,,,,,0,,1,,
Raw,253923994,32706740000000,,,-1221706436699088384,0.0,15.492085367441177,-2.7940672393164188,10.488624005946127,48,14,0.0,15,43143359980744,4,42.6,-268.0884704589844,0.01730000041425228,0,0.0,0.0,,,,,0,,1,,
Raw,253923995,32706740000000,,,-1221706436699088384,0.0,15.492085367441177,-2.7940672393164188,10.488624005946127,48,15,0.0,15,43143357198785,5,40.7,366.568359375,0.04490000009536743,0,0.0,0.0,,,,,0,,1,,
Raw,253923996,32706740000000,,,-1221706436699088384,0.0,15.492085367441177,-2.7940672393164188,10.488624005946127,48,20,0.0,15,43143372397526,4,49.3,93.84587097167969,0.03580000251531601,0,0.0,0.0,,,,,0,,1,,
Raw,253923996,32706740000000,,,-1221706436699088384,0.0,15.492085367441177,-2.7940672393164188,10.488624005946127,48,21,0.0,15,43143362908892,4,43.0,469.6061096191406,0.02160000056028366,0,0.0,0.0,,,,,0,,1,,
Raw,253923997,32706740000000,,,-1221706436699088384,0.0,15.492085367441177,-2.7940672393164188,10.488624005946127,48,24,0.0,15,43143360709657,5,41.5,611.5435791015625,0.019100001081824303,0,0.0,0.0,,,,,0,,1,,
Raw,253923998,32706740000000,,,-1221706436699088384,0.0,15.492085367441177,-2.7940672393164188,10.488624005946127,48,25,0.0,15,43143366489603,4,45.9,-399.8430480957031,0.02710000053048134,0,0.0,0.0,,,,,0,,1,,
Raw,253923998,32706740000000,,,-1221706436699088384,0.0,15.492085367441177,-2.7940672393164188,10.488624005946127,48,31,0.0,15,43143362973856,4,42.9,-527.4468994140625,0.021800000220537186,0,0.0,0.0,,,,,0,,1,,
Raw,253923999,32706740000000,,,-1221706436699088384,0.0,15.492085367441177,-2.7940672393164188,10.488624005946127,48,32,0.0,15,43143364200261,4,44.9,-234.64344787597656,0.024300001561641693,0,0.0,0.0,,,,,0,,1,,
Raw,253924991,32707740000000,,,-1221706436699088384,0.0,14.51550269848667,-9.602495763507791,9.512041550785625,48,10,0.0,15,43144370519198,5,47.9,-313.0259094238281,0.03280000016093254,0,0.0,0.0,,,,,0,,1,,
Raw,253924992,32707740000000,,,-1221706436699088384,0.0,14.51550269848667,-9.602495763507791,9.512041550785625,48,12,0.0,15,43144365132897,4,44.5,21.876096725463867,0.025800000876188278,0,0.0,0.0,,,,,0,,1,,
Raw,253924992,32707740000000,,,-1221706436699088384,0.0,14.51550269848667,-9.602495763507791,9.512041550785625,48,14,0.0,15,43144359981641,4,42.6,-266.72509765625,0.01730000041425228,0,0.0,0.0,,,,,0,,1,,
Raw,253924994,32707740000000,,,-1221706436699088384,0.0,14.51550269848667,-9.602495763507791,9.512041550785625,48,15,0.0,15,43144357197563,5,41.0,367.8960876464844,0.044600002467632294,0,0.0,0.0,,,,,0,,1,,
Raw,253924995,32707740000000,,,-1221706436699088384,0.0,14.51550269848667,-9.602495763507791,9.512041550785625,48,20,0.0,15,43144372397220,4,49.4,95.28778839111328,0.03580000251531601,0,0.0,0.0,,,,,0,,1,,
Raw,253924995,32707740000000,,,-1221706436699088384,0.0,14.51550269848667,-9.602495763507791,9.512041550785625,48,21,0.0,15,43144362907328,4,42.1,470.9904479980469,0.021800000220537186,0,0.0,0.0,,,,,0,,1,,
Raw,253924996,32707740000000,,,-1221706436699088384,0.0,14.51550269848667,-9.602495763507791,9.512041550785625,48,24,0.0,15,43144360707630,5,41.7,612.9046630859375,0.019100001081824303,0,0.0,0.0,,,,,0,,1,,
Raw,253924996,32707740000000,,,-1221706436699088384,0.0,14.51550269848667,-9.602495763507791,9.512041550785625,48,25,0.0,15,43144366490946,4,45.9,-398.4063720703125,0.02710000053048134,0,0.0,0.0,,,,,0,,1,,
Raw,253924997,32707740000000,,,-1221706436699088384,0.0,14.51550269848667,-9.602495763507791,9.512041550785625,48,31,0.0,15,43144362975624,4,43.1,-526.02099609375,0.02160000056028366,0,0.0,0.0,,,,,0,,1,,
Raw,253924997,32707740000000,,,-1221706436699088384,0.0,14.51550269848667,-9.602495763507791,9.512041550785625,48,32,0.0,15,43144364201050,4,45.4,-233.29029846191406,0.02410000190138817,0,0.0,0.0,,,,,0,,1,,
Raw,253925957,32708740000000,,,-1221706436699088384,0.0,14.51548178010853,-5.079907997970474,9.512020873537447,48,10,0.0,15,43145370520231,4,49.1,-311.9331970214844,0.03280000016093254,0,0.0,0.0,,,,,0,,1,,
Raw,253925958,32708740000000,,,-1221706436699088384,0.0,14.51548178010853,-5.079907997970474,9.512020873537447,48,12,0.0,15,43145365132816,5,46.2,23.003450393676758,0.02550000138580799,0,0.0,0.0,,,,,0,,1,,
Raw,253925958,32708740000000,,,-1221706436699088384,0.0,14.51548178010853,-5.079907997970474,9.512020873537447,48,14,0.0,15,43145359982524,4,44.1,-265.72540283203125,0.01680000126361847,0,0.0,0.0,,,,,0,,1,,
Raw,253925959,32708740000000,,,-1221706436699088384,0.0,14.51548178010853,-5.079907997970474,9.512020873537447,48,15,0.0,15,43145357196334,4,42.5,368.919677734375,0.04430000111460686,0,0.0,0.0,,,,,0,,1,,
Raw,253925959,32708740000000,,,-1221706436699088384,0.0,14.51548178010853,-5.079907997970474,9.512020873537447,48,20,0.0,15,43145372396892,4,51.2,96.40899658203125,0.03580000251531601,0,0.0,0.0,,,,,0,,1,,
Raw,253925959,32708740000000,,,-1221706436699088384,0.0,14.51548178010853,-5.079907997970474,9.512020873537447,48,21,0.0,15,43145362905748,4,43.1,472.0193176269531,0.02160000056028366,0,0.0,0.0,,,,,0,,1,,
Raw,253925960,32708740000000,,,-1221706436699088384,0.0,14.51548178010853,-5.079907997970474,9.512020873537447,48,24,0.0,15,43145360705573,4,43.3,613.912841796875,0.01860000006854534,0,0.0,0.0,,,,,0,,1,,
Raw,253925960,32708740000000,,,-1221706436699088384,0.0,14.51548178010853,-5.079907997970474,9.512020873537447,48,25,0.0,15,43145366492265,5,47.0,-397.3146057128906,0.02680000104010105,0,0.0,0.0,,,,,0,,1,,
Raw,253925960,32708740000000,,,-1221706436699088384,0.0,14.51548178010853,-5.079907997970474,9.512020873537447,48,31,0.0,15,43145362977371,4,44.3,-524.9462280273438,0.021300001069903374,0,0.0,0.0,,,,,0,,1,,
Raw,253925961,32708740000000,,,-1221706436699088384,0.0,14.51548178010853,-5.079907997970474,9.512020873537447,48,32,0.0,15,43145364201820,5,46.9,-232.27413940429688,0.024000000208616257,0,0.0,0.0,,,,,0,,1,,
Raw,253926960,32709740000000,,,-1221706436699088384,0.0,14.515462680719793,-1.7258054444790725,9.512000991568042,48,10,0.0,15,43146370521265,4,49.0,-311.6512145996094,0.03280000016093254,0,0.0,0.0,,,,,0,,1,,
Raw,253926960,32709740000000,,,-1221706436699088384,0.0,14.515462680719793,-1.7258054444790725,9.512000991568042,48,12,0.0,15,43146365132732,5,46.1,23.31420135498047,0.02550000138580799,0,0.0,0.0,,,,,0,,1,,
Raw,253926960,32709740000000,,,-1221706436699088384,0.0,14.515462680719793,-1.7258054444790725,9.512000991568042,48,14,0.0,15,43146359983401,4,44.3,-265.55682373046875,0.01680000126361847,0,0.0,0.0,,,,,0,,1,,
Raw,253926961,32709740000000,,,-1221706436699088384,0.0,14.515462680719793,-1.7258054444790725,9.512000991568042,48,15,0.0,15,43146357195095,4,42.4,369.127685546875,0.04430000111460686,0,0.0,0.0,,,,,0,,1,,
Raw,253926961,32709740000000,,,-1221706436699088384,0.0,14.515462680719793,-1.7258054444790725,9.512000991568042,48,20,0.0,15,43146372396562,4,51.8,96.7239990234375,0.03580000251531601,0,0.0,0.0,,,,,0,,1,,
Raw,253926961,32709740000000,,,-1221706436699088384,0.0,14.515462680719793,-1.7258054444790725,9.512000991568042,48,21,0.0,15,43146362904165,4,44.6,472.2325134277344,0.021300001069903374,0,0.0,0.0,,,,,0,,1,,
Raw,253926962,32709740000000,,,-1221706436699088384,0.0,14.515462680719793,-1.7258054444790725,9.512000991568042,48,24,0.0,15,43146360703521,4,43.4,614.110107421875,0.01860000006854534,0,0.0,0.0,,,,,0,,1,,
Raw,253926962,32709740000000,,,-1221706436699088384,0.0,14.515462680719793,-1.7258054444790725,9.512000991568042,48,25,0.0,15,43146366493579,5,48.0,-397.0366516113281,0.02680000104010105,0,0.0,0.0,,,,,0,,1,,
Raw,253926962,32709740000000,,,-1221706436699088384,0.0,14.515462680719793,-1.7258054444790725,9.512000991568042,48,31,0.0,15,43146362979113,4,44.9,-524.68896484375,0.021300001069903374,0,0.0,0.0,,,,,0,,1,,
Raw,253926963,32709740000000,,,-1221706436699088384,0.0,14.515462680719793,-1.7258054444790725,9.512000991568042,48,32,0.0,15,43146364202586,5,47.0,-232.08145141601562,0.023800000548362732,0,0.0,0.0,,,,,0,,1,,
Raw,253927960,32710740000000,,,-1221706436699088384,0.0,14.515442671836354,-1.1232107865976508,9.511981109598638,48,10,0.0,15,43147370522302,5,48.4,-311.94842529296875,0.03280000016093254,0,0.0,0.0,,,,,0,,1,,
Raw,253927961,32710740000000,,,-1221706436699088384,0.0,14.515442671836354,-1.1232107865976508,9.511981109598638,48,12,0.0,15,43147365132646,4,45.7,23.056720733642578,0.025600001215934753,0,0.0,0.0,,,,,0,,1,,
Raw,253927961,32710740000000,,,-1221706436699088384,0.0,14.515442671836354,-1.1232107865976508,9.511981109598638,48,14,0.0,15,43147359984287,4,43.7,-265.933837890625,0.017100000753998756,0,0.0,0.0,,,,,0,,1,,
Raw,253927962,32710740000000,,,-1221706436699088384,0.0,14.515442671836354,-1.1232107865976508,9.511981109598638,48,15,0.0,15,43147357193858,4,42.0,368.75799560546875,0.04430000111460686,0,0.0,0.0,,,,,0,,1,,
Raw,253927962,32710740000000,,,-1221706436699088384,0.0,14.515442671836354,-1.1232107865976508,9.511981109598638,48,20,0.0,15,43147372396237,4,51.2,96.4507827758789,0.03580000251531601,0,0.0,0.0,,,,,0,,1,,
Raw,253927962,32710740000000,,,-1221706436699088384,0.0,14.515442671836354,-1.1232107865976508,9.511981109598638,48,21,0.0,15,43147362902587,4,43.9,471.87872314453125,0.02160000056028366,0,0.0,0.0,,,,,0,,1,,
Raw,253927963,32710740000000,,,-1221706436699088384,0.0,14.515442671836354,-1.1232107865976508,9.511981109598638,48,24,0.0,15,43147360701465,4,42.9,613.7290649414062,0.018800001591444016,0,0.0,0.0,,,,,0,,1,,
Raw,253927963,32710740000000,,,-1221706436699088384,0.0,14.515442671836354,-1.1232107865976508,9.511981109598638,48,25,0.0,15,43147366494904,5,47.6,-397.3290100097656,0.02680000104010105,0,0.0,0.0,,,,,0,,1,,
Raw,253927964,32710740000000,,,-1221706436699088384,0.0,14.515442671836354,-1.1232107865976508,9.511981109598638,48,31,0.0,15,43147362980863,4,44.0,-524.995361328125,0.021300001069903374,0,0.0,0.0,,,,,0,,1,,
Raw,253927964,32710740000000,,,-1221706436699088384,0.0,14.515442671836354,-1.1232107865976508,9.511981109598638,48,32,0.0,15,43147364203355,5,46.3,-232.46116638183594,0.024000000208616257,0,0.0,0.0,,,,,0,,1,,
Raw,253928958,32711740000000,,,-1221706436699088384,0.0,14.515421753458213,-2.3764574070662516,9.511960432350458,48,10,0.0,15,43148370523348,5,47.4,-311.6679992675781,0.03280000016093254,0,0.0,0.0,,,,,0,,1,,
Raw,253928958,32711740000000,,,-1221706436699088384,0.0,14.515421753458213,-2.3764574070662516,9.511960432350458,48,12,0.0,15,43148365132567,4,43.1,23.37693977355957,0.026100000366568565,0,0.0,0.0,,,,,0,,1,,
Raw,253928959,32711740000000,,,-1221706436699088384,0.0,14.515421753458213,-2.3764574070662516,9.511960432350458,48,14,0.0,15,43148359985175,5,41.3,-265.7345275878906,0.01759999990463257,0,0.0,0.0,,,,,0,,1,,
Raw,253928959,32711740000000,,,-1221706436699088384,0.0,14.515421753458213,-2.3764574070662516,9.511960432350458,48,15,0.0,15,43148357192634,6,39.5,368.9481506347656,0.045100003480911255,0,0.0,0.0,,,,,0,,1,,
Raw,253928959,32711740000000,,,-1221706436699088384,0.0,14.515421753458213,-2.3764574070662516,9.511960432350458,48,20,0.0,15,43148372395922,5,48.7,96.76013946533203,0.03580000251531601,0,0.0,0.0,,,,,0,,1,,
Raw,253928960,32711740000000,,,-1221706436699088384,0.0,14.515421753458213,-2.3764574070662516,9.511960432350458,48,21,0.0,15,43148362901016,5,41.7,472.1081848144531,0.022100001573562622,0,0.0,0.0,,,,,0,,1,,
Raw,253928960,32711740000000,,,-1221706436699088384,0.0,14.515421753458213,-2.3764574070662516,9.511960432350458,48,24,0.0,15,43148360699419,5,40.6,613.9432373046875,0.01940000057220459,0,0.0,0.0,,,,,0,,1,,
Raw,253928960,32711740000000,,,-1221706436699088384,0.0,14.515421753458213,-2.3764574070662516,9.511960432350458,48,25,0.0,15,43148366496232,4,44.9,-397.0408630371094,0.027300002053380013,0,0.0,0.0,,,,,0,,1,,
Raw,253928961,32711740000000,,,-1221706436699088384,0.0,14.515421753458213,-2.3764574070662516,9.511960432350458,48,31,0.0,15,43148362982617,4,42.0,-524.7315063476562,0.021800000220537186,0,0.0,0.0,,,,,0,,1,,
Raw,253928961,32711740000000,,,-1221706436699088384,0.0,14.515421753458213,-2.3764574070662516,9.511960432350458,48,32,0.0,15,43148364204138,4,44.0,-232.2602996826172,0.024300001561641693,0,0.0,0.0,,,,,0,,1,,
Raw,253929958,32712740000000,,,-1221706436699088384,0.0,14.515400835080072,-1.7226959044642696,9.511940550381054,48,10,0.0,15,43149370524381,4,49.6,-311.4535217285156,0.03280000016093254,0,0.0,0.0,,,,,0,,1,,
Raw,253929959,32712740000000,,,-1221706436699088384,0.0,14.515400835080072,-1.7226959044642696,9.511940550381054,48,12,0.0,15,43149365132492,4,45.5,23.628803253173828,0.025600001215934753,0,0.0,0.0,,,,,0,,1,,
Raw,253929959,32712740000000,,,-1221706436699088384,0.0,14.515400835080072,-1.7226959044642696,9.511940550381054,48,14,0.0,15,43149359986055,4,43.8,-265.59906005859375,0.017100000753998756,0,0.0,0.0,,,,,0,,1,,
Raw,253929959,32712740000000,,,-1221706436699088384,0.0,14.515400835080072,-1.7226959044642696,9.511940550381054,48,15,0.0,15,43149357191393,5,41.8,369.09149169921875,0.044600002467632294,0,0.0,0.0,,,,,0,,1,,
Raw,253929960,32712740000000,,,-1221706436699088384,0.0,14.515400835080072,-1.7226959044642696,9.511940550381054,48,20,0.0,15,43149372395592,4,50.8,96.9967041015625,0.03580000251531601,0,0.0,0.0,,,,,0,,1,,
Raw,253929960,32712740000000,,,-1221706436699088384,0.0,14.515400835080072,-1.7226959044642696,9.511940550381054,48,21,0.0,15,43149362899442,4,43.9,472.2599182128906,0.02160000056028366,0,0.0,0.0,,,,,0,,1,,
Raw,253929961,32712740000000,,,-1221706436699088384,0.0,14.515400835080072,-1.7226959044642696,9.511940550381054,48,24,0.0,15,43149360697372,4,43.4,614.0762329101562,0.01860000006854534,0,0.0,0.0,,,,,0,,1,,
Raw,253929961,32712740000000,,,-1221706436699088384,0.0,14.515400835080072,-1.7226959044642696,9.511940550381054,48,25,0.0,15,43149366497550,5,47.2,-396.82562255859375,0.02680000104010105,0,0.0,0.0,,,,,0,,1,,
Raw,253929961,32712740000000,,,-1221706436699088384,0.0,14.515400835080072,-1.7226959044642696,9.511940550381054,48,31,0.0,15,43149362984362,4,43.8,-524.5270385742188,0.02160000056028366,0,0.0,0.0,,,,,0,,1,,
Raw,253929962,32712740000000,,,-1221706436699088384,0.0,14.515400835080072,-1.7226959044642696,9.511940550381054,48,32,0.0,15,43149364204907,5,46.2,-232.1317901611328,0.024000000208616257,0,0.0,0.0,,,,,0,,1,,
Raw,253930958,32713740000000,,,-1221706436699088384,0.0,14.515380826196633,-1.2697315565803247,9.51192066841165,48,10,0.0,15,43150370525418,4,49.9,-311.4499816894531,0.03280000016093254,0,0.0,0.0,,,,,0,,1,,
Raw,253930959,32713740000000,,,-1221706436699088384,0.0,14.515380826196633,-1.2697315565803247,9.51192066841165,48,12,0.0,15,43150365132412,5,46.6,23.665311813354492,0.02550000138580799,0,0.0,0.0,,,,,0,,1,,
Raw,253930959,32713740000000,,,-1221706436699088384,0.0,14.515380826196633,-1.2697315565803247,9.51192066841165,48,14,0.0,15,43150359986946,4,44.2,-265.688232421875,0.01680000126361847,0,0.0,0.0,,,,,0,,1,,
Raw,253930959,32713740000000,,,-1221706436699088384,0.0,14.515380826196633,-1.2697315565803247,9.51192066841165,48,15,0.0,15,43150357190170,4,42.5,369.0196838378906,0.04430000111460686,0,0.0,0.0,,,,,0,,1,,
Raw,253930960,32713740000000,,,-1221706436699088384,0.0,14.515380826196633,-1.2697315565803247,9.51192066841165,48,20,0.0,15,43150372395265,4,52.0,97.0355224609375,0.03580000251531601,0,0.0,0.0,,,,,0,,1,,
Raw,253930960,32713740000000,,,-1221706436699088384,0.0,14.515380826196633,-1.2697315565803247,9.51192066841165,48,21,0.0,15,43150362897858,4,44.9,472.20904541015625,0.021300001069903374,0,0.0,0.0,,,,,0,,1,,
Raw,253930960,32713740000000,,,-1221706436699088384,0.0,14.515380826196633,-1.2697315565803247,9.51192066841165,48,24,0.0,15,43150360695319,4,44.2,613.990478515625,0.018300000578165054,0,0.0,0.0,,,,,0,,1,,
Raw,253930961,32713740000000,,,-1221706436699088384,0.0,14.515380826196633,-1.2697315565803247,9.51192066841165,48,25,0.0,15,43150366498871,5,48.2,-396.8194580078125,0.02680000104010105,0,0.0,0.0,,,,,0,,1,,
Raw,253930961,32713740000000,,,-1221706436699088384,0.0,14.515380826196633,-1.2697315565803247,9.51192066841165,48,31,0.0,15,43150362986108,4,44.3,-524.5435180664062,0.021300001069903374,0,0.0,0.0,,,,,0,,1,,
Raw,253930961,32713740000000,,,-1221706436699088384,0.0,14.515380826196633,-1.2697315565803247,9.51192066841165,48,32,0.0,15,43150364205678,5,47.1,-232.21397399902344,0.023800000548362732,0,0.0,0.0,,,,,0,,1,,
Raw,253931980,32714740000000,,,-1221706436699088384,0.0,14.515360817313194,-1.5661454761959979,9.51189999116347,48,10,0.0,15,43151370526455,4,49.9,-311.37725830078125,0.03280000016093254,0,0.0,0.0,,,,,0,,1,,
Raw,253931981,32714740000000,,,-1221706436699088384,0.0,14.515360817313194,-1.5661454761959979,9.51189999116347,48,12,0.0,15,43151365132331,5,46.0,23.778886795043945,0.02550000138580799,0,0.0,0.0,,,,,0,,1,,
Raw,253931981,32714740000000,,,-1221706436699088384,0.0,14.515360817313194,-1.5661454761959979,9.51189999116347,48,14,0.0,15,43151359987824,4,43.8,-265.69659423828125,0.017100000753998756,0,0.0,0.0,,,,,0,,1,,
Raw,253931981,32714740000000,,,-1221706436699088384,0.0,14.515360817313194,-1.5661454761959979,9.51189999116347,48,15,0.0,15,43151357188934,4,42.2,369.0162353515625,0.04430000111460686,0,0.0,0.0,,,,,0,,1,,
Raw,253931981,32714740000000,,,-1221706436699088384,0.0,14.515360817313194,-1.5661454761959979,9.51189999116347,48,20,0.0,15,43151372394939,4,51.1,97.13224029541016,0.03580000251531601,0,0.0,0.0,,,,,0,,1,,
Raw,253931982,32714740000000,,,-1221706436699088384,0.0,14.515360817313194,-1.5661454761959979,9.51189999116347,48,21,0.0,15,43151362896283,4,44.0,472.22174072265625,0.021300001069903374,0,0.0,0.0,,,,,0,,1,,
Raw,253931982,32714740000000,,,-1221706436699088384,0.0,14.515360817313194,-1.5661454761959979,9.51189999116347,48,24,0.0,15,43151360693272,4,43.0,613.997802734375,0.01860000006854534,0,0.0,0.0,,,,,0,,1,,
Raw,253931982,32714740000000,,,-1221706436699088384,0.0,14.515360817313194,-1.5661454761959979,9.51189999116347,48,25,0.0,15,43151366500197,5,47.3,-396.74163818359375,0.02680000104010105,0,0.0,0.0,,,,,0,,1,,
Raw,253931983,32714740000000,,,-1221706436699088384,0.0,14.515360817313194,-1.5661454761959979,9.51189999116347,48,31,0.0,15,43151362987857,4,44.4,-524.4801635742188,0.021300001069903374,0,0.0,0.0,,,,,0,,1,,
Raw,253931983,32714740000000,,,-1221706436699088384,0.0,14.515360817313194,-1.5661454761959979,9.51189999116347,48,32,0.0,15,43151364206449,5,46.4,-232.21646118164062,0.024000000208616257,0,0.0,0.0,,,,,0,,1,,
Raw,253932957,32715740000000,,,-1221706436699088384,0.0,14.515340808429755,-1.577560609519521,9.511880109194065,48,10,0.0,15,43152370527490,4,49.2,-311.35504150390625,0.03280000016093254,0,0.0,0.0,,,,,0,,1,,
Raw,253932957,32715740000000,,,-1221706436699088384,0.0,14.515340808429755,-1.577560609519521,9.511880109194065,48,12,0.0,15,43152365132248,4,44.9,23.839494705200195,0.025800000876188278,0,0.0,0.0,,,,,0,,1,,
Raw,253932957,32715740000000,,,-1221706436699088384,0.0,14.515340808429755,-1.577560609519521,9.511880109194065,48,14,0.0,15,43152359988710,4,42.8,-265.7598876953125,0.01730000041425228,0,0.0,0.0,,,,,0,,1,,
Raw,253932958,32715740000000,,,-1221706436699088384,0.0,14.515340808429755,-1.577560609519521,9.511880109194065,48,15,0.0,15,43152357187700,5,41.1,368.957763671875,0.044600002467632294,0,0.0,0.0,,,,,0,,1,,
Raw,253932958,32715740000000,,,-1221706436699088384,0.0,14.515340808429755,-1.577560609519521,9.511880109194065,48,20,0.0,15,43152372394611,4,50.0,97.18177032470703,0.03580000251531601,0,0.0,0.0,,,,,0,,1,,
Raw,253932958,32715740000000,,,-1221706436699088384,0.0,14.515340808429755,-1.577560609519521,9.511880109194065,48,21,0.0,15,43152362894700,4,43.2,472.1898498535156,0.02160000056028366,0,0.0,0.0,,,,,0,,1,,
Raw,253932959,32715740000000,,,-1221706436699088384,0.0,14.515340808429755,-1.577560609519521,9.511880109194065,48,24,0.0,15,43152360691219,4,42.7,613.9376220703125,0.018800001591444016,0,0.0,0.0,,,,,0,,1,,
Raw,253932959,32715740000000,,,-1221706436699088384,0.0,14.515340808429755,-1.577560609519521,9.511880109194065,48,25,0.0,15,43152366501516,5,46.4,-396.71728515625,0.027000000700354576,0,0.0,0.0,,,,,0,,1,,
Raw,253932959,32715740000000,,,-1221706436699088384,0.0,14.515340808429755,-1.577560609519521,9.511880109194065,48,31,0.0,15,43152362989603,4,43.2,-524.4730834960938,0.02160000056028366,0,0.0,0.0,,,,,0,,1,,
Raw,253932960,32715740000000,,,-1221706436699088384,0.0,14.515340808429755,-1.577560609519521,9.511880109194065,48,32,0.0,15,43152364207225,4,45.4,-232.27105712890625,0.02410000190138817,0,0.0,0.0,,,,,0,,1,,
Raw,253933974,32716740000000,,,-1221706436699088384,0.0,14.515320799546316,-1.7878944490917807,9.511859431945885,48,10,0.0,15,43153370528524,4,50.6,-311.4186706542969,0.03280000016093254,0,0.0,0.0,,,,,0,,1,,
Raw,253933975,32716740000000,,,-1221706436699088384,0.0,14.515320799546316,-1.7878944490917807,9.511859431945885,48,12,0.0,15,43153365132163,5,46.3,23.812175750732422,0.02550000138580799,0,0.0,0.0,,,,,0,,1,,
Raw,253933975,32716740000000,,,-1221706436699088384,0.0,14.515320799546316,-1.7878944490917807,9.511859431945885,48,14,0.0,15,43153359989589,4,44.4,-265.9078063964844,0.01680000126361847,0,0.0,0.0,,,,,0,,1,,
Raw,253933976,32716740000000,,,-1221706436699088384,0.0,14.515320799546316,-1.7878944490917807,9.511859431945885,48,15,0.0,15,43153357186467,4,42.4,368.8225402832031,0.04430000111460686,0,0.0,0.0,,,,,0,,1,,
Raw,253933976,32716740000000,,,-1221706436699088384,0.0,14.515320799546316,-1.7878944490917807,9.511859431945885,48,20,0.0,15,43153372394287,4,51.8,97.14659881591797,0.03580000251531601,0,0.0,0.0,,,,,0,,1,,
Raw,253933977,32716740000000,,,-1221706436699088384,0.0,14.515320799546316,-1.7878944490917807,9.511859431945885,48,21,0.0,15,43153362893124,4,44.6,472.0683288574219,0.021300001069903374,0,0.0,0.0,,,,,0,,1,,
Raw,253933977,32716740000000,,,-1221706436699088384,0.0,14.515320799546316,-1.7878944490917807,9.511859431945885,48,24,0.0,15,43153360689170,4,43.7,613.7950439453125,0.01860000006854534,0,0.0,0.0,,,,,0,,1,,
Raw,253933977,32716740000000,,,-1221706436699088384,0.0,14.515320799546316,-1.7878944490917807,9.511859431945885,48,25,0.0,15,43153366502835,5,48.2,-396.7807312011719,0.02680000104010105,0,0.0,0.0,,,,,0,,1,,
Raw,253933978,32716740000000,,,-1221706436699088384,0.0,14.515320799546316,-1.7878944490917807,9.511859431945885,48,31,0.0,15,43153362991352,4,44.7,-524.5514526367188,0.021300001069903374,0,0.0,0.0,,,,,0,,1,,
Raw,253933978,32716740000000,,,-1221706436699088384,0.0,14.515320799546316,-1.7878944490917807,9.511859431945885,48,32,0.0,15,43153364207995,5,46.9,-232.42251586914062,0.024000000208616257,0,0.0,0.0,,,,,0,,1,,
Raw,253934975,32717740000000,,,-1221706436699088384,0.0,14.515300790662877,-2.274256330361056,9.51183954997648,48,10,0.0,15,43154370529559,4,49.2,-311.625244140625,0.03280000016093254,0,0.0,0.0,,,,,0,,1,,
Raw,253934976,32717740000000,,,-1221706436699088384,0.0,14.515300790662877,-2.274256330361056,9.51183954997648,48,12,0.0,15,43154365132080,5,46.4,23.63912582397461,0.02550000138580799,0,0.0,0.0,,,,,0,,1,,
Raw,253934976,32717740000000,,,-1221706436699088384,0.0,14.515300790662877,-2.274256330361056,9.51183954997648,48,14,0.0,15,43154359990475,4,44.5,-266.19818115234375,0.01680000126361847,0,0.0,0.0,,,,,0,,1,,
Raw,253934976,32717740000000,,,-1221706436699088384,0.0,14.515300790662877,-2.274256330361056,9.51183954997648,48,15,0.0,15,43154357185227,4,42.8,368.5368957519531,0.04430000111460686,0,0.0,0.0,,,,,0,,1,,
Raw,253934977,32717740000000,,,-1221706436699088384,0.0,14.515300790662877,-2.274256330361056,9.51183954997648,48,20,0.0,15,43154372393955,4,52.0,96.96712493896484,0.03580000251531601,0,0.0,0.0,,,,,0,,1,,
Raw,253934977,32717740000000,,,-1221706436699088384,0.0,14.515300790662877,-2.274256330361056,9.51183954997648,48,21,0.0,15,43154362891547,4,44.8,471.8018798828125,0.021300001069903374,0,0.0,0.0,,,,,0,,1,,
Raw,253934977,32717740000000,,,-1221706436699088384,0.0,14.515300790662877,-2.274256330361056,9.51183954997648,48,24,0.0,15,43154360687114,4,42.9,613.5098876953125,0.018800001591444016,0,0.0,0.0,,,,,0,,1,,
Raw,253934977,32717740000000,,,-1221706436699088384,0.0,14.515300790662877,-2.274256330361056,9.51183954997648,48,25,0.0,15,43154366504154,5,48.1,-396.9865417480469,0.02680000104010105,0,0.0,0.0,,,,,0,,1,,
Raw,253934978,32717740000000,,,-1221706436699088384,0.0,14.515300790662877,-2.274256330361056,9.51183954997648,48,31,0.0,15,43154362993092,4,45.3,-524.7725830078125,0.02110000140964985,0,0.0,0.0,,,,,0,,1,,
Raw,253934978,32717740000000,,,-1221706436699088384,0.0,14.515300790662877,-2.274256330361056,9.51183954997648,48,32,0.0,15,43154364208763,5,47.2,-232.71649169921875,0.023800000548362732,0,0.0,0.0,,,,,0,,1,,
Raw,253935958,32718740000000,,,-1221706436699088384,0.0,14.515280781779438,-3.2474846972830833,9.511819668007076,48,10,0.0,15,43155370530594,4,49.1,-312.38153076171875,0.03280000016093254,0,0.0,0.0,,,,,0,,1,,
Raw,253935959,32718740000000,,,-1221706436699088384,0.0,14.515280781779438,-3.2474846972830833,9.511819668007076,48,12,0.0,15,43155365131998,5,46.1,22.918724060058594,0.02550000138580799,0,0.0,0.0,,,,,0,,1,,
Raw,253935959,32718740000000,,,-1221706436699088384,0.0,14.515280781779438,-3.2474846972830833,9.511819668007076,48,14,0.0,15,43155359991358,4,43.7,-267.0502624511719,0.017100000753998756,0,0.0,0.0,,,,,0,,1,,
Raw,253935960,32718740000000,,,-1221706436699088384,0.0,14.515280781779438,-3.2474846972830833,9.511819668007076,48,15,0.0,15,43155357184000,4,42.3,367.7028503417969,0.04430000111460686,0,0.0,0.0,,,,,0,,1,,
Raw,253935960,32718740000000,,,-1221706436699088384,0.0,14.515280781779438,-3.2474846972830833,9.511819668007076,48,20,0.0,15,43155372393629,4,50.7,96.23790740966797,0.03580000251531601,0,0.0,0.0,,,,,0,,1,,
Raw,253935960,32718740000000,,,-1221706436699088384,0.0,14.515280781779438,-3.2474846972830833,9.511819668007076,48,21,0.0,15,43155362889970,4,42.8,470.9834289550781,0.021800000220537186,0,0.0,0.0,,,,,0,,1,,
Raw,253935960,32718740000000,,,-1221706436699088384,0.0,14.515280781779438,-3.2474846972830833,9.511819668007076,48,24,0.0,15,43155360685064,4,42.6,612.6618041992188,0.018800001591444016,0,0.0,0.0,,,,,0,,1,,
Raw,253935961,32718740000000,,,-1221706436699088384,0.0,14.515280781779438,-3.2474846972830833,9.511819668007076,48,25,0.0,15,43155366505476,5,47.8,-397.7420959472656,0.02680000104010105,0,0.0,0.0,,,,,0,,1,,
Raw,253935961,32718740000000,,,-1221706436699088384,0.0,14.515280781779438,-3.2474846972830833,9.511819668007076,48,31,0.0,15,43155362994842,4,44.2,-525.5479125976562,0.021300001069903374,0,0.0,0.0,,,,,0,,1,,
Raw,253935961,32718740000000,,,-1221706436699088384,0.0,14.515280781779438,-3.2474846972830833,9.511819668007076,48,32,0.0,15,43155364209539,5,46.7,-233.55685424804688,0.024000000208616257,0,0.0,0.0,,,,,0,,1,,
Raw,253936957,32719740000000,,,-1221706436699088384,0.0,14.515259863401297,-6.081190619000477,9.511798990758896,48,10,0.0,15,43156370531625,5,48.5,-312.14544677734375,0.03280000016093254,0,0.0,0.0,,,,,0,,1,,
Raw,253936957,32719740000000,,,-1221706436699088384,0.0,14.515259863401297,-6.081190619000477,9.511798990758896,48,12,0.0,15,43156365131912,4,45.6,23.197744369506836,0.025600001215934753,0,0.0,0.0,,,,,0,,1,,
Raw,253936957,32719740000000,,,-1221706436699088384,0.0,14.515259863401297,-6.081190619000477,9.511798990758896,48,14,0.0,15,43156359992243,4,43.7,-266.8774108886719,0.017100000753998756,0,0.0,0.0,,,,,0,,1,,
Raw,253936958,32719740000000,,,-1221706436699088384,0.0,14.515259863401297,-6.081190619000477,9.511798990758896,48,15,0.0,15,43156357182761,4,42.2,367.8568420410156,0.04430000111460686,0,0.0,0.0,,,,,0,,1,,
Raw,253936958,32719740000000,,,-1221706436699088384,0.0,14.515259863401297,-6.081190619000477,9.511798990758896,48,20,0.0,15,43156372393299,4,50.4,96.4978256225586,0.03580000251531601,0,0.0,0.0,,,,,0,,1,,
Raw,253936958,32719740000000,,,-1221706436699088384,0.0,14.515259863401297,-6.081190619000477,9.511798990758896,48,21,0.0,15,43156362888390,4,44.1,471.1685791015625,0.021300001069903374,0,0.0,0.0,,,,,0,,1,,
Raw,253936959,32719740000000,,,-1221706436699088384,0.0,14.515259863401297,-6.081190619000477,9.511798990758896,48,24,0.0,15,43156360683020,4,42.8,612.8396606445312,0.018800001591444016,0,0.0,0.0,,,,,0,,1,,
Raw,253936959,32719740000000,,,-1221706436699088384,0.0,14.515259863401297,-6.081190619000477,9.511798990758896,48,25,0.0,15,43156366506790,5,47.4,-397.4954528808594,0.02680000104010105,0,0.0,0.0,,,,,0,,1,,
Raw,253936959,32719740000000,,,-1221706436699088384,0.0,14.515259863401297,-6.081190619000477,9.511798990758896,48,31,0.0,15,43156362996583,4,44.1,-525.3150634765625,0.021300001069903374,0,0.0,0.0,,,,,0,,1,,
Raw,253936960,32719740000000,,,-1221706436699088384,0.0,14.515259863401297,-6.081190619000477,9.511798990758896,48,32,0.0,15,43156364210312,5,46.6,-233.3995361328125,0.024000000208616257,0,0.0,0.0,,,,,0,,1,,
Raw,253937958,32720740000000,,,-1221706436699088384,0.0,14.51524076401256,-5.519573892979092,9.511779108789492,48,10,0.0,15,43157370532676,5,47.2,-311.0074157714844,0.03280000016093254,0,0.0,0.0,,,,,0,,1,,
Raw,253937958,32720740000000,,,-1221706436699088384,0.0,14.51524076401256,-5.519573892979092,9.511779108789492,48,12,0.0,15,43157365131840,4,43.8,24.37491226196289,0.026100000366568565,0,0.0,0.0,,,,,0,,1,,
Raw,253937959,32720740000000,,,-1221706436699088384,0.0,14.51524076401256,-5.519573892979092,9.511779108789492,48,14,0.0,15,43157359993144,5,41.6,-265.8243408203125,0.01759999990463257,0,0.0,0.0,,,,,0,,1,,
Raw,253937959,32720740000000,,,-1221706436699088384,0.0,14.51524076401256,-5.519573892979092,9.511779108789492,48,15,0.0,15,43157357181546,5,40.3,368.9107360839844,0.04490000009536743,0,0.0,0.0,,,,,0,,1,,
Raw,253937959,32720740000000,,,-1221706436699088384,0.0,14.51524076401256,-5.519573892979092,9.511779108789492,48,20,0.0,15,43157372392984,5,48.9,97.66390228271484,0.03580000251531601,0,0.0,0.0,,,,,0,,1,,
Raw,253937960,32720740000000,,,-1221706436699088384,0.0,14.51524076401256,-5.519573892979092,9.511779108789492,48,21,0.0,15,43157362886829,5,41.9,472.25482177734375,0.022100001573562622,0,0.0,0.0,,,,,0,,1,,
Raw,253937960,32720740000000,,,-1221706436699088384,0.0,14.51524076401256,-5.519573892979092,9.511779108789492,48,24,0.0,15,43157360680975,5,40.4,613.8961181640625,0.01940000057220459,0,0.0,0.0,,,,,0,,1,,
Raw,253937961,32720740000000,,,-1221706436699088384,0.0,14.51524076401256,-5.519573892979092,9.511779108789492,48,25,0.0,15,43157366508124,4,45.1,-396.3587646484375,0.02710000053048134,0,0.0,0.0,,,,,0,,1,,
Raw,253937961,32720740000000,,,-1221706436699088384,0.0,14.51524076401256,-5.519573892979092,9.511779108789492,48,31,0.0,15,43157362998346,4,42.1,-524.193115234375,0.021800000220537186,0,0.0,0.0,,,,,0,,1,,
Raw,253937961,32720740000000,,,-1221706436699088384,0.0,14.51524076401256,-5.519573892979092,9.511779108789492,48,32,0.0,15,43157364211100,4,44.4,-232.34417724609375,0.024300001561641693,0,0.0,0.0,,,,,0,,1,,
Raw,253938957,32721740000000,,,-1221706436699088384,0.0,14.51521984563442,-2.0134551931617195,9.511758431541312,48,10,0.0,15,43158370533703,4,49.8,-310.7780456542969,0.03280000016093254,0,0.0,0.0,,,,,0,,1,,
Raw,253938957,32721740000000,,,-1221706436699088384,0.0,14.51521984563442,-2.0134551931617195,9.511758431541312,48,12,0.0,15,43158365131748,5,46.5,24.63636589050293,0.02550000138580799,0,0.0,0.0,,,,,0,,1,,
Raw,253938958,32721740000000,,,-1221706436699088384,0.0,14.51521984563442,-2.0134551931617195,9.511758431541312,48,14,0.0,15,43158359994009,4,44.9,-265.7065124511719,0.01680000126361847,0,0.0,0.0,,,,,0,,1,,
Raw,253938958,32721740000000,,,-1221706436699088384,0.0,14.51521984563442,-2.0134551931617195,9.511758431541312,48,15,0.0,15,43158357180293,4,42.7,369.06787109375,0.04430000111460686,0,0.0,0.0,,,,,0,,1,,
Raw,253938958,32721740000000,,,-1221706436699088384,0.0,14.51521984563442,-2.0134551931617195,9.511758431541312,48,20,0.0,15,43158372392645,4,52.1,97.92229461669922,0.03580000251531601,0,0.0,0.0,,,,,0,,1,,
Raw,253938959,32721740000000,,,-1221706436699088384,0.0,14.51521984563442,-2.0134551931617195,9.511758431541312,48,21,0.0,15,43158362885235,4,44.7,472.4172668457031,0.021300001069903374,0,0.0,0.0,,,,,0,,1,,
Raw,253938959,32721740000000,,,-1221706436699088384,0.0,14.51521984563442,-2.0134551931617195,9.511758431541312,48,24,0.0,15,43158360678917,4,43.5,614.0332641601562,0.01860000006854534,0,0.0,0.0,,,,,0,,1,,
Raw,253938959,32721740000000,,,-1221706436699088384,0.0,14.51521984563442,-2.0134551931617195,9.511758431541312,48,25,0.0,15,43158366509436,5,48.1,-396.1260681152344,0.02680000104010105,0,0.0,0.0,,,,,0,,1,,
Raw,253938959,32721740000000,,,-1221706436699088384,0.0,14.51521984563442,-2.0134551931617195,9.511758431541312,48,31,0.0,15,43158363000082,4,44.8,-523.9813842773438,0.02280000038444996,0,0.0,0.0,,,,,0,,1,,
Raw,253938960,32721740000000,,,-1221706436699088384,0.0,14.51521984563442,-2.0134551931617195,9.511758431541312,48,32,0.0,15,43158364211858,5,47.5,-232.18959045410156,0.023800000548362732,0,0.0,0.0,,,,,0,,1,,
Raw,253939956,32722740000000,,,-1221706436699088384,0.0,14.51519983675098,-1.5717343972053404,9.511738549571907,48,10,0.0,15,43159370534743,5,48.8,-310.7305908203125,0.03280000016093254,0,0.0,0.0,,,,,0,,1,,
Raw,253939957,32722740000000,,,-1221706436699088384,0.0,14.51519983675098,-1.5717343972053404,9.511738549571907,48,12,0.0,15,43159365131678,4,44.7,24.723045349121094,0.025800000876188278,0,0.0,0.0,,,,,0,,1,,
Raw,253939957,32722740000000,,,-1221706436699088384,0.0,14.51519983675098,-1.5717343972053404,9.511738549571907,48,14,0.0,15,43159359994907,4,42.6,-265.739013671875,0.01730000041425228,0,0.0,0.0,,,,,0,,1,,
Raw,253939958,32722740000000,,,-1221706436699088384,0.0,14.51519983675098,-1.5717343972053404,9.511738549571907,48,15,0.0,15,43159357179081,5,41.3,369.0420837402344,0.044600002467632294,0,0.0,0.0,,,,,0,,1,,
Raw,253939958,32722740000000,,,-1221706436699088384,0.0,14.51519983675098,-1.5717343972053404,9.511738549571907,48,20,0.0,15,43159372392331,4,50.2,97.99800872802734,0.03580000251531601,0,0.0,0.0,,,,,0,,1,,
Raw,253939959,32722740000000,,,-1221706436699088384,0.0,14.51519983675098,-1.5717343972053404,9.511738549571907,48,21,0.0,15,43159362883672,4,43.3,472.4071044921875,0.02160000056028366,0,0.0,0.0,,,,,0,,1,,
Raw,253939959,32722740000000,,,-1221706436699088384,0.0,14.51519983675098,-1.5717343972053404,9.511738549571907,48,24,0.0,15,43159360676877,5,41.8,614.0132446289062,0.019100001081824303,0,0.0,0.0,,,,,0,,1,,
Raw,253939960,32722740000000,,,-1221706436699088384,0.0,14.51519983675098,-1.5717343972053404,9.511738549571907,48,25,0.0,15,43159366510765,5,46.7,-396.07391357421875,0.027000000700354576,0,0.0,0.0,,,,,0,,1,,
Raw,253939960,32722740000000,,,-1221706436699088384,0.0,14.51519983675098,-1.5717343972053404,9.511738549571907,48,31,0.0,15,43159363001839,4,43.8,-523.9470825195312,0.023100001737475395,0,0.0,0.0,,,,,0,,1,,
Raw,253939960,32722740000000,,,-1221706436699088384,0.0,14.51519983675098,-1.5717343972053404,9.511738549571907,48,32,0.0,15,43159364212638,4,45.9,-232.22445678710938,0.02410000190138817,0,0.0,0.0,,,,,0,,1,,
Raw,253940955,32723740000000,,,-1221706436699088384,0.0,14.51517891837284,-1.6724106262670875,9.511718667602503,48,10,0.0,15,43160370535775,5,47.7,-311.03314208984375,0.03280000016093254,0,0.0,0.0,,,,,0,,1,,
Raw,253940955,32723740000000,,,-1221706436699088384,0.0,14.51517891837284,-1.6724106262670875,9.511718667602503,48,12,0.0,15,43160365131580,4,45.0,24.448972702026367,0.025600001215934753,0,0.0,0.0,,,,,0,,1,,
Raw,253940956,32723740000000,,,-1221706436699088384,0.0,14.51517891837284,-1.6724106262670875,9.511718667602503,48,14,0.0,15,43160359995786,4,42.7,-266.13421630859375,0.01730000041425228,0,0.0,0.0,,,,,0,,1,,
Raw,253940956,32723740000000,,,-1221706436699088384,0.0,14.51517891837284,-1.6724106262670875,9.511718667602503,48,15,0.0,15,43160357177840,5,41.3,368.6579284667969,0.044600002467632294,0,0.0,0.0,,,,,0,,1,,
Raw,253940956,32723740000000,,,-1221706436699088384,0.0,14.51517891837284,-1.6724106262670875,9.511718667602503,48,20,0.0,15,43160372391995,4,50.1,97.71681213378906,0.03580000251531601,0,0.0,0.0,,,,,0,,1,,
Raw,253940957,32723740000000,,,-1221706436699088384,0.0,14.51517891837284,-1.6724106262670875,9.511718667602503,48,21,0.0,15,43160362882082,4,43.1,472.03887939453125,0.02160000056028366,0,0.0,0.0,,,,,0,,1,,
Raw,253940957,32723740000000,,,-1221706436699088384,0.0,14.51517891837284,-1.6724106262670875,9.511718667602503,48,24,0.0,15,43160360674818,4,42.2,613.6185913085938,0.018800001591444016,0,0.0,0.0,,,,,0,,1,,
Raw,253940957,32723740000000,,,-1221706436699088384,0.0,14.51517891837284,-1.6724106262670875,9.511718667602503,48,25,0.0,15,43160366512080,5,46.3,-396.3773498535156,0.027000000700354576,0,0.0,0.0,,,,,0,,1,,
Raw,253940957,32723740000000,,,-1221706436699088384,0.0,14.51517891837284,-1.6724106262670875,9.511718667602503,48,31,0.0,15,43160363003578,4,43.3,-524.2686767578125,0.023100001737475395,0,0.0,0.0,,,,,0,,1,,
Raw,253940958,32723740000000,,,-1221706436699088384,0.0,14.51517891837284,-1.6724106262670875,9.511718667602503,48,32,0.0,15,43160364213408,4,45.3,-232.61798095703125,0.02410000190138817,0,0.0,0.0,,,,,0,,1,,
Raw,253941979,32724740000000,,,-1221706436699088384,0.0,14.5151589094894,-2.993786194833671,9.511697990354323,48,10,0.0,15,43161370536814,5,48.2,-311.34124755859375,0.03280000016093254,0,0.0,0.0,,,,,0,,1,,
Raw,253941980,32724740000000,,,-1221706436699088384,0.0,14.5151589094894,-2.993786194833671,9.511697990354323,48,12,0.0,15,43161365131497,4,45.7,24.18065643310547,0.025600001215934753,0,0.0,0.0,,,,,0,,1,,
Raw,253941981,32724740000000,,,-1221706436699088384,0.0,14.5151589094894,-2.993786194833671,9.511697990354323,48,14,0.0,15,43161359996676,4,43.4,-266.525634765625,0.017100000753998756,0,0.0,0.0,,,,,0,,1,,
Raw,253941981,32724740000000,,,-1221706436699088384,0.0,14.5151589094894,-2.993786194833671,9.511697990354323,48,15,0.0,15,43161357176607,5,41.5,368.2708435058594,0.044600002467632294,0,0.0,0.0,,,,,0,,1,,
Raw,253941982,32724740000000,,,-1221706436699088384,0.0,14.5151589094894,-2.993786194833671,9.511697990354323,48,20,0.0,15,43161372391668,4,51.0,97.4382095336914,0.03580000251531601,0,0.0,0.0,,,,,0,,1,,
Raw,253941983,32724740000000,,,-1221706436699088384,0.0,14.5151589094894,-2.993786194833671,9.511697990354323,48,21,0.0,15,43161362880515,4,44.2,471.6739501953125,0.021300001069903374,0,0.0,0.0,,,,,0,,1,,
Raw,253941984,32724740000000,,,-1221706436699088384,0.0,14.5151589094894,-2.993786194833671,9.511697990354323,48,24,0.0,15,43161360672777,4,43.2,613.2315063476562,0.01860000006854534,0,0.0,0.0,,,,,0,,1,,
Raw,253941984,32724740000000,,,-1221706436699088384,0.0,14.5151589094894,-2.993786194833671,9.511697990354323,48,25,0.0,15,43161366513398,5,47.2,-396.6788024902344,0.02680000104010105,0,0.0,0.0,,,,,0,,1,,
Raw,253941985,32724740000000,,,-1221706436699088384,0.0,14.5151589094894,-2.993786194833671,9.511697990354323,48,31,0.0,15,43161363005327,4,44.1,-524.58935546875,0.02280000038444996,0,0.0,0.0,,,,,0,,1,,
Raw,253941986,32724740000000,,,-1221706436699088384,0.0,14.5151589094894,-2.993786194833671,9.511697990354323,48,32,0.0,15,43161364214182,5,46.6,-233.00888061523438,0.024000000208616257,0,0.0,0.0,,,,,0,,1,,
Raw,253942973,32725740000000,,,-1221706436699088384,0.0,14.515138900605962,-4.302556793617743,9.511678108384919,48,10,0.0,15,43162370537849,5,48.9,-311.2633056640625,0.03280000016093254,0,0.0,0.0,,,,,0,,1,,
Raw,253942974,32725740000000,,,-1221706436699088384,0.0,14.515138900605962,-4.302556793617743,9.511678108384919,48,12,0.0,15,43162365131417,5,46.6,24.306419372558594,0.02550000138580799,0,0.0,0.0,,,,,0,,1,,
Raw,253942975,32725740000000,,,-1221706436699088384,0.0,14.515138900605962,-4.302556793617743,9.511678108384919,48,14,0.0,15,43162359997564,4,44.6,-266.51397705078125,0.01680000126361847,0,0.0,0.0,,,,,0,,1,,
Raw,253942975,32725740000000,,,-1221706436699088384,0.0,14.515138900605962,-4.302556793617743,9.511678108384919,48,15,0.0,15,43162357175376,4,42.8,368.259765625,0.04430000111460686,0,0.0,0.0,,,,,0,,1,,
Raw,253942976,32725740000000,,,-1221706436699088384,0.0,14.515138900605962,-4.302556793617743,9.511678108384919,48,20,0.0,15,43162372391343,4,51.9,97.54326629638672,0.03580000251531601,0,0.0,0.0,,,,,0,,1,,
Raw,253942977,32725740000000,,,-1221706436699088384,0.0,14.515138900605962,-4.302556793617743,9.511678108384919,48,21,0.0,15,43162362878936,4,44.9,471.7090148925781,0.021300001069903374,0,0.0,0.0,,,,,0,,1,,
Raw,253942977,32725740000000,,,-1221706436699088384,0.0,14.515138900605962,-4.302556793617743,9.511678108384919,48,24,0.0,15,43162360670726,4,43.9,613.2549438476562,0.01860000006854534,0,0.0,0.0,,,,,0,,1,,
Raw,253942978,32725740000000,,,-1221706436699088384,0.0,14.515138900605962,-4.302556793617743,9.511678108384919,48,25,0.0,15,43162366514719,5,48.1,-396.595703125,0.02680000104010105,0,0.0,0.0,,,,,0,,1,,
Raw,253942979,32725740000000,,,-1221706436699088384,0.0,14.515138900605962,-4.302556793617743,9.511678108384919,48,31,0.0,15,43162363007073,4,45.3,-524.5179443359375,0.022600000724196434,0,0.0,0.0,,,,,0,,1,,
Raw,253942979,32725740000000,,,-1221706436699088384,0.0,14.515138900605962,-4.302556793617743,9.511678108384919,48,32,0.0,15,43162364214956,5,47.1,-233.00514221191406,0.023800000548362732,0,0.0,0.0,,,,,0,,1,,
Raw,253943972,32726740000000,,,-1221706436699088384,0.0,14.515118891722523,-4.272860288836988,9.511657431136738,48,10,0.0,15,43163370538878,4,49.1,-310.53277587890625,0.03280000016093254,0,0.0,0.0,,,,,0,,1,,
Raw,253943973,32726740000000,,,-1221706436699088384,0.0,14.515118891722523,-4.272860288836988,9.511657431136738,48,12,0.0,15,43163365131331,5,46.2,25.06593894958496,0.02550000138580799,0,0.0,0.0,,,,,0,,1,,
Raw,253943974,32726740000000,,,-1221706436699088384,0.0,14.515118891722523,-4.272860288836988,9.511657431136738,48,14,0.0,15,43163359998443,4,44.1,-265.8760681152344,0.01680000126361847,0,0.0,0.0,,,,,0,,1,,
Raw,253943975,32726740000000,,,-1221706436699088384,0.0,14.515118891722523,-4.272860288836988,9.511657431136738,48,15,0.0,15,43163357174134,4,42.4,368.92236328125,0.04430000111460686,0,0.0,0.0,,,,,0,,1,,
Raw,253943976,32726740000000,,,-1221706436699088384,0.0,14.515118891722523,-4.272860288836988,9.511657431136738,48,20,0.0,15,43163372391002,4,51.0,98.29998779296875,0.03580000251531601,0,0.0,0.0,,,,,0,,1,,
Raw,253943977,32726740000000,,,-1221706436699088384,0.0,14.515118891722523,-4.272860288836988,9.511657431136738,48,21,0.0,15,43163362877352,4,43.8,472.3736572265625,0.02160000056028366,0,0.0,0.0,,,,,0,,1,,
Raw,253943977,32726740000000,,,-1221706436699088384,0.0,14.515118891722523,-4.272860288836988,9.511657431136738,48,24,0.0,15,43163360668669,4,43.2,613.8905639648438,0.01860000006854534,0,0.0,0.0,,,,,0,,1,,
Raw,253943978,32726740000000,,,-1221706436699088384,0.0,14.515118891722523,-4.272860288836988,9.511657431136738,48,25,0.0,15,43163366516036,5,47.5,-395.86248779296875,0.02680000104010105,0,0.0,0.0,,,,,0,,1,,
Raw,253943978,32726740000000,,,-1221706436699088384,0.0,14.515118891722523,-4.272860288836988,9.511657431136738,48,31,0.0,15,43163363008813,4,44.1,-523.8057250976562,0.02280000038444996,0,0.0,0.0,,,,,0,,1,,
Raw,253943979,32726740000000,,,-1221706436699088384,0.0,14.515118891722523,-4.272860288836988,9.511657431136738,48,32,0.0,15,43163364215724,5,46.6,-232.36199951171875,0.024000000208616257,0,0.0,0.0,,,,,0,,1,,
Raw,253944971,32727740000000,,,-1221706436699088384,0.0,14.515098882839084,-2.1391567577025734,9.511637549167334,48,10,0.0,15,43164370539908,4,49.7,-310.4876403808594,0.03280000016093254,0,0.0,0.0,,,,,0,,1,,
Raw,253944972,32727740000000,,,-1221706436699088384,0.0,14.515098882839084,-2.1391567577025734,9.511637549167334,48,12,0.0,15,43164365131238,4,45.2,25.151216506958008,0.025600001215934753,0,0.0,0.0,,,,,0,,1,,
Raw,253944972,32727740000000,,,-1221706436699088384,0.0,14.515098882839084,-2.1391567577025734,9.511637549167334,48,14,0.0,15,43164359999318,4,43.3,-265.9188232421875,0.017100000753998756,0,0.0,0.0,,,,,0,,1,,
Raw,253944973,32727740000000,,,-1221706436699088384,0.0,14.515098882839084,-2.1391567577025734,9.511637549167334,48,15,0.0,15,43164357172899,5,41.8,368.8876953125,0.044600002467632294,0,0.0,0.0,,,,,0,,1,,
Raw,253944974,32727740000000,,,-1221706436699088384,0.0,14.515098882839084,-2.1391567577025734,9.511637549167334,48,20,0.0,15,43164372390669,4,50.7,98.37545013427734,0.03580000251531601,0,0.0,0.0,,,,,0,,1,,
Raw,253944974,32727740000000,,,-1221706436699088384,0.0,14.515098882839084,-2.1391567577025734,9.511637549167334,48,21,0.0,15,43164362875768,4,43.4,472.3602600097656,0.02160000056028366,0,0.0,0.0,,,,,0,,1,,
Raw,253944975,32727740000000,,,-1221706436699088384,0.0,14.515098882839084,-2.1391567577025734,9.511637549167334,48,24,0.0,15,43164360666611,4,43.0,613.8599243164062,0.01860000006854534,0,0.0,0.0,,,,,0,,1,,
Raw,253944975,32727740000000,,,-1221706436699088384,0.0,14.515098882839084,-2.1391567577025734,9.511637549167334,48,25,0.0,15,43164366517347,5,46.9,-395.8150634765625,0.027000000700354576,0,0.0,0.0,,,,,0,,1,,
Raw,253944976,32727740000000,,,-1221706436699088384,0.0,14.515098882839084,-2.1391567577025734,9.511637549167334,48,31,0.0,15,43164363010557,4,44.1,-523.7735595703125,0.02280000038444996,0,0.0,0.0,,,,,0,,1,,
Raw,253944976,32727740000000,,,-1221706436699088384,0.0,14.515098882839084,-2.1391567577025734,9.511637549167334,48,32,0.0,15,43164364216493,5,46.1,-232.40101623535156,0.024000000208616257,0,0.0,0.0,,,,,0,,1,,
Raw,253945958,32728740000000,,,-1221706436699088384,0.0,14.515078873955645,-2.2731357825654404,9.51161766719793,48,10,0.0,15,43165370540950,5,47.8,-310.67303466796875,0.03280000016093254,0,0.0,0.0,,,,,0,,1,,
Raw,253945958,32728740000000,,,-1221706436699088384,0.0,14.515078873955645,-2.2731357825654404,9.51161766719793,48,12,0.0,15,43165365131158,4,45.1,24.992212295532227,0.025600001215934753,0,0.0,0.0,,,,,0,,1,,
Raw,253945958,32728740000000,,,-1221706436699088384,0.0,14.515078873955645,-2.2731357825654404,9.51161766719793,48,14,0.0,15,43165360000216,4,43.0,-266.199951171875,0.01860000006854534,0,0.0,0.0,,,,,0,,1,,
Raw,253945959,32728740000000,,,-1221706436699088384,0.0,14.515078873955645,-2.2731357825654404,9.51161766719793,48,15,0.0,15,43165357171678,5,40.9,368.64019775390625,0.04490000009536743,0,0.0,0.0,,,,,0,,1,,
Raw,253945959,32728740000000,,,-1221706436699088384,0.0,14.515078873955645,-2.2731357825654404,9.51161766719793,48,20,0.0,15,43165372390353,4,50.8,98.21553802490234,0.03580000251531601,0,0.0,0.0,,,,,0,,1,,
Raw,253945960,32728740000000,,,-1221706436699088384,0.0,14.515078873955645,-2.2731357825654404,9.51161766719793,48,21,0.0,15,43165362874205,4,43.2,472.10308837890625,0.02160000056028366,0,0.0,0.0,,,,,0,,1,,
Raw,253945960,32728740000000,,,-1221706436699088384,0.0,14.515078873955645,-2.2731357825654404,9.51161766719793,48,24,0.0,15,43165360664579,4,42.6,613.5792236328125,0.018800001591444016,0,0.0,0.0,,,,,0,,1,,
Raw,253945960,32728740000000,,,-1221706436699088384,0.0,14.515078873955645,-2.2731357825654404,9.51161766719793,48,25,0.0,15,43165366518681,5,46.7,-396.00396728515625,0.027000000700354576,0,0.0,0.0,,,,,0,,1,,
Raw,253945961,32728740000000,,,-1221706436699088384,0.0,14.515078873955645,-2.2731357825654404,9.51161766719793,48,31,0.0,15,43165363012309,4,43.6,-523.9880981445312,0.023100001737475395,0,0.0,0.0,,,,,0,,1,,
Raw,253945961,32728740000000,,,-1221706436699088384,0.0,14.515078873955645,-2.2731357825654404,9.51161766719793,48,32,0.0,15,43165364217276,4,45.6,-232.66439819335938,0.02410000190138817,0,0.0,0.0,,,,,0,,1,,
Raw,253946979,32729740000000,,,-1221706436699088384,0.0,14.515057955577504,-3.201014570194856,9.51159698994975,48,10,0.0,15,43166370541977,5,48.8,-311.0784606933594,0.03280000016093254,0,0.0,0.0,,,,,0,,1,,
Raw,253946980,32729740000000,,,-1221706436699088384,0.0,14.515057955577504,-3.201014570194856,9.51159698994975,48,12,0.0,15,43166365131061,5,46.5,24.630205154418945,0.02550000138580799,0,0.0,0.0,,,,,0,,1,,
Raw,253946981,32729740000000,,,-1221706436699088384,0.0,14.515057955577504,-3.201014570194856,9.51159698994975,48,14,0.0,15,43166360001093,4,44.1,-266.6781921386719,0.018300000578165054,0,0.0,0.0,,,,,0,,1,,
Raw,253946981,32729740000000,,,-1221706436699088384,0.0,14.515057955577504,-3.201014570194856,9.51159698994975,48,15,0.0,15,43166357170444,4,43.3,368.1402893066406,0.04410000145435333,0,0.0,0.0,,,,,0,,1,,
Raw,253946982,32729740000000,,,-1221706436699088384,0.0,14.515057955577504,-3.201014570194856,9.51159698994975,48,20,0.0,15,43166372390011,4,52.0,97.839599609375,0.03580000251531601,0,0.0,0.0,,,,,0,,1,,
Raw,253946983,32729740000000,,,-1221706436699088384,0.0,14.515057955577504,-3.201014570194856,9.51159698994975,48,21,0.0,15,43166362872619,4,44.5,471.65216064453125,0.021300001069903374,0,0.0,0.0,,,,,0,,1,,
Raw,253946983,32729740000000,,,-1221706436699088384,0.0,14.515057955577504,-3.201014570194856,9.51159698994975,48,24,0.0,15,43166360662518,4,44.8,613.1023559570312,0.018300000578165054,0,0.0,0.0,,,,,0,,1,,
Raw,253946984,32729740000000,,,-1221706436699088384,0.0,14.515057955577504,-3.201014570194856,9.51159698994975,48,25,0.0,15,43166366519990,5,48.3,-396.4027099609375,0.02680000104010105,0,0.0,0.0,,,,,0,,1,,
Raw,253946985,32729740000000,,,-1221706436699088384,0.0,14.515057955577504,-3.201014570194856,9.51159698994975,48,31,0.0,15,43166363014050,4,45.1,-524.3930053710938,0.022600000724196434,0,0.0,0.0,,,,,0,,1,,
Raw,253946986,32729740000000,,,-1221706436699088384,0.0,14.515057955577504,-3.201014570194856,9.51159698994975,48,32,0.0,15,43166364218047,5,47.3,-233.14944458007812,0.023800000548362732,0,0.0,0.0,,,,,0,,1,,
Raw,253946987,32729740000000,,,-1221706436699088384,0.0,14.515057955577504,-3.201014570194856,9.51159698994975,48,3,0.0,7183,43166353931335,1260,12.9,-311.77716064453125,7.997000217437744,0,0.0,0.0,,,,,0,,6,,
Raw,253947959,32730740000000,,,-1221706436699088384,0.0,14.515037946694065,-4.812975857865992,9.511577107980346,48,10,0.0,15,43167370543015,4,50.4,-311.0152282714844,0.03280000016093254,0,0.0,0.0,,,,,0,,1,,
Raw,253947959,32730740000000,,,-1221706436699088384,0.0,14.515037946694065,-4.812975857865992,9.511577107980346,48,12,0.0,15,43167365130987,5,46.4,24.73400115966797,0.02550000138580799,0,0.0,0.0,,,,,0,,1,,
Raw,253947959,32730740000000,,,-1221706436699088384,0.0,14.515037946694065,-4.812975857865992,9.511577107980346,48,14,0.0,15,43167360001984,4,44.3,-266.6961364746094,0.018300000578165054,0,0.0,0.0,,,,,0,,1,,
Raw,253947960,32730740000000,,,-1221706436699088384,0.0,14.515037946694065,-4.812975857865992,9.511577107980346,48,15,0.0,15,43167357169210,4,42.8,368.134521484375,0.04430000111460686,0,0.0,0.0,,,,,0,,1,,
Raw,253947960,32730740000000,,,-1221706436699088384,0.0,14.515037946694065,-4.812975857865992,9.511577107980346,48,20,0.0,15,43167372389681,4,51.5,97.92741394042969,0.03580000251531601,0,0.0,0.0,,,,,0,,1,,
Raw,253947960,32730740000000,,,-1221706436699088384,0.0,14.515037946694065,-4.812975857865992,9.511577107980346,48,21,0.0,15,43167362871042,4,44.6,471.6590881347656,0.021300001069903374,0,0.0,0.0,,,,,0,,1,,
Raw,253947961,32730740000000,,,-1221706436699088384,0.0,14.515037946694065,-4.812975857865992,9.511577107980346,48,24,0.0,15,43167360660477,4,44.4,613.097412109375,0.018300000578165054,0,0.0,0.0,,,,,0,,1,,
Raw,253947961,32730740000000,,,-1221706436699088384,0.0,14.515037946694065,-4.812975857865992,9.511577107980346,48,25,0.0,15,43167366521312,5,47.9,-396.33282470703125,0.02680000104010105,0,0.0,0.0,,,,,0,,1,,
Raw,253947961,32730740000000,,,-1221706436699088384,0.0,14.515037946694065,-4.812975857865992,9.511577107980346,48,31,0.0,15,43167363015796,4,45.0,-524.3465576171875,0.022600000724196434,0,0.0,0.0,,,,,0,,1,,
Raw,253947961,32730740000000,,,-1221706436699088384,0.0,14.515037946694065,-4.812975857865992,9.511577107980346,48,32,0.0,15,43167364218822,5,47.1,-233.16566467285156,0.023800000548362732,0,0.0,0.0,,,,,0,,1,,
Raw,253947962,32730740000000,,,-1221706436699088384,0.0,14.515037946694065,-4.812975857865992,9.511577107980346,48,3,0.0,7183,43167353932400,1273,12.6,-312.0054931640625,8.372000694274902,0,0.0,0.0,,,,,0,,6,,
Raw,253948975,32731740000000,,,-1221706436699088384,0.0,14.515017937810626,-4.854730379450952,9.511556430732165,48,10,0.0,15,43168370544052,5,47.3,-310.7039794921875,0.03280000016093254,0,0.0,0.0,,,,,0,,1,,
Raw,253948976,32731740000000,,,-1221706436699088384,0.0,14.515017937810626,-4.854730379450952,9.511556430732165,48,12,0.0,15,43168365130901,4,44.5,25.083728790283203,0.025800000876188278,0,0.0,0.0,,,,,0,,1,,
Raw,253948976,32731740000000,,,-1221706436699088384,0.0,14.515017937810626,-4.854730379450952,9.511556430732165,48,14,0.0,15,43168360002879,4,42.4,-266.4719543457031,0.018800001591444016,0,0.0,0.0,,,,,0,,1,,
Raw,253948976,32731740000000,,,-1221706436699088384,0.0,14.515017937810626,-4.854730379450952,9.511556430732165,48,15,0.0,15,43168357167982,5,41.2,368.3641662597656,0.044600002467632294,0,0.0,0.0,,,,,0,,1,,
Raw,253948977,32731740000000,,,-1221706436699088384,0.0,14.515017937810626,-4.854730379450952,9.511556430732165,48,20,0.0,15,43168372389359,4,49.3,98.26911926269531,0.03580000251531601,0,0.0,0.0,,,,,0,,1,,
Raw,253948977,32731740000000,,,-1221706436699088384,0.0,14.515017937810626,-4.854730379450952,9.511556430732165,48,21,0.0,15,43168362869472,4,42.9,471.91064453125,0.021800000220537186,0,0.0,0.0,,,,,0,,1,,
Raw,253948977,32731740000000,,,-1221706436699088384,0.0,14.515017937810626,-4.854730379450952,9.511556430732165,48,24,0.0,15,43168360658432,4,42.3,613.3276977539062,0.018800001591444016,0,0.0,0.0,,,,,0,,1,,
Raw,253948978,32731740000000,,,-1221706436699088384,0.0,14.515017937810626,-4.854730379450952,9.511556430732165,48,25,0.0,15,43168366522630,5,46.1,-396.0212097167969,0.027000000700354576,0,0.0,0.0,,,,,0,,1,,
Raw,253948978,32731740000000,,,-1221706436699088384,0.0,14.515017937810626,-4.854730379450952,9.511556430732165,48,31,0.0,15,43168363017548,4,43.3,-524.0426635742188,0.023100001737475395,0,0.0,0.0,,,,,0,,1,,
Raw,253948978,32731740000000,,,-1221706436699088384,0.0,14.515017937810626,-4.854730379450952,9.511556430732165,48,32,0.0,15,43168364219598,4,45.2,-232.94163513183594,0.02410000190138817,0,0.0,0.0,,,,,0,,1,,
Raw,253948979,32731740000000,,,-1221706436699088384,0.0,14.515017937810626,-4.854730379450952,9.511556430732165,48,3,0.0,7183,43168353933441,1329,12.6,-312.0054931640625,9.872000694274902,0,0.0,0.0,,,,,0,,6,,
Raw,253949971,32732740000000,,,-1221706436699088384,0.0,14.514997019432485,-4.105512559444426,9.511536548762761,48,10,0.0,15,43169370545088,4,50.2,-310.6408386230469,0.03280000016093254,0,0.0,0.0,,,,,0,,1,,
Raw,253949972,32732740000000,,,-1221706436699088384,0.0,14.514997019432485,-4.105512559444426,9.511536548762761,48,12,0.0,15,43169365130822,5,46.1,25.180240631103516,0.02550000138580799,0,0.0,0.0,,,,,0,,1,,
Raw,253949973,32732740000000,,,-1221706436699088384,0.0,14.514997019432485,-4.105512559444426,9.511536548762761,48,14,0.0,15,43169360003762,4,43.9,-266.49884033203125,0.01860000006854534,0,0.0,0.0,,,,,0,,1,,
Raw,253949974,32732740000000,,,-1221706436699088384,0.0,14.514997019432485,-4.105512559444426,9.511536548762761,48,15,0.0,15,43169357166757,4,42.9,368.34429931640625,0.04430000111460686,0,0.0,0.0,,,,,0,,1,,
Raw,253949974,32732740000000,,,-1221706436699088384,0.0,14.514997019432485,-4.105512559444426,9.511536548762761,48,20,0.0,15,43169372389034,4,51.8,98.35472106933594,0.03580000251531601,0,0.0,0.0,,,,,0,,1,,
Raw,253949975,32732740000000,,,-1221706436699088384,0.0,14.514997019432485,-4.105512559444426,9.511536548762761,48,21,0.0,15,43169362867903,4,44.9,471.9120788574219,0.021300001069903374,0,0.0,0.0,,,,,0,,1,,
Raw,253949975,32732740000000,,,-1221706436699088384,0.0,14.514997019432485,-4.105512559444426,9.511536548762761,48,24,0.0,15,43169360656387,4,44.2,613.300537109375,0.018300000578165054,0,0.0,0.0,,,,,0,,1,,
Raw,253949975,32732740000000,,,-1221706436699088384,0.0,14.514997019432485,-4.105512559444426,9.511536548762761,48,25,0.0,15,43169366523952,5,47.9,-395.9580993652344,0.02680000104010105,0,0.0,0.0,,,,,0,,1,,
Raw,253949976,32732740000000,,,-1221706436699088384,0.0,14.514997019432485,-4.105512559444426,9.511536548762761,48,31,0.0,15,43169363019293,4,44.0,-524.0048828125,0.02280000038444996,0,0.0,0.0,,,,,0,,1,,
Raw,253949976,32732740000000,,,-1221706436699088384,0.0,14.514997019432485,-4.105512559444426,9.511536548762761,48,32,0.0,15,43169364220375,5,47.1,-232.9635467529297,0.023800000548362732,0,0.0,0.0,,,,,0,,1,,
Raw,253949976,32732740000000,,,-1221706436699088384,0.0,14.514997019432485,-4.105512559444426,9.511536548762761,48,3,0.0,7183,43169353934481,1395,12.6,-312.0054931640625,11.372000694274902,0,0.0,0.0,,,,,0,,6,,
Raw,253950972,32733740000000,,,-1221706436699088384,0.0,14.514977010549046,-4.206194454867453,9.51151587151458,48,10,0.0,15,43170370546113,4,49.1,-310.509033203125,0.03280000016093254,0,0.0,0.0,,,,,0,,1,,
