# 
# Header Description:
# 
# Version: v2.0.0.1 Platform: 8.0.0 Manufacturer: Xiaomi Model: MIX 2
# 
# Raw,ElapsedRealtimeMillis,TimeNanos,LeapSecond,TimeUncertaintyNanos,FullBiasNanos,BiasNanos,BiasUncertaintyNanos,DriftNanosPerSecond,DriftUncertaintyNanosPerSecond,HardwareClockDiscontinuityCount,Svid,TimeOffsetNanos,State,ReceivedSvTimeNanos,ReceivedSvTimeUncertaintyNanos,Cn0DbHz,PseudorangeRateMetersPerSecond,PseudorangeRateUncertaintyMetersPerSecond,AccumulatedDeltaRangeState,AccumulatedDeltaRangeMeters,AccumulatedDeltaRangeUncertaintyMeters,CarrierFrequencyHz,CarrierCycles,CarrierPhase,CarrierPhaseUncertainty,MultipathIndicator,SnrInDb,ConstellationType,AgcDb,CarrierFrequencyHz
# 
# Fix,Provider,Latitude,Longitude,Altitude,Speed,Accuracy,(UTC)TimeInMs
# 
# Nav,Svid,Type,Status,MessageId,Sub-messageId,Data(Bytes)
# 
Raw,257889257,35107140000000,,,-1221703890304239616,0.0,15.180823538685217,3.962398962558534,9.515487493722746,89,10,0.0,15,42997375514807,5,47.8,-322.7676086425781,0.040300000458955765,0,0.0,0.0,,,,,0,,1,,
Raw,257889258,35107140000000,,,-1221703890304239616,0.0,15.180823538685217,3.962398962558534,9.515487493722746,89,12,0.0,15,42997370291360,5,46.5,6.544040203094482,0.032999999821186066,0,0.0,0.0,,,,,0,,1,,
Raw,257889258,35107140000000,,,-1221703890304239616,0.0,15.180823538685217,3.962398962558534,9.515487493722746,89,14,0.0,15,42997365002978,4,44.7,-264.1818542480469,0.025800000876188278,0,0.0,0.0,,,,,0,,1,,
Raw,257889259,35107140000000,,,-1221703890304239616,0.0,15.180823538685217,3.962398962558534,9.515487493722746,89,15,0.0,15,42997362529838,4,42.8,369.4477233886719,0.021800000220537186,0,0.0,0.0,,,,,0,,1,,
Raw,257889259,35107140000000,,,-1221703890304239616,0.0,15.180823538685217,3.962398962558534,9.515487493722746,89,20,0.0,15,42997377592029,4,51.3,81.36114501953125,0.04330000281333923,0,0.0,0.0,,,,,0,,1,,
Raw,257889259,35107140000000,,,-1221703890304239616,0.0,15.180823538685217,3.962398962558534,9.515487493722746,89,21,0.0,15,42997368289368,4,45.2,469.30841064453125,0.030100001022219658,0,0.0,0.0,,,,,0,,1,,
Raw,257889260,35107140000000,,,-1221703890304239616,0.0,15.180823538685217,3.962398962558534,9.515487493722746,89,24,0.0,15,42997366160013,4,43.2,614.345947265625,0.0276000015437603,0,0.0,0.0,,,,,0,,1,,
Raw,257889260,35107140000000,,,-1221703890304239616,0.0,15.180823538685217,3.962398962558534,9.515487493722746,89,25,0.0,15,42997371444590,5,47.1,-408.53863525390625,0.034300003200769424,0,0.0,0.0,,,,,0,,1,,
Raw,257889260,35107140000000,,,-1221703890304239616,0.0,15.180823538685217,3.962398962558534,9.515487493722746,89,31,0.0,15,42997367867292,4,45.6,-533.7799682617188,0.028600001707673073,0,0.0,0.0,,,,,0,,1,,
Raw,257889261,35107140000000,,,-1221703890304239616,0.0,15.180823538685217,3.962398962558534,9.515487493722746,89,32,0.0,15,42997369238673,5,46.8,-231.1943817138672,0.03150000050663948,0,0.0,0.0,,,,,0,,1,,
Raw,257890289,35108140000000,,,-1221703890304239616,0.0,15.037985576782376,3.048510122700321,9.515467611753342,89,10,0.0,15,42998375515882,5,47.9,-324.1813049316406,0.040300000458955765,0,0.0,0.0,,,,,0,,1,,
Raw,257890290,35108140000000,,,-1221703890304239616,0.0,15.037985576782376,3.048510122700321,9.515467611753342,89,12,0.0,15,42998370291335,5,46.5,5.153063774108887,0.032999999821186066,0,0.0,0.0,,,,,0,,1,,
Raw,257890290,35108140000000,,,-1221703890304239616,0.0,15.037985576782376,3.048510122700321,9.515467611753342,89,14,0.0,15,42998365003856,4,44.5,-265.7103271484375,0.025800000876188278,0,0.0,0.0,,,,,0,,1,,
Raw,257890291,35108140000000,,,-1221703890304239616,0.0,15.037985576782376,3.048510122700321,9.515467611753342,89,15,0.0,15,42998362528603,5,41.7,367.92669677734375,0.022100001573562622,0,0.0,0.0,,,,,0,,1,,
Raw,257890292,35108140000000,,,-1221703890304239616,0.0,15.037985576782376,3.048510122700321,9.515467611753342,89,20,0.0,15,42998377591759,4,51.0,79.9800033569336,0.04330000281333923,0,0.0,0.0,,,,,0,,1,,
Raw,257890292,35108140000000,,,-1221703890304239616,0.0,15.037985576782376,3.048510122700321,9.515467611753342,89,21,0.0,15,42998368287804,4,44.7,467.830078125,0.030300000682473183,0,0.0,0.0,,,,,0,,1,,
Raw,257890293,35108140000000,,,-1221703890304239616,0.0,15.037985576782376,3.048510122700321,9.515467611753342,89,24,0.0,15,42998366157960,4,42.2,612.8359985351562,0.027800001204013824,0,0.0,0.0,,,,,0,,1,,
Raw,257890294,35108140000000,,,-1221703890304239616,0.0,15.037985576782376,3.048510122700321,9.515467611753342,89,25,0.0,15,42998371445952,5,46.9,-409.95843505859375,0.03450000286102295,0,0.0,0.0,,,,,0,,1,,
Raw,257890295,35108140000000,,,-1221703890304239616,0.0,15.037985576782376,3.048510122700321,9.515467611753342,89,31,0.0,15,42998367869064,4,44.6,-535.2230834960938,0.028800001367926598,0,0.0,0.0,,,,,0,,1,,
Raw,257890295,35108140000000,,,-1221703890304239616,0.0,15.037985576782376,3.048510122700321,9.515467611753342,89,32,0.0,15,42998369239442,5,46.7,-232.7010040283203,0.03150000050663948,0,0.0,0.0,,,,,0,,1,,
Raw,257891289,35109140000000,,,-1221703890304239616,0.0,14.918827218934894,-2.07173282423966,9.515448525062714,89,10,0.0,15,42999375516959,5,48.1,-322.87451171875,0.040300000458955765,0,0.0,0.0,,,,,0,,1,,
Raw,257891291,35109140000000,,,-1221703890304239616,0.0,14.918827218934894,-2.07173282423966,9.515448525062714,89,12,0.0,15,42999370291310,5,46.8,6.511799335479736,0.032999999821186066,0,0.0,0.0,,,,,0,,1,,
Raw,257891292,35109140000000,,,-1221703890304239616,0.0,14.918827218934894,-2.07173282423966,9.515448525062714,89,14,0.0,15,42999365004740,4,44.9,-264.4552001953125,0.025800000876188278,0,0.0,0.0,,,,,0,,1,,
Raw,257891292,35109140000000,,,-1221703890304239616,0.0,14.918827218934894,-2.07173282423966,9.515448525062714,89,15,0.0,15,42999362527380,4,42.2,369.2006530761719,0.021800000220537186,0,0.0,0.0,,,,,0,,1,,
Raw,257891293,35109140000000,,,-1221703890304239616,0.0,14.918827218934894,-2.07173282423966,9.515448525062714,89,20,0.0,15,42999377591489,4,51.2,81.30804443359375,0.04330000281333923,0,0.0,0.0,,,,,0,,1,,
Raw,257891294,35109140000000,,,-1221703890304239616,0.0,14.918827218934894,-2.07173282423966,9.515448525062714,89,21,0.0,15,42999368286239,4,44.0,469.0990905761719,0.030300000682473183,0,0.0,0.0,,,,,0,,1,,
Raw,257891294,35109140000000,,,-1221703890304239616,0.0,14.918827218934894,-2.07173282423966,9.515448525062714,89,24,0.0,15,42999366155913,4,42.7,614.1018676757812,0.027800001204013824,0,0.0,0.0,,,,,0,,1,,
Raw,257891295,35109140000000,,,-1221703890304239616,0.0,14.918827218934894,-2.07173282423966,9.515448525062714,89,25,0.0,15,42999371447311,5,47.7,-408.6360168457031,0.034300003200769424,0,0.0,0.0,,,,,0,,1,,
Raw,257891296,35109140000000,,,-1221703890304239616,0.0,14.918827218934894,-2.07173282423966,9.515448525062714,89,31,0.0,15,42999367870852,4,44.2,-533.909423828125,0.028800001367926598,0,0.0,0.0,,,,,0,,1,,
Raw,257891296,35109140000000,,,-1221703890304239616,0.0,14.918827218934894,-2.07173282423966,9.515448525062714,89,32,0.0,15,42999369240214,5,47.3,-231.4610595703125,0.031300000846385956,0,0.0,0.0,,,,,0,,1,,
Raw,257892252,35110140000000,,,-1221703890304239616,0.0,14.818590898357797,2.176516171131061,9.51542864309331,89,10,0.0,15,43000375518033,5,48.3,-322.5305480957031,0.040300000458955765,0,0.0,0.0,,,,,0,,1,,
Raw,257892253,35110140000000,,,-1221703890304239616,0.0,14.818590898357797,2.176516171131061,9.51542864309331,89,12,0.0,15,43000370291284,5,46.6,6.893062114715576,0.032999999821186066,0,0.0,0.0,,,,,0,,1,,
Raw,257892253,35110140000000,,,-1221703890304239616,0.0,14.818590898357797,2.176516171131061,9.51542864309331,89,14,0.0,15,43000365005621,4,45.0,-264.203369140625,0.025600001215934753,0,0.0,0.0,,,,,0,,1,,
Raw,257892254,35110140000000,,,-1221703890304239616,0.0,14.818590898357797,2.176516171131061,9.51542864309331,89,15,0.0,15,43000362526141,4,42.6,369.4535217285156,0.021800000220537186,0,0.0,0.0,,,,,0,,1,,
Raw,257892254,35110140000000,,,-1221703890304239616,0.0,14.818590898357797,2.176516171131061,9.51542864309331,89,20,0.0,15,43000377591210,4,51.7,81.68586730957031,0.04330000281333923,0,0.0,0.0,,,,,0,,1,,
Raw,257892254,35110140000000,,,-1221703890304239616,0.0,14.818590898357797,2.176516171131061,9.51542864309331,89,21,0.0,15,43000368284668,4,44.1,469.3879089355469,0.030300000682473183,0,0.0,0.0,,,,,0,,1,,
Raw,257892259,35110140000000,,,-1221703890304239616,0.0,14.818590898357797,2.176516171131061,9.51542864309331,89,24,0.0,15,43000366153866,4,42.1,614.3589477539062,0.027800001204013824,0,0.0,0.0,,,,,0,,1,,
Raw,257892259,35110140000000,,,-1221703890304239616,0.0,14.818590898357797,2.176516171131061,9.51542864309331,89,25,0.0,15,43000371448671,5,47.4,-408.29779052734375,0.034300003200769424,0,0.0,0.0,,,,,0,,1,,
Raw,257892260,35110140000000,,,-1221703890304239616,0.0,14.818590898357797,2.176516171131061,9.51542864309331,89,31,0.0,15,43000367872625,5,46.0,-533.5864868164062,0.02850000187754631,0,0.0,0.0,,,,,0,,1,,
Raw,257892260,35110140000000,,,-1221703890304239616,0.0,14.818590898357797,2.176516171131061,9.51542864309331,89,32,0.0,15,43000369240982,5,47.2,-231.19601440429688,0.031300000846385956,0,0.0,0.0,,,,,0,,1,,
Raw,257893289,35111140000000,,,-1221703890304239616,0.0,14.733685929968487,2.995087270911476,9.515409556402682,89,10,0.0,15,43001375519103,5,48.1,-322.8253479003906,0.040300000458955765,0,0.0,0.0,,,,,0,,1,,
Raw,257893290,35111140000000,,,-1221703890304239616,0.0,14.733685929968487,2.995087270911476,9.515409556402682,89,12,0.0,15,43001370291259,5,46.7,6.634703159332275,0.032999999821186066,0,0.0,0.0,,,,,0,,1,,
Raw,257893291,35111140000000,,,-1221703890304239616,0.0,14.733685929968487,2.995087270911476,9.515409556402682,89,14,0.0,15,43001365006500,4,44.6,-264.5891418457031,0.025800000876188278,0,0.0,0.0,,,,,0,,1,,
Raw,257893292,35111140000000,,,-1221703890304239616,0.0,14.733685929968487,2.995087270911476,9.515409556402682,89,15,0.0,15,43001362524907,4,42.0,369.0705871582031,0.021800000220537186,0,0.0,0.0,,,,,0,,1,,
Raw,257893292,35111140000000,,,-1221703890304239616,0.0,14.733685929968487,2.995087270911476,9.515409556402682,89,20,0.0,15,43001377590935,4,51.8,81.42435455322266,0.04330000281333923,0,0.0,0.0,,,,,0,,1,,
Raw,257893293,35111140000000,,,-1221703890304239616,0.0,14.733685929968487,2.995087270911476,9.515409556402682,89,21,0.0,15,43001368283101,4,45.0,469.0362243652344,0.030100001022219658,0,0.0,0.0,,,,,0,,1,,
Raw,257893294,35111140000000,,,-1221703890304239616,0.0,14.733685929968487,2.995087270911476,9.515409556402682,89,24,0.0,15,43001366151807,4,42.3,613.9830932617188,0.027800001204013824,0,0.0,0.0,,,,,0,,1,,
Raw,257893294,35111140000000,,,-1221703890304239616,0.0,14.733685929968487,2.995087270911476,9.515409556402682,89,25,0.0,15,43001371450029,5,47.0,-408.59039306640625,0.034300003200769424,0,0.0,0.0,,,,,0,,1,,
Raw,257893295,35111140000000,,,-1221703890304239616,0.0,14.733685929968487,2.995087270911476,9.515409556402682,89,31,0.0,15,43001367874403,4,44.9,-533.8966064453125,0.028800001367926598,0,0.0,0.0,,,,,0,,1,,
Raw,257893296,35111140000000,,,-1221703890304239616,0.0,14.733685929968487,2.995087270911476,9.515409556402682,89,32,0.0,15,43001369241753,5,46.2,-231.5703887939453,0.03150000050663948,0,0.0,0.0,,,,,0,,1,,
Raw,257894286,35112140000000,,,-1221703890304239616,0.0,14.66134563088417,1.6957884423515226,9.515389674433278,89,10,0.0,15,43002375520183,5,48.0,-323.18951416015625,0.040300000458955765,0,0.0,0.0,,,,,0,,1,,
Raw,257894287,35112140000000,,,-1221703890304239616,0.0,14.66134563088417,1.6957884423515226,9.515389674433278,89,12,0.0,15,43002370291230,5,46.3,6.314432621002197,0.032999999821186066,0,0.0,0.0,,,,,0,,1,,
Raw,257894287,35112140000000,,,-1221703890304239616,0.0,14.66134563088417,1.6957884423515226,9.515389674433278,89,14,0.0,15,43002365007376,4,44.8,-265.0179748535156,0.025800000876188278,0,0.0,0.0,,,,,0,,1,,
Raw,257894288,35112140000000,,,-1221703890304239616,0.0,14.66134563088417,1.6957884423515226,9.515389674433278,89,15,0.0,15,43002362523675,4,42.6,368.65155029296875,0.021800000220537186,0,0.0,0.0,,,,,0,,1,,
Raw,257894289,35112140000000,,,-1221703890304239616,0.0,14.66134563088417,1.6957884423515226,9.515389674433278,89,20,0.0,15,43002377590666,4,51.2,81.08883666992188,0.04330000281333923,0,0.0,0.0,,,,,0,,1,,
Raw,257894290,35112140000000,,,-1221703890304239616,0.0,14.66134563088417,1.6957884423515226,9.515389674433278,89,21,0.0,15,43002368281536,4,44.9,468.62939453125,0.030300000682473183,0,0.0,0.0,,,,,0,,1,,
Raw,257894290,35112140000000,,,-1221703890304239616,0.0,14.66134563088417,1.6957884423515226,9.515389674433278,89,24,0.0,15,43002366149762,4,42.8,613.5590209960938,0.027800001204013824,0,0.0,0.0,,,,,0,,1,,
Raw,257894291,35112140000000,,,-1221703890304239616,0.0,14.66134563088417,1.6957884423515226,9.515389674433278,89,25,0.0,15,43002371451396,5,47.1,-408.9490051269531,0.034300003200769424,0,0.0,0.0,,,,,0,,1,,
Raw,257894291,35112140000000,,,-1221703890304239616,0.0,14.66134563088417,1.6957884423515226,9.515389674433278,89,31,0.0,15,43002367876182,4,44.9,-534.2671508789062,0.028800001367926598,0,0.0,0.0,,,,,0,,1,,
Raw,257894292,35112140000000,,,-1221703890304239616,0.0,14.66134563088417,1.6957884423515226,9.515389674433278,89,32,0.0,15,43002369242521,5,46.6,-232.01014709472656,0.03150000050663948,0,0.0,0.0,,,,,0,,1,,
Raw,257895285,35113140000000,,,-1221703890304239616,0.0,14.599402675230522,0.28651078521287104,9.51537058774265,89,10,0.0,15,43003375521254,5,48.0,-322.8572082519531,0.040300000458955765,0,0.0,0.0,,,,,0,,1,,
Raw,257895286,35113140000000,,,-1221703890304239616,0.0,14.599402675230522,0.28651078521287104,9.51537058774265,89,12,0.0,15,43003370291212,5,46.0,6.684527397155762,0.032999999821186066,0,0.0,0.0,,,,,0,,1,,
Raw,257895287,35113140000000,,,-1221703890304239616,0.0,14.599402675230522,0.28651078521287104,9.51537058774265,89,14,0.0,15,43003365008260,4,44.7,-264.77435302734375,0.025800000876188278,0,0.0,0.0,,,,,0,,1,,
Raw,257895287,35113140000000,,,-1221703890304239616,0.0,14.599402675230522,0.28651078521287104,9.51537058774265,89,15,0.0,15,43003362522437,4,42.8,368.8948059082031,0.021800000220537186,0,0.0,0.0,,,,,0,,1,,
Raw,257895288,35113140000000,,,-1221703890304239616,0.0,14.599402675230522,0.28651078521287104,9.51537058774265,89,20,0.0,15,43003377590385,4,51.2,81.44934844970703,0.04330000281333923,0,0.0,0.0,,,,,0,,1,,
Raw,257895289,35113140000000,,,-1221703890304239616,0.0,14.599402675230522,0.28651078521287104,9.51537058774265,89,21,0.0,15,43003368279968,4,45.2,468.9065856933594,0.030100001022219658,0,0.0,0.0,,,,,0,,1,,
Raw,257895290,35113140000000,,,-1221703890304239616,0.0,14.599402675230522,0.28651078521287104,9.51537058774265,89,24,0.0,15,43003366147714,4,43.5,613.8147583007812,0.0276000015437603,0,0.0,0.0,,,,,0,,1,,
Raw,257895290,35113140000000,,,-1221703890304239616,0.0,14.599402675230522,0.28651078521287104,9.51537058774265,89,25,0.0,15,43003371452754,5,47.3,-408.6148681640625,0.034300003200769424,0,0.0,0.0,,,,,0,,1,,
Raw,257895291,35113140000000,,,-1221703890304239616,0.0,14.599402675230522,0.28651078521287104,9.51537058774265,89,31,0.0,15,43003367877961,4,45.7,-533.9498901367188,0.028600001707673073,0,0.0,0.0,,,,,0,,1,,
Raw,257895291,35113140000000,,,-1221703890304239616,0.0,14.599402675230522,0.28651078521287104,9.51537058774265,89,32,0.0,15,43003369243292,5,46.3,-231.75906372070312,0.03150000050663948,0,0.0,0.0,,,,,0,,1,,
Raw,257896253,35114140000000,,,-1221703890304239616,0.0,14.54613811802119,1.0894808266838834,9.515350705773246,89,10,0.0,15,43004375522329,5,48.3,-322.4466247558594,0.040300000458955765,0,0.0,0.0,,,,,0,,1,,
Raw,257896254,35114140000000,,,-1221703890304239616,0.0,14.54613811802119,1.0894808266838834,9.515350705773246,89,12,0.0,15,43004370291186,5,46.4,7.131705284118652,0.032999999821186066,0,0.0,0.0,,,,,0,,1,,
Raw,257896256,35114140000000,,,-1221703890304239616,0.0,14.54613811802119,1.0894808266838834,9.515350705773246,89,14,0.0,15,43004365009140,4,44.9,-264.44305419921875,0.025800000876188278,0,0.0,0.0,,,,,0,,1,,
Raw,257896257,35114140000000,,,-1221703890304239616,0.0,14.54613811802119,1.0894808266838834,9.515350705773246,89,15,0.0,15,43004362521203,4,42.6,369.2383728027344,0.021800000220537186,0,0.0,0.0,,,,,0,,1,,
Raw,257896260,35114140000000,,,-1221703890304239616,0.0,14.54613811802119,1.0894808266838834,9.515350705773246,89,20,0.0,15,43004377590112,4,50.7,81.88714599609375,0.04330000281333923,0,0.0,0.0,,,,,0,,1,,
Raw,257896262,35114140000000,,,-1221703890304239616,0.0,14.54613811802119,1.0894808266838834,9.515350705773246,89,21,0.0,15,43004368278403,4,45.0,469.26239013671875,0.030100001022219658,0,0.0,0.0,,,,,0,,1,,
Raw,257896262,35114140000000,,,-1221703890304239616,0.0,14.54613811802119,1.0894808266838834,9.515350705773246,89,24,0.0,15,43004366145661,4,42.9,614.151611328125,0.027800001204013824,0,0.0,0.0,,,,,0,,1,,
Raw,257896263,35114140000000,,,-1221703890304239616,0.0,14.54613811802119,1.0894808266838834,9.515350705773246,89,25,0.0,15,43004371454116,5,47.7,-408.200927734375,0.034300003200769424,0,0.0,0.0,,,,,0,,1,,
Raw,257896263,35114140000000,,,-1221703890304239616,0.0,14.54613811802119,1.0894808266838834,9.515350705773246,89,31,0.0,15,43004367879734,4,44.3,-533.547607421875,0.028800001367926598,0,0.0,0.0,,,,,0,,1,,
Raw,257896264,35114140000000,,,-1221703890304239616,0.0,14.54613811802119,1.0894808266838834,9.515350705773246,89,32,0.0,15,43004369244064,5,46.5,-231.4289093017578,0.03150000050663948,0,0.0,0.0,,,,,0,,1,,
Raw,257897242,35115140000000,,,-1221703890304239616,0.0,14.518792340822984,2.206618665727049,9.515331619082618,89,10,0.0,15,43005375523403,4,50.3,-322.3234558105469,0.040300000458955765,0,0.0,0.0,,,,,0,,1,,
Raw,257897243,35115140000000,,,-1221703890304239616,0.0,14.518792340822984,2.206618665727049,9.515331619082618,89,12,0.0,15,43005370291162,5,46.8,7.292436599731445,0.032999999821186066,0,0.0,0.0,,,,,0,,1,,
Raw,257897243,35115140000000,,,-1221703890304239616,0.0,14.518792340822984,2.206618665727049,9.515331619082618,89,14,0.0,15,43005365010013,4,44.8,-264.40460205078125,0.025800000876188278,0,0.0,0.0,,,,,0,,1,,
Raw,257897243,35115140000000,,,-1221703890304239616,0.0,14.518792340822984,2.206618665727049,9.515331619082618,89,15,0.0,15,43005362519972,4,42.5,369.2773132324219,0.021800000220537186,0,0.0,0.0,,,,,0,,1,,
Raw,257897243,35115140000000,,,-1221703890304239616,0.0,14.518792340822984,2.206618665727049,9.515331619082618,89,20,0.0,15,43005377589839,4,51.8,82.03971099853516,0.04330000281333923,0,0.0,0.0,,,,,0,,1,,
Raw,257897244,35115140000000,,,-1221703890304239616,0.0,14.518792340822984,2.206618665727049,9.515331619082618,89,21,0.0,15,43005368276826,4,45.3,469.3312683105469,0.030100001022219658,0,0.0,0.0,,,,,0,,1,,
Raw,257897244,35115140000000,,,-1221703890304239616,0.0,14.518792340822984,2.206618665727049,9.515331619082618,89,24,0.0,15,43005366143603,4,42.8,614.1950073242188,0.027800001204013824,0,0.0,0.0,,,,,0,,1,,
Raw,257897244,35115140000000,,,-1221703890304239616,0.0,14.518792340822984,2.206618665727049,9.515331619082618,89,25,0.0,15,43005371455471,5,47.6,-408.0795593261719,0.034300003200769424,0,0.0,0.0,,,,,0,,1,,
Raw,257897245,35115140000000,,,-1221703890304239616,0.0,14.518792340822984,2.206618665727049,9.515331619082618,89,31,0.0,15,43005367881510,4,45.7,-533.4425659179688,0.028600001707673073,0,0.0,0.0,,,,,0,,1,,
Raw,257897245,35115140000000,,,-1221703890304239616,0.0,14.518792340822984,2.206618665727049,9.515331619082618,89,32,0.0,15,43005369244831,5,46.7,-231.39401245117188,0.03150000050663948,0,0.0,0.0,,,,,0,,1,,
Raw,257898250,35116140000000,,,-1221703890304239616,0.0,14.518773241434246,2.317662844783804,9.515311737113214,89,10,0.0,15,43006375524473,5,47.8,-322.617919921875,0.040300000458955765,0,0.0,0.0,,,,,0,,1,,
Raw,257898251,35116140000000,,,-1221703890304239616,0.0,14.518773241434246,2.317662844783804,9.515311737113214,89,12,0.0,15,43006370291136,5,46.4,7.0387468338012695,0.032999999821186066,0,0.0,0.0,,,,,0,,1,,
Raw,257898251,35116140000000,,,-1221703890304239616,0.0,14.518773241434246,2.317662844783804,9.515311737113214,89,14,0.0,15,43006365010898,4,44.3,-264.7822570800781,0.025800000876188278,0,0.0,0.0,,,,,0,,1,,
Raw,257898251,35116140000000,,,-1221703890304239616,0.0,14.518773241434246,2.317662844783804,9.515311737113214,89,15,0.0,15,43006362518738,4,42.1,368.9078674316406,0.021800000220537186,0,0.0,0.0,,,,,0,,1,,
Raw,257898252,35116140000000,,,-1221703890304239616,0.0,14.518773241434246,2.317662844783804,9.515311737113214,89,20,0.0,15,43006377589562,4,51.0,81.77803802490234,0.04330000281333923,0,0.0,0.0,,,,,0,,1,,
Raw,257898252,35116140000000,,,-1221703890304239616,0.0,14.518773241434246,2.317662844783804,9.515311737113214,89,21,0.0,15,43006368275265,4,44.9,468.9891052246094,0.030300000682473183,0,0.0,0.0,,,,,0,,1,,
Raw,257898252,35116140000000,,,-1221703890304239616,0.0,14.518773241434246,2.317662844783804,9.515311737113214,89,24,0.0,15,43006366141556,4,43.0,613.830078125,0.0276000015437603,0,0.0,0.0,,,,,0,,1,,
Raw,257898253,35116140000000,,,-1221703890304239616,0.0,14.518773241434246,2.317662844783804,9.515311737113214,89,25,0.0,15,43006371456833,5,47.3,-408.3694763183594,0.034300003200769424,0,0.0,0.0,,,,,0,,1,,
Raw,257898253,35116140000000,,,-1221703890304239616,0.0,14.518773241434246,2.317662844783804,9.515311737113214,89,31,0.0,15,43006367883296,4,44.1,-533.746826171875,0.028800001367926598,0,0.0,0.0,,,,,0,,1,,
Raw,257898253,35116140000000,,,-1221703890304239616,0.0,14.518773241434246,2.317662844783804,9.515311737113214,89,32,0.0,15,43006369245600,5,46.7,-231.7573699951172,0.03150000050663948,0,0.0,0.0,,,,,0,,1,,
Raw,257899250,35117140000000,,,-1221703890304239616,0.0,14.518753232550807,1.072239381636333,9.515292650422586,89,10,0.0,15,43007375525550,5,46.9,-323.10772705078125,0.04050000011920929,0,0.0,0.0,,,,,0,,1,,
Raw,257899251,35117140000000,,,-1221703890304239616,0.0,14.518753232550807,1.072239381636333,9.515292650422586,89,12,0.0,15,43007370291111,4,44.6,6.583898067474365,0.0333000011742115,0,0.0,0.0,,,,,0,,1,,
Raw,257899251,35117140000000,,,-1221703890304239616,0.0,14.518753232550807,1.072239381636333,9.515292650422586,89,14,0.0,15,43007365011780,4,42.8,-265.35748291015625,0.02630000188946724,0,0.0,0.0,,,,,0,,1,,
Raw,257899251,35117140000000,,,-1221703890304239616,0.0,14.518753232550807,1.072239381636333,9.515292650422586,89,15,0.0,15,43007362517506,5,40.6,368.3448181152344,0.02240000106394291,0,0.0,0.0,,,,,0,,1,,
Raw,257899252,35117140000000,,,-1221703890304239616,0.0,14.518753232550807,1.072239381636333,9.515292650422586,89,20,0.0,15,43007377589290,4,49.7,81.31792449951172,0.04330000281333923,0,0.0,0.0,,,,,0,,1,,
Raw,257899252,35117140000000,,,-1221703890304239616,0.0,14.518753232550807,1.072239381636333,9.515292650422586,89,21,0.0,15,43007368273698,4,44.1,468.4459228515625,0.030300000682473183,0,0.0,0.0,,,,,0,,1,,
Raw,257899252,35117140000000,,,-1221703890304239616,0.0,14.518753232550807,1.072239381636333,9.515292650422586,89,24,0.0,15,43007366139510,5,41.7,613.2595825195312,0.02810000069439411,0,0.0,0.0,,,,,0,,1,,
Raw,257899253,35117140000000,,,-1221703890304239616,0.0,14.518753232550807,1.072239381636333,9.515292650422586,89,25,0.0,15,43007371458193,4,45.8,-408.8563537597656,0.03460000082850456,0,0.0,0.0,,,,,0,,1,,
Raw,257899253,35117140000000,,,-1221703890304239616,0.0,14.518753232550807,1.072239381636333,9.515292650422586,89,31,0.0,15,43007367885072,4,42.9,-534.2540283203125,0.02930000051856041,0,0.0,0.0,,,,,0,,1,,
Raw,257899253,35117140000000,,,-1221703890304239616,0.0,14.518753232550807,1.072239381636333,9.515292650422586,89,32,0.0,15,43007369246373,4,45.4,-232.32601928710938,0.03160000219941139,0,0.0,0.0,,,,,0,,1,,
Raw,257900250,35118140000000,,,-1221703890304239616,0.0,14.51873413316207,-0.8455052037321634,9.515272768453181,89,10,0.0,15,43008375526624,4,44.6,-322.20550537109375,0.040800001472234726,0,0.0,0.0,,,,,0,,1,,
Raw,257900251,35118140000000,,,-1221703890304239616,0.0,14.51873413316207,-0.8455052037321634,9.515272768453181,89,12,0.0,15,43008370291092,5,41.3,7.5316081047058105,0.0340999998152256,0,0.0,0.0,,,,,0,,1,,
Raw,257900251,35118140000000,,,-1221703890304239616,0.0,14.51873413316207,-0.8455052037321634,9.515272768453181,89,14,0.0,15,43008365012661,6,39.2,-264.5254821777344,0.02710000053048134,0,0.0,0.0,,,,,0,,1,,
Raw,257900251,35118140000000,,,-1221703890304239616,0.0,14.51873413316207,-0.8455052037321634,9.515272768453181,89,15,0.0,15,43008362516272,7,37.5,369.18115234375,0.023600000888109207,0,0.0,0.0,,,,,0,,1,,
Raw,257900252,35118140000000,,,-1221703890304239616,0.0,14.51873413316207,-0.8455052037321634,9.515272768453181,89,20,0.0,15,43008377589017,5,46.3,82.24710083007812,0.04350000247359276,0,0.0,0.0,,,,,0,,1,,
Raw,257900252,35118140000000,,,-1221703890304239616,0.0,14.51873413316207,-0.8455052037321634,9.515272768453181,89,21,0.0,15,43008368272138,5,40.5,469.3075866699219,0.03140000253915787,0,0.0,0.0,,,,,0,,1,,
Raw,257900253,35118140000000,,,-1221703890304239616,0.0,14.51873413316207,-0.8455052037321634,9.515272768453181,89,24,0.0,15,43008366137468,6,38.9,614.098876953125,0.029100000858306885,0,0.0,0.0,,,,,0,,1,,
Raw,257900253,35118140000000,,,-1221703890304239616,0.0,14.51873413316207,-0.8455052037321634,9.515272768453181,89,25,0.0,15,43008371459552,4,42.8,-407.94451904296875,0.03530000150203705,0,0.0,0.0,,,,,0,,1,,
Raw,257900253,35118140000000,,,-1221703890304239616,0.0,14.51873413316207,-0.8455052037321634,9.515272768453181,89,31,0.0,15,43008367886856,5,40.3,-533.3634033203125,0.029900001361966133,0,0.0,0.0,,,,,0,,1,,
Raw,257900254,35118140000000,,,-1221703890304239616,0.0,14.51873413316207,-0.8455052037321634,9.515272768453181,89,32,0.0,15,43008369247147,4,42.1,-231.49371337890625,0.03230000287294388,0,0.0,0.0,,,,,0,,1,,
Raw,257901273,35119140000000,,,-1221703890304239616,0.0,14.518715033773333,1.9425797498102526,9.515253681762553,89,10,0.0,15,43009375527680,4,43.7,-321.42620849609375,0.04110000282526016,0,0.0,0.0,,,,,0,,1,,
Raw,257901274,35119140000000,,,-1221703890304239616,0.0,14.518715033773333,1.9425797498102526,9.515253681762553,89,12,0.0,15,43009370291045,5,40.4,8.34839916229248,0.03440000116825104,0,0.0,0.0,,,,,0,,1,,
Raw,257901275,35119140000000,,,-1221703890304239616,0.0,14.518715033773333,1.9425797498102526,9.515253681762553,89,14,0.0,15,43009365013524,6,38.5,-263.8255920410156,0.0276000015437603,0,0.0,0.0,,,,,0,,1,,
Raw,257901275,35119140000000,,,-1221703890304239616,0.0,14.518715033773333,1.9425797498102526,9.515253681762553,89,15,0.0,15,43009362515019,8,36.9,369.8778991699219,0.02420000173151493,0,0.0,0.0,,,,,0,,1,,
Raw,257901276,35119140000000,,,-1221703890304239616,0.0,14.518715033773333,1.9425797498102526,9.515253681762553,89,20,0.0,15,43009377588721,4,45.8,83.06210327148438,0.04360000044107437,0,0.0,0.0,,,,,0,,1,,
Raw,257901276,35119140000000,,,-1221703890304239616,0.0,14.518715033773333,1.9425797498102526,9.515253681762553,89,21,0.0,15,43009368270541,6,39.6,470.0228576660156,0.03160000219941139,0,0.0,0.0,,,,,0,,1,,
Raw,257901277,35119140000000,,,-1221703890304239616,0.0,14.518715033773333,1.9425797498102526,9.515253681762553,89,24,0.0,15,43009366135395,6,38.2,614.7982177734375,0.029100000858306885,0,0.0,0.0,,,,,0,,1,,
Raw,257901277,35119140000000,,,-1221703890304239616,0.0,14.518715033773333,1.9425797498102526,9.515253681762553,89,25,0.0,15,43009371460890,4,42.0,-407.1622619628906,0.03530000150203705,0,0.0,0.0,,,,,0,,1,,
Raw,257901278,35119140000000,,,-1221703890304239616,0.0,14.518715033773333,1.9425797498102526,9.515253681762553,89,31,0.0,15,43009367888609,6,39.0,-532.6019287109375,0.030100001022219658,0,0.0,0.0,,,,,0,,1,,
Raw,257901278,35119140000000,,,-1221703890304239616,0.0,14.518715033773333,1.9425797498102526,9.515253681762553,89,32,0.0,15,43009369247898,5,41.1,-230.8027801513672,0.032600000500679016,0,0.0,0.0,,,,,0,,1,,
Raw,257902324,35120140000000,,,-1221703890304239616,0.0,14.518695024889894,4.233983881142966,9.51523379979315,89,10,0.0,15,43010375528752,4,42.0,-321.8075866699219,0.04130000248551369,0,0.0,0.0,,,,,0,,1,,
Raw,257902324,35120140000000,,,-1221703890304239616,0.0,14.518695024889894,4.233983881142966,9.51523379979315,89,12,0.0,15,43010370291015,6,38.0,7.980497360229492,0.035100001841783524,0,0.0,0.0,,,,,0,,1,,
Raw,257902324,35120140000000,,,-1221703890304239616,0.0,14.518695024889894,4.233983881142966,9.51523379979315,89,14,0.0,15,43010365014398,9,35.9,-264.2935791015625,0.029100000858306885,0,0.0,0.0,,,,,0,,1,,
Raw,257902325,35120140000000,,,-1221703890304239616,0.0,14.518695024889894,4.233983881142966,9.51523379979315,89,15,0.0,15,43010362513788,10,34.4,369.3916931152344,0.025100000202655792,0,0.0,0.0,,,,,0,,1,,
Raw,257902325,35120140000000,,,-1221703890304239616,0.0,14.518695024889894,4.233983881142966,9.51523379979315,89,20,0.0,15,43010377588439,4,43.8,82.70463562011719,0.04410000145435333,0,0.0,0.0,,,,,0,,1,,
Raw,257902325,35120140000000,,,-1221703890304239616,0.0,14.518695024889894,4.233983881142966,9.51523379979315,89,21,0.0,15,43010368268987,7,37.2,469.5804443359375,0.032600000500679016,0,0.0,0.0,,,,,0,,1,,
Raw,257902326,35120140000000,,,-1221703890304239616,0.0,14.518695024889894,4.233983881142966,9.51523379979315,89,24,0.0,15,43010366133336,8,36.0,614.338134765625,0.03020000085234642,0,0.0,0.0,,,,,0,,1,,
Raw,257902326,35120140000000,,,-1221703890304239616,0.0,14.518695024889894,4.233983881142966,9.51523379979315,89,25,0.0,15,43010371462257,6,39.6,-407.5528259277344,0.03610000014305115,0,0.0,0.0,,,,,0,,1,,
Raw,257902326,35120140000000,,,-1221703890304239616,0.0,14.518695024889894,4.233983881142966,9.51523379979315,89,31,0.0,15,43010367890392,7,37.0,-532.9942626953125,0.03110000118613243,0,0.0,0.0,,,,,0,,1,,
Raw,257902326,35120140000000,,,-1221703890304239616,0.0,14.518695024889894,4.233983881142966,9.51523379979315,89,32,0.0,15,43010369248666,6,38.9,-231.2830047607422,0.03360000252723694,0,0.0,0.0,,,,,0,,1,,
Raw,257903261,35121140000000,,,-1221703890304239616,0.0,14.518675016006455,2.634558970459898,9.515214713102521,89,10,0.0,15,43011375529826,4,42.7,-322.75042724609375,0.04130000248551369,0,0.0,0.0,,,,,0,,1,,
Raw,257903261,35121140000000,,,-1221703890304239616,0.0,14.518675016006455,2.634558970459898,9.515214713102521,89,12,0.0,15,43011370290982,6,39.5,7.100081443786621,0.03460000082850456,0,0.0,0.0,,,,,0,,1,,
Raw,257903262,35121140000000,,,-1221703890304239616,0.0,14.518675016006455,2.634558970459898,9.515214713102521,89,14,0.0,15,43011365015275,7,37.9,-265.33612060546875,0.02810000069439411,0,0.0,0.0,,,,,0,,1,,
Raw,257903262,35121140000000,,,-1221703890304239616,0.0,14.518675016006455,2.634558970459898,9.515214713102521,89,15,0.0,15,43011362512542,8,36.1,368.3949890136719,0.02420000173151493,0,0.0,0.0,,,,,0,,1,,
Raw,257903262,35121140000000,,,-1221703890304239616,0.0,14.518675016006455,2.634558970459898,9.515214713102521,89,20,0.0,15,43011377588166,4,44.9,81.79365539550781,0.043800003826618195,0,0.0,0.0,,,,,0,,1,,
Raw,257903263,35121140000000,,,-1221703890304239616,0.0,14.518675016006455,2.634558970459898,9.515214713102521,89,21,0.0,15,43011368267413,6,38.9,468.59222412109375,0.032099999487400055,0,0.0,0.0,,,,,0,,1,,
Raw,257903263,35121140000000,,,-1221703890304239616,0.0,14.518675016006455,2.634558970459898,9.515214713102521,89,24,0.0,15,43011366131294,6,38.0,613.318603515625,0.029100000858306885,0,0.0,0.0,,,,,0,,1,,
Raw,257903264,35121140000000,,,-1221703890304239616,0.0,14.518675016006455,2.634558970459898,9.515214713102521,89,25,0.0,15,43011371463616,5,41.3,-408.5001220703125,0.035600002855062485,0,0.0,0.0,,,,,0,,1,,
Raw,257903264,35121140000000,,,-1221703890304239616,0.0,14.518675016006455,2.634558970459898,9.515214713102521,89,31,0.0,15,43011367892156,6,38.6,-533.9595336914062,0.03060000203549862,0,0.0,0.0,,,,,0,,1,,
Raw,257903264,35121140000000,,,-1221703890304239616,0.0,14.518675016006455,2.634558970459898,9.515214713102521,89,32,0.0,15,43011369249437,5,40.5,-232.2993927001953,0.03290000185370445,0,0.0,0.0,,,,,0,,1,,
Raw,257904259,35122140000000,,,-1221703890304239616,0.0,14.518655916617718,-0.7703790450270211,9.515194831133117,89,10,0.0,15,43012375530903,5,46.9,-322.5794677734375,0.04050000011920929,0,0.0,0.0,,,,,0,,1,,
Raw,257904259,35122140000000,,,-1221703890304239616,0.0,14.518655916617718,-0.7703790450270211,9.515194831133117,89,12,0.0,15,43012370290960,4,44.2,7.314478874206543,0.0333000011742115,0,0.0,0.0,,,,,0,,1,,
Raw,257904260,35122140000000,,,-1221703890304239616,0.0,14.518655916617718,-0.7703790450270211,9.515194831133117,89,14,0.0,15,43012365016179,4,42.4,-265.2262878417969,0.02630000188946724,0,0.0,0.0,,,,,0,,1,,
Raw,257904260,35122140000000,,,-1221703890304239616,0.0,14.518655916617718,-0.7703790450270211,9.515194831133117,89,15,0.0,15,43012362511338,5,40.1,368.5058898925781,0.02240000106394291,0,0.0,0.0,,,,,0,,1,,
Raw,257904260,35122140000000,,,-1221703890304239616,0.0,14.518655916617718,-0.7703790450270211,9.515194831133117,89,20,0.0,15,43012377587899,4,49.4,81.98941040039062,0.04330000281333923,0,0.0,0.0,,,,,0,,1,,
Raw,257904261,35122140000000,,,-1221703890304239616,0.0,14.518655916617718,-0.7703790450270211,9.515194831133117,89,21,0.0,15,43012368265856,4,43.0,468.7124938964844,0.03060000203549862,0,0.0,0.0,,,,,0,,1,,
Raw,257904261,35122140000000,,,-1221703890304239616,0.0,14.518655916617718,-0.7703790450270211,9.515194831133117,89,24,0.0,15,43012366129256,5,41.5,613.4326171875,0.02810000069439411,0,0.0,0.0,,,,,0,,1,,
Raw,257904262,35122140000000,,,-1221703890304239616,0.0,14.518655916617718,-0.7703790450270211,9.515194831133117,89,25,0.0,15,43012371464979,4,45.6,-408.3083801269531,0.03460000082850456,0,0.0,0.0,,,,,0,,1,,
Raw,257904262,35122140000000,,,-1221703890304239616,0.0,14.518655916617718,-0.7703790450270211,9.515194831133117,89,31,0.0,15,43012367893955,4,42.6,-533.7818603515625,0.02930000051856041,0,0.0,0.0,,,,,0,,1,,
Raw,257904262,35122140000000,,,-1221703890304239616,0.0,14.518655916617718,-0.7703790450270211,9.515194831133117,89,32,0.0,15,43012369250220,4,44.7,-232.19000244140625,0.03180000185966492,0,0.0,0.0,,,,,0,,1,,
Raw,257905259,35123140000000,,,-1221703890304239616,0.0,14.51863681722898,-0.38667972582527216,9.51517574444249,89,10,0.0,15,43013375531970,5,46.7,-321.5245666503906,0.04050000011920929,0,0.0,0.0,,,,,0,,1,,
Raw,257905259,35123140000000,,,-1221703890304239616,0.0,14.51863681722898,-0.38667972582527216,9.51517574444249,89,12,0.0,15,43013370290928,4,43.9,8.405067443847656,0.03360000252723694,0,0.0,0.0,,,,,0,,1,,
Raw,257905260,35123140000000,,,-1221703890304239616,0.0,14.51863681722898,-0.38667972582527216,9.51517574444249,89,14,0.0,15,43013365017052,5,41.7,-264.2558288574219,0.026600001379847527,0,0.0,0.0,,,,,0,,1,,
Raw,257905260,35123140000000,,,-1221703890304239616,0.0,14.51863681722898,-0.38667972582527216,9.51517574444249,89,15,0.0,15,43013362510098,6,39.6,369.4765625,0.022600000724196434,0,0.0,0.0,,,,,0,,1,,
Raw,257905260,35123140000000,,,-1221703890304239616,0.0,14.51863681722898,-0.38667972582527216,9.51517574444249,89,20,0.0,15,43013377587616,5,48.4,83.07830047607422,0.04330000281333923,0,0.0,0.0,,,,,0,,1,,
Raw,257905260,35123140000000,,,-1221703890304239616,0.0,14.51863681722898,-0.38667972582527216,9.51517574444249,89,21,0.0,15,43013368264279,4,42.8,469.7112731933594,0.030800001695752144,0,0.0,0.0,,,,,0,,1,,
Raw,257905261,35123140000000,,,-1221703890304239616,0.0,14.51863681722898,-0.38667972582527216,9.51517574444249,89,24,0.0,15,43013366127197,5,40.9,614.4035034179688,0.028400002047419548,0,0.0,0.0,,,,,0,,1,,
Raw,257905261,35123140000000,,,-1221703890304239616,0.0,14.51863681722898,-0.38667972582527216,9.51517574444249,89,25,0.0,15,43013371466328,4,45.0,-407.25494384765625,0.03460000082850456,0,0.0,0.0,,,,,0,,1,,
Raw,257905261,35123140000000,,,-1221703890304239616,0.0,14.51863681722898,-0.38667972582527216,9.51517574444249,89,31,0.0,15,43013367895723,4,42.3,-532.746337890625,0.02930000051856041,0,0.0,0.0,,,,,0,,1,,
Raw,257905262,35123140000000,,,-1221703890304239616,0.0,14.51863681722898,-0.38667972582527216,9.51517574444249,89,32,0.0,15,43013369250978,4,44.5,-231.21591186523438,0.03180000185966492,0,0.0,0.0,,,,,0,,1,,
Raw,257906248,35124140000000,,,-1221703890304239616,0.0,14.518074749503285,2.8201038711692656,9.514612687068965,89,10,0.0,15,43014375533050,4,44.9,-321.919677734375,0.040800001472234726,0,0.0,0.0,,,,,0,,1,,
Raw,257906249,35124140000000,,,-1221703890304239616,0.0,14.518074749503285,2.8201038711692656,9.514612687068965,89,12,0.0,15,43014370290909,5,41.9,8.048124313354492,0.0340999998152256,0,0.0,0.0,,,,,0,,1,,
Raw,257906249,35124140000000,,,-1221703890304239616,0.0,14.518074749503285,2.8201038711692656,9.514612687068965,89,14,0.0,15,43014365017939,5,40.1,-264.74310302734375,0.026900000870227814,0,0.0,0.0,,,,,0,,1,,
Raw,257906249,35124140000000,,,-1221703890304239616,0.0,14.518074749503285,2.8201038711692656,9.514612687068965,89,15,0.0,15,43014362508871,7,37.9,368.99603271484375,0.023600000888109207,0,0.0,0.0,,,,,0,,1,,
Raw,257906250,35124140000000,,,-1221703890304239616,0.0,14.518074749503285,2.8201038711692656,9.514612687068965,89,20,0.0,15,43014377587345,5,47.6,82.7151107788086,0.04330000281333923,0,0.0,0.0,,,,,0,,1,,
Raw,257906250,35124140000000,,,-1221703890304239616,0.0,14.518074749503285,2.8201038711692656,9.514612687068965,89,21,0.0,15,43014368262737,5,41.0,469.2616882324219,0.03110000118613243,0,0.0,0.0,,,,,0,,1,,
Raw,257906250,35124140000000,,,-1221703890304239616,0.0,14.518074749503285,2.8201038711692656,9.514612687068965,89,24,0.0,15,43014366125152,6,39.9,613.9286499023438,0.028600001707673073,0,0.0,0.0,,,,,0,,1,,
Raw,257906251,35124140000000,,,-1221703890304239616,0.0,14.518074749503285,2.8201038711692656,9.514612687068965,89,25,0.0,15,43014371467696,4,43.6,-407.6524658203125,0.035100001841783524,0,0.0,0.0,,,,,0,,1,,
Raw,257906251,35124140000000,,,-1221703890304239616,0.0,14.518074749503285,2.8201038711692656,9.514612687068965,89,31,0.0,15,43014367897506,5,41.1,-533.16015625,0.029600001871585846,0,0.0,0.0,,,,,0,,1,,
Raw,257906251,35124140000000,,,-1221703890304239616,0.0,14.518074749503285,2.8201038711692656,9.514612687068965,89,32,0.0,15,43014369251759,4,42.5,-231.69778442382812,0.03230000287294388,0,0.0,0.0,,,,,0,,1,,
Raw,257907264,35125140000000,,,-1221703890304239616,0.0,14.518054740619846,1.191703177096341,9.514593600378337,89,10,0.0,15,43015375534123,5,47.1,-322.3297119140625,0.040300000458955765,0,0.0,0.0,,,,,0,,1,,
Raw,257907264,35125140000000,,,-1221703890304239616,0.0,14.518054740619846,1.191703177096341,9.514593600378337,89,12,0.0,15,43015370290879,4,45.2,7.6742048263549805,0.03310000151395798,0,0.0,0.0,,,,,0,,1,,
Raw,257907264,35125140000000,,,-1221703890304239616,0.0,14.518054740619846,1.191703177096341,9.514593600378337,89,14,0.0,15,43015365018817,4,43.8,-265.2298583984375,0.026100000366568565,0,0.0,0.0,,,,,0,,1,,
Raw,257907265,35125140000000,,,-1221703890304239616,0.0,14.518054740619846,1.191703177096341,9.514593600378337,89,15,0.0,15,43015362507629,5,41.1,368.5167236328125,0.022100001573562622,0,0.0,0.0,,,,,0,,1,,
Raw,257907265,35125140000000,,,-1221703890304239616,0.0,14.518054740619846,1.191703177096341,9.514593600378337,89,20,0.0,15,43015377587062,4,50.0,82.33169555664062,0.04330000281333923,0,0.0,0.0,,,,,0,,1,,
Raw,257907265,35125140000000,,,-1221703890304239616,0.0,14.518054740619846,1.191703177096341,9.514593600378337,89,21,0.0,15,43015368261152,4,43.7,468.8028564453125,0.03060000203549862,0,0.0,0.0,,,,,0,,1,,
Raw,257907266,35125140000000,,,-1221703890304239616,0.0,14.518054740619846,1.191703177096341,9.514593600378337,89,24,0.0,15,43015366123098,4,43.4,613.4468383789062,0.0276000015437603,0,0.0,0.0,,,,,0,,1,,
Raw,257907266,35125140000000,,,-1221703890304239616,0.0,14.518054740619846,1.191703177096341,9.514593600378337,89,25,0.0,15,43015371469052,5,46.7,-408.0587158203125,0.03450000286102295,0,0.0,0.0,,,,,0,,1,,
Raw,257907266,35125140000000,,,-1221703890304239616,0.0,14.518054740619846,1.191703177096341,9.514593600378337,89,31,0.0,15,43015367899281,4,43.6,-533.57666015625,0.029100000858306885,0,0.0,0.0,,,,,0,,1,,
Raw,257907266,35125140000000,,,-1221703890304239616,0.0,14.518054740619846,1.191703177096341,9.514593600378337,89,32,0.0,15,43015369252529,4,45.6,-232.1856689453125,0.03160000219941139,0,0.0,0.0,,,,,0,,1,,
Raw,257908278,35126140000000,,,-1221703890304239616,0.0,14.518034731736407,-0.41864279997055803,9.514573718408933,89,10,0.0,15,43016375535196,5,48.2,-322.11749267578125,0.040300000458955765,0,0.0,0.0,,,,,0,,1,,
Raw,257908279,35126140000000,,,-1221703890304239616,0.0,14.518034731736407,-0.41864279997055803,9.514573718408933,89,12,0.0,15,43016370290847,5,46.0,7.930147171020508,0.032999999821186066,0,0.0,0.0,,,,,0,,1,,
Raw,257908280,35126140000000,,,-1221703890304239616,0.0,14.518034731736407,-0.41864279997055803,9.514573718408933,89,14,0.0,15,43016365019704,4,44.7,-265.0947570800781,0.025800000876188278,0,0.0,0.0,,,,,0,,1,,
Raw,257908280,35126140000000,,,-1221703890304239616,0.0,14.518034731736407,-0.41864279997055803,9.514573718408933,89,15,0.0,15,43016362506405,4,42.6,368.6554870605469,0.021800000220537186,0,0.0,0.0,,,,,0,,1,,
Raw,257908281,35126140000000,,,-1221703890304239616,0.0,14.518034731736407,-0.41864279997055803,9.514573718408933,89,20,0.0,15,43016377586790,4,50.5,82.56873321533203,0.04330000281333923,0,0.0,0.0,,,,,0,,1,,
Raw,257908282,35126140000000,,,-1221703890304239616,0.0,14.518034731736407,-0.41864279997055803,9.514573718408933,89,21,0.0,15,43016368259586,4,45.1,468.9673156738281,0.030100001022219658,0,0.0,0.0,,,,,0,,1,,
Raw,257908282,35126140000000,,,-1221703890304239616,0.0,14.518034731736407,-0.41864279997055803,9.514573718408933,89,24,0.0,15,43016366121058,4,44.4,613.594970703125,0.027300002053380013,0,0.0,0.0,,,,,0,,1,,
Raw,257908283,35126140000000,,,-1221703890304239616,0.0,14.518034731736407,-0.41864279997055803,9.514573718408933,89,25,0.0,15,43016371470412,5,47.2,-407.8412780761719,0.034300003200769424,0,0.0,0.0,,,,,0,,1,,
Raw,257908284,35126140000000,,,-1221703890304239616,0.0,14.518034731736407,-0.41864279997055803,9.514573718408933,89,31,0.0,15,43016367901055,4,45.2,-533.3758544921875,0.028600001707673073,0,0.0,0.0,,,,,0,,1,,
Raw,257908284,35126140000000,,,-1221703890304239616,0.0,14.518034731736407,-0.41864279997055803,9.514573718408933,89,32,0.0,15,43016369253304,5,46.0,-232.0505828857422,0.03150000050663948,0,0.0,0.0,,,,,0,,1,,
Raw,257909250,35127140000000,,,-1221703890304239616,0.0,14.51801563234767,0.045830620435786396,9.514554631718305,89,10,0.0,15,43017375536264,5,48.8,-321.5620422363281,0.040300000458955765,0,0.0,0.0,,,,,0,,1,,
Raw,257909251,35127140000000,,,-1221703890304239616,0.0,14.51801563234767,0.045830620435786396,9.514554631718305,89,12,0.0,15,43017370290823,4,45.9,8.525772094726562,0.03310000151395798,0,0.0,0.0,,,,,0,,1,,
Raw,257909252,35127140000000,,,-1221703890304239616,0.0,14.51801563234767,0.045830620435786396,9.514554631718305,89,14,0.0,15,43017365020584,4,45.2,-264.6187744140625,0.025600001215934753,0,0.0,0.0,,,,,0,,1,,
Raw,257909253,35127140000000,,,-1221703890304239616,0.0,14.51801563234767,0.045830620435786396,9.514554631718305,89,15,0.0,15,43017362505164,4,42.6,369.13946533203125,0.021800000220537186,0,0.0,0.0,,,,,0,,1,,
Raw,257909254,35127140000000,,,-1221703890304239616,0.0,14.51801563234767,0.045830620435786396,9.514554631718305,89,20,0.0,15,43017377586505,4,50.6,83.15410614013672,0.04330000281333923,0,0.0,0.0,,,,,0,,1,,
Raw,257909255,35127140000000,,,-1221703890304239616,0.0,14.51801563234767,0.045830620435786396,9.514554631718305,89,21,0.0,15,43017368258020,4,45.0,469.4664306640625,0.030100001022219658,0,0.0,0.0,,,,,0,,1,,
Raw,257909256,35127140000000,,,-1221703890304239616,0.0,14.51801563234767,0.045830620435786396,9.514554631718305,89,24,0.0,15,43017366118999,4,45.1,614.0690307617188,0.02710000053048134,0,0.0,0.0,,,,,0,,1,,
Raw,257909257,35127140000000,,,-1221703890304239616,0.0,14.51801563234767,0.045830620435786396,9.514554631718305,89,25,0.0,15,43017371471765,5,47.8,-407.28375244140625,0.034300003200769424,0,0.0,0.0,,,,,0,,1,,
Raw,257909257,35127140000000,,,-1221703890304239616,0.0,14.51801563234767,0.045830620435786396,9.514554631718305,89,31,0.0,15,43017367902832,5,46.7,-532.8348388671875,0.02850000187754631,0,0.0,0.0,,,,,0,,1,,
Raw,257909258,35127140000000,,,-1221703890304239616,0.0,14.51801563234767,0.045830620435786396,9.514554631718305,89,32,0.0,15,43017369254074,5,47.3,-231.5809326171875,0.031300000846385956,0,0.0,0.0,,,,,0,,1,,
Raw,257910248,35128140000000,,,-1221703890304239616,0.0,14.517996532958932,1.6219804085129494,9.5145347497489,89,10,0.0,15,43018375537332,4,50.9,-321.38201904296875,0.040300000458955765,0,0.0,0.0,,,,,0,,1,,
Raw,257910249,35128140000000,,,-1221703890304239616,0.0,14.517996532958932,1.6219804085129494,9.5145347497489,89,12,0.0,15,43018370290787,5,47.2,8.738587379455566,0.03280000016093254,0,0.0,0.0,,,,,0,,1,,
Raw,257910249,35128140000000,,,-1221703890304239616,0.0,14.517996532958932,1.6219804085129494,9.5145347497489,89,14,0.0,15,43018365021458,4,45.2,-264.5321044921875,0.025600001215934753,0,0.0,0.0,,,,,0,,1,,
Raw,257910249,35128140000000,,,-1221703890304239616,0.0,14.517996532958932,1.6219804085129494,9.5145347497489,89,15,0.0,15,43018362503934,4,42.8,369.2260437011719,0.021800000220537186,0,0.0,0.0,,,,,0,,1,,
Raw,257910250,35128140000000,,,-1221703890304239616,0.0,14.517996532958932,1.6219804085129494,9.5145347497489,89,20,0.0,15,43018377586226,4,51.1,83.36372375488281,0.04330000281333923,0,0.0,0.0,,,,,0,,1,,
Raw,257910250,35128140000000,,,-1221703890304239616,0.0,14.517996532958932,1.6219804085129494,9.5145347497489,89,21,0.0,15,43018368256450,4,45.4,469.58660888671875,0.030100001022219658,0,0.0,0.0,,,,,0,,1,,
Raw,257910250,35128140000000,,,-1221703890304239616,0.0,14.517996532958932,1.6219804085129494,9.5145347497489,89,24,0.0,15,43018366116947,4,44.6,614.1732177734375,0.027300002053380013,0,0.0,0.0,,,,,0,,1,,
Raw,257910250,35128140000000,,,-1221703890304239616,0.0,14.517996532958932,1.6219804085129494,9.5145347497489,89,25,0.0,15,43018371473122,5,47.9,-407.1021728515625,0.034300003200769424,0,0.0,0.0,,,,,0,,1,,
Raw,257910251,35128140000000,,,-1221703890304239616,0.0,14.517996532958932,1.6219804085129494,9.5145347497489,89,31,0.0,15,43018367904605,4,45.8,-532.6697998046875,0.028600001707673073,0,0.0,0.0,,,,,0,,1,,
Raw,257910251,35128140000000,,,-1221703890304239616,0.0,14.517996532958932,1.6219804085129494,9.5145347497489,89,32,0.0,15,43018369254844,5,47.3,-231.4794464111328,0.031300000846385956,0,0.0,0.0,,,,,0,,1,,
Raw,257911281,35129140000000,,,-1221703890304239616,0.0,14.517976524075493,1.9038536498049263,9.514515663058273,89,10,0.0,15,43019375538405,5,48.5,-321.707763671875,0.040300000458955765,0,0.0,0.0,,,,,0,,1,,
Raw,257911282,35129140000000,,,-1221703890304239616,0.0,14.517976524075493,1.9038536498049263,9.514515663058273,89,12,0.0,15,43019370290757,5,47.1,8.452773094177246,0.03280000016093254,0,0.0,0.0,,,,,0,,1,,
Raw,257911282,35129140000000,,,-1221703890304239616,0.0,14.517976524075493,1.9038536498049263,9.514515663058273,89,14,0.0,15,43019365022337,4,45.0,-264.9366760253906,0.025600001215934753,0,0.0,0.0,,,,,0,,1,,
Raw,257911283,35129140000000,,,-1221703890304239616,0.0,14.517976524075493,1.9038536498049263,9.514515663058273,89,15,0.0,15,43019362502694,4,42.2,368.8375549316406,0.021800000220537186,0,0.0,0.0,,,,,0,,1,,
Raw,257911284,35129140000000,,,-1221703890304239616,0.0,14.517976524075493,1.9038536498049263,9.514515663058273,89,20,0.0,15,43019377585946,4,51.4,83.07115173339844,0.04330000281333923,0,0.0,0.0,,,,,0,,1,,
Raw,257911284,35129140000000,,,-1221703890304239616,0.0,14.517976524075493,1.9038536498049263,9.514515663058273,89,21,0.0,15,43019368254877,4,45.5,469.2102966308594,0.030100001022219658,0,0.0,0.0,,,,,0,,1,,
Raw,257911285,35129140000000,,,-1221703890304239616,0.0,14.517976524075493,1.9038536498049263,9.514515663058273,89,24,0.0,15,43019366114894,4,44.8,613.7650756835938,0.027300002053380013,0,0.0,0.0,,,,,0,,1,,
Raw,257911285,35129140000000,,,-1221703890304239616,0.0,14.517976524075493,1.9038536498049263,9.514515663058273,89,25,0.0,15,43019371474476,5,47.7,-407.4300231933594,0.034300003200769424,0,0.0,0.0,,,,,0,,1,,
Raw,257911286,35129140000000,,,-1221703890304239616,0.0,14.517976524075493,1.9038536498049263,9.514515663058273,89,31,0.0,15,43019367906377,4,45.2,-533.0106811523438,0.028600001707673073,0,0.0,0.0,,,,,0,,1,,
Raw,257911287,35129140000000,,,-1221703890304239616,0.0,14.517976524075493,1.9038536498049263,9.514515663058273,89,32,0.0,15,43019369255608,5,47.4,-231.87890625,0.031300000846385956,0,0.0,0.0,,,,,0,,1,,
Raw,257912248,35130140000000,,,-1221703890304239616,0.0,14.517956515192054,0.5575950509552458,9.51449578108887,89,10,0.0,15,43020375539472,5,48.4,-321.275146484375,0.040300000458955765,0,0.0,0.0,,,,,0,,1,,
Raw,257912248,35130140000000,,,-1221703890304239616,0.0,14.517956515192054,0.5575950509552458,9.51449578108887,89,12,0.0,15,43020370290726,5,46.1,8.925702095031738,0.032999999821186066,0,0.0,0.0,,,,,0,,1,,
Raw,257912249,35130140000000,,,-1221703890304239616,0.0,14.517956515192054,0.5575950509552458,9.51449578108887,89,14,0.0,15,43020365023224,4,44.7,-264.5748596191406,0.025800000876188278,0,0.0,0.0,,,,,0,,1,,
Raw,257912249,35130140000000,,,-1221703890304239616,0.0,14.517956515192054,0.5575950509552458,9.51449578108887,89,15,0.0,15,43020362501464,4,42.0,369.1985168457031,0.021800000220537186,0,0.0,0.0,,,,,0,,1,,
Raw,257912249,35130140000000,,,-1221703890304239616,0.0,14.517956515192054,0.5575950509552458,9.51449578108887,89,20,0.0,15,43020377585665,4,50.8,83.52848052978516,0.04330000281333923,0,0.0,0.0,,,,,0,,1,,
Raw,257912250,35130140000000,,,-1221703890304239616,0.0,14.517956515192054,0.5575950509552458,9.51449578108887,89,21,0.0,15,43020368253317,4,45.2,469.5931701660156,0.030100001022219658,0,0.0,0.0,,,,,0,,1,,
Raw,257912250,35130140000000,,,-1221703890304239616,0.0,14.517956515192054,0.5575950509552458,9.51449578108887,89,24,0.0,15,43020366112845,4,44.1,614.1429443359375,0.027300002053380013,0,0.0,0.0,,,,,0,,1,,
Raw,257912251,35130140000000,,,-1221703890304239616,0.0,14.517956515192054,0.5575950509552458,9.51449578108887,89,25,0.0,15,43020371475834,5,47.1,-406.9903564453125,0.034300003200769424,0,0.0,0.0,,,,,0,,1,,
Raw,257912251,35130140000000,,,-1221703890304239616,0.0,14.517956515192054,0.5575950509552458,9.51449578108887,89,31,0.0,15,43020367908158,4,45.5,-532.5863037109375,0.028600001707673073,0,0.0,0.0,,,,,0,,1,,
Raw,257912251,35130140000000,,,-1221703890304239616,0.0,14.517956515192054,0.5575950509552458,9.51449578108887,89,32,0.0,15,43020369256379,5,47.0,-231.52378845214844,0.031300000846385956,0,0.0,0.0,,,,,0,,1,,
Raw,257913284,35131140000000,,,-1221703890304239616,0.0,14.517938325298019,1.7747508767581115,9.514476694398242,89,10,0.0,15,43021375540539,5,47.3,-321.09619140625,0.040300000458955765,0,0.0,0.0,,,,,0,,1,,
Raw,257913284,35131140000000,,,-1221703890304239616,0.0,14.517938325298019,1.7747508767581115,9.514476694398242,89,12,0.0,15,43021370290694,4,45.3,9.142375946044922,0.03310000151395798,0,0.0,0.0,,,,,0,,1,,
Raw,257913285,35131140000000,,,-1221703890304239616,0.0,14.517938325298019,1.7747508767581115,9.514476694398242,89,14,0.0,15,43021365024104,4,43.5,-264.4891662597656,0.026100000366568565,0,0.0,0.0,,,,,0,,1,,
Raw,257913285,35131140000000,,,-1221703890304239616,0.0,14.517938325298019,1.7747508767581115,9.514476694398242,89,15,0.0,15,43021362500232,5,40.9,369.296142578125,0.02240000106394291,0,0.0,0.0,,,,,0,,1,,
Raw,257913286,35131140000000,,,-1221703890304239616,0.0,14.517938325298019,1.7747508767581115,9.514476694398242,89,20,0.0,15,43021377585382,4,50.7,83.73780059814453,0.04330000281333923,0,0.0,0.0,,,,,0,,1,,
Raw,257913287,35131140000000,,,-1221703890304239616,0.0,14.517938325298019,1.7747508767581115,9.514476694398242,89,21,0.0,15,43021368251749,4,43.8,469.7186584472656,0.03060000203549862,0,0.0,0.0,,,,,0,,1,,
Raw,257913287,35131140000000,,,-1221703890304239616,0.0,14.517938325298019,1.7747508767581115,9.514476694398242,89,24,0.0,15,43021366110793,4,42.8,614.2342529296875,0.027800001204013824,0,0.0,0.0,,,,,0,,1,,
Raw,257913288,35131140000000,,,-1221703890304239616,0.0,14.517938325298019,1.7747508767581115,9.514476694398242,89,25,0.0,15,43021371477188,5,46.3,-406.81365966796875,0.03450000286102295,0,0.0,0.0,,,,,0,,1,,
Raw,257913289,35131140000000,,,-1221703890304239616,0.0,14.517938325298019,1.7747508767581115,9.514476694398242,89,31,0.0,15,43021367909926,4,44.0,-532.4199829101562,0.028800001367926598,0,0.0,0.0,,,,,0,,1,,
Raw,257913289,35131140000000,,,-1221703890304239616,0.0,14.517938325298019,1.7747508767581115,9.514476694398242,89,32,0.0,15,43021369257149,4,45.5,-231.4306640625,0.03160000219941139,0,0.0,0.0,,,,,0,,1,,
Raw,257914247,35132140000000,,,-1221703890304239616,0.0,14.51791831641458,2.0660376341038527,9.514456812428838,89,10,0.0,15,43022375541606,4,44.3,-320.93682861328125,0.040800001472234726,0,0.0,0.0,,,,,0,,1,,
Raw,257914247,35132140000000,,,-1221703890304239616,0.0,14.51791831641458,2.0660376341038527,9.514456812428838,89,12,0.0,15,43022370290661,5,40.3,9.342144012451172,0.03440000116825104,0,0.0,0.0,,,,,0,,1,,
Raw,257914248,35132140000000,,,-1221703890304239616,0.0,14.51791831641458,2.0660376341038527,9.514456812428838,89,14,0.0,15,43022365024971,6,38.5,-264.4042663574219,0.0276000015437603,0,0.0,0.0,,,,,0,,1,,
Raw,257914248,35132140000000,,,-1221703890304239616,0.0,14.51791831641458,2.0660376341038527,9.514456812428838,89,15,0.0,15,43022362499003,8,36.8,369.38604736328125,0.02420000173151493,0,0.0,0.0,,,,,0,,1,,
Raw,257914248,35132140000000,,,-1221703890304239616,0.0,14.51791831641458,2.0660376341038527,9.514456812428838,89,20,0.0,15,43022377585095,5,46.0,83.92640686035156,0.04350000247359276,0,0.0,0.0,,,,,0,,1,,
Raw,257914248,35132140000000,,,-1221703890304239616,0.0,14.51791831641458,2.0660376341038527,9.514456812428838,89,21,0.0,15,43022368250172,6,39.7,469.82623291015625,0.03160000219941139,0,0.0,0.0,,,,,0,,1,,
Raw,257914249,35132140000000,,,-1221703890304239616,0.0,14.51791831641458,2.0660376341038527,9.514456812428838,89,24,0.0,15,43022366108734,6,38.5,614.32763671875,0.029100000858306885,0,0.0,0.0,,,,,0,,1,,
Raw,257914249,35132140000000,,,-1221703890304239616,0.0,14.51791831641458,2.0660376341038527,9.514456812428838,89,25,0.0,15,43022371478541,5,41.9,-406.65087890625,0.035600002855062485,0,0.0,0.0,,,,,0,,1,,
Raw,257914249,35132140000000,,,-1221703890304239616,0.0,14.51791831641458,2.0660376341038527,9.514456812428838,89,31,0.0,15,43022367911690,6,39.4,-532.2708740234375,0.030100001022219658,0,0.0,0.0,,,,,0,,1,,
Raw,257914250,35132140000000,,,-1221703890304239616,0.0,14.51791831641458,2.0660376341038527,9.514456812428838,89,32,0.0,15,43022369257912,5,40.9,-231.34780883789062,0.03290000185370445,0,0.0,0.0,,,,,0,,1,,
Raw,257915248,35133140000000,,,-1221703890304239616,0.0,14.517899217025843,2.354224792419493,9.51443772573821,89,10,0.0,15,43023375542665,5,46.7,-321.0517272949219,0.04050000011920929,0,0.0,0.0,,,,,0,,1,,
Raw,257915248,35133140000000,,,-1221703890304239616,0.0,14.517899217025843,2.354224792419493,9.51443772573821,89,12,0.0,15,43023370290616,4,42.9,9.262491226196289,0.03380000218749046,0,0.0,0.0,,,,,0,,1,,
Raw,257915249,35133140000000,,,-1221703890304239616,0.0,14.517899217025843,2.354224792419493,9.51443772573821,89,14,0.0,15,43023365025850,5,40.9,-264.612060546875,0.026900000870227814,0,0.0,0.0,,,,,0,,1,,
Raw,257915249,35133140000000,,,-1221703890304239616,0.0,14.517899217025843,2.354224792419493,9.51443772573821,89,15,0.0,15,43023362497760,6,39.2,369.1811828613281,0.022600000724196434,0,0.0,0.0,,,,,0,,1,,
Raw,257915249,35133140000000,,,-1221703890304239616,0.0,14.517899217025843,2.354224792419493,9.51443772573821,89,20,0.0,15,43023377584809,5,48.2,83.83833312988281,0.04330000281333923,0,0.0,0.0,,,,,0,,1,,
Raw,257915250,35133140000000,,,-1221703890304239616,0.0,14.517899217025843,2.354224792419493,9.51443772573821,89,21,0.0,15,43023368248592,5,41.8,469.65155029296875,0.03110000118613243,0,0.0,0.0,,,,,0,,1,,
Raw,257915250,35133140000000,,,-1221703890304239616,0.0,14.517899217025843,2.354224792419493,9.51443772573821,89,24,0.0,15,43023366106675,5,40.4,614.130615234375,0.028400002047419548,0,0.0,0.0,,,,,0,,1,,
Raw,257915251,35133140000000,,,-1221703890304239616,0.0,14.517899217025843,2.354224792419493,9.51443772573821,89,25,0.0,15,43023371479885,4,44.1,-406.7613220214844,0.03480000048875809,0,0.0,0.0,,,,,0,,1,,
Raw,257915252,35133140000000,,,-1221703890304239616,0.0,14.517899217025843,2.354224792419493,9.51443772573821,89,31,0.0,15,43023367913459,5,41.7,-532.4097900390625,0.029600001871585846,0,0.0,0.0,,,,,0,,1,,
Raw,257915252,35133140000000,,,-1221703890304239616,0.0,14.517899217025843,2.354224792419493,9.51443772573821,89,32,0.0,15,43023369258675,4,42.8,-231.54931640625,0.03230000287294388,0,0.0,0.0,,,,,0,,1,,
Raw,257916250,35134140000000,,,-1221703890304239616,0.0,14.517879208142404,1.6453244252493975,9.514417843768806,89,10,0.0,15,43024375543735,4,42.8,-321.0575866699219,0.04130000248551369,0,0.0,0.0,,,,,0,,1,,
Raw,257916251,35134140000000,,,-1221703890304239616,0.0,14.517879208142404,1.6453244252493975,9.514417843768806,89,12,0.0,15,43024370290581,6,39.0,9.293439865112305,0.03460000082850456,0,0.0,0.0,,,,,0,,1,,
Raw,257916251,35134140000000,,,-1221703890304239616,0.0,14.517879208142404,1.6453244252493975,9.514417843768806,89,14,0.0,15,43024365026734,7,37.0,-264.70220947265625,0.02810000069439411,0,0.0,0.0,,,,,0,,1,,
Raw,257916252,35134140000000,,,-1221703890304239616,0.0,14.517879208142404,1.6453244252493975,9.514417843768806,89,15,0.0,15,43024362496509,9,35.4,369.10711669921875,0.0246000010