# 
# Header Description:
# 
# Version: v2.0.0.1 Platform: 8.0.0 Manufacturer: Xiaomi Model: MIX 2
# 
# Raw,ElapsedRealtimeMillis,TimeNanos,LeapSecond,TimeUncertaintyNanos,FullBiasNanos,BiasNanos,BiasUncertaintyNanos,DriftNanosPerSecond,DriftUncertaintyNanosPerSecond,HardwareClockDiscontinuityCount,Svid,TimeOffsetNanos,State,ReceivedSvTimeNanos,ReceivedSvTimeUncertaintyNanos,Cn0DbHz,PseudorangeRateMetersPerSecond,PseudorangeRateUncertaintyMetersPerSecond,AccumulatedDeltaRangeState,AccumulatedDeltaRangeMeters,AccumulatedDeltaRangeUncertaintyMeters,CarrierFrequencyHz,CarrierCycles,CarrierPhase,CarrierPhaseUncertainty,MultipathIndicator,SnrInDb,ConstellationType,AgcDb,CarrierFrequencyHz
# 
# Fix,Provider,Latitude,Longitude,Altitude,Speed,Accuracy,(UTC)TimeInMs
# 
# Nav,Svid,Type,Status,MessageId,Sub-messageId,Data(Bytes)
# 
Raw,255072756,33367100000000,,,-1221705618341838848,0.0,14.518634998239577,-2.250738346392322,9.51517335860616,61,10,0.0,15,42985373101222,6,38.0,-326.4835510253906,0.03959999978542328,0,0.0,0.0,,,,,0,,1,,
Raw,255072757,33367100000000,,,-1221705618341838848,0.0,14.518634998239577,-2.250738346392322,9.51517335860616,61,12,0.0,15,42985367890943,10,34.2,2.3433034420013428,0.032600000500679016,0,0.0,0.0,,,,,0,,1,,
Raw,255072757,33367100000000,,,-1221705618341838848,0.0,14.518634998239577,-2.250738346392322,9.51517335860616,61,14,0.0,15,42985362591751,12,32.2,-266.9431457519531,0.026900000870227814,0,0.0,0.0,,,,,0,,1,,
Raw,255072758,33367100000000,,,-1221705618341838848,0.0,14.518634998239577,-2.250738346392322,9.51517335860616,61,15,0.0,15,42985360143993,14,30.6,366.59423828125,0.025800000876188278,0,0.0,0.0,,,,,0,,1,,
Raw,255072758,33367100000000,,,-1221705618341838848,0.0,14.518634998239577,-2.250738346392322,9.51517335860616,61,20,0.0,15,42985375194604,6,39.7,77.2952651977539,0.042100001126527786,0,0.0,0.0,,,,,0,,1,,
Raw,255072759,33367100000000,,,-1221705618341838848,0.0,14.518634998239577,-2.250738346392322,9.51517335860616,61,21,0.0,15,42985365907499,11,33.3,466.1952819824219,0.030400000512599945,0,0.0,0.0,,,,,0,,1,,
Raw,255072760,33367100000000,,,-1221705618341838848,0.0,14.518634998239577,-2.250738346392322,9.51517335860616,61,24,0.0,15,42985363783961,12,32.2,611.4805297851562,0.0284000001847744,0,0.0,0.0,,,,,0,,1,,
Raw,255072760,33367100000000,,,-1221705618341838848,0.0,14.518634998239577,-2.250738346392322,9.51517335860616,61,25,0.0,15,42985369027559,9,35.7,-412.2997131347656,0.035100001841783524,0,0.0,0.0,,,,,0,,1,,
Raw,255072761,33367100000000,,,-1221705618341838848,0.0,14.518634998239577,-2.250738346392322,9.51517335860616,61,31,0.0,15,42985365445244,11,33.1,-537.3616333007812,0.030400000512599945,0,0.0,0.0,,,,,0,,1,,
Raw,255072762,33367100000000,,,-1221705618341838848,0.0,14.518634998239577,-2.250738346392322,9.51517335860616,61,32,0.0,15,42985366828764,10,34.6,-233.9878387451172,0.03110000118613243,0,0.0,0.0,,,,,0,,1,,
Raw,255073747,33368100000000,,,-1221705618341838848,0.0,15.609954061801545,-6.256401667292365,10.49171684510663,61,10,0.0,15,42986373102298,5,40.4,-327.14019775390625,0.03890000283718109,0,0.0,0.0,,,,,0,,1,,
Raw,255073748,33368100000000,,,-1221705618341838848,0.0,15.609954061801545,-6.256401667292365,10.49171684510663,61,12,0.0,15,42986367890931,8,36.7,1.7454321384429932,0.031700000166893005,0,0.0,0.0,,,,,0,,1,,
Raw,255073749,33368100000000,,,-1221705618341838848,0.0,15.609954061801545,-6.256401667292365,10.49171684510663,61,14,0.0,15,42986362592632,10,34.7,-267.6368713378906,0.025100000202655792,0,0.0,0.0,,,,,0,,1,,
Raw,255073749,33368100000000,,,-1221705618341838848,0.0,15.609954061801545,-6.256401667292365,10.49171684510663,61,15,0.0,15,42986360142768,12,32.6,365.9299621582031,0.023900000378489494,0,0.0,0.0,,,,,0,,1,,
Raw,255073750,33368100000000,,,-1221705618341838848,0.0,15.609954061801545,-6.256401667292365,10.49171684510663,61,20,0.0,15,42986375194357,4,42.1,76.656982421875,0.04130000248551369,0,0.0,0.0,,,,,0,,1,,
Raw,255073751,33368100000000,,,-1221705618341838848,0.0,15.609954061801545,-6.256401667292365,10.49171684510663,61,21,0.0,15,42986365905937,9,35.4,465.52459716796875,0.029100000858306885,0,0.0,0.0,,,,,0,,1,,
Raw,255073751,33368100000000,,,-1221705618341838848,0.0,15.609954061801545,-6.256401667292365,10.49171684510663,61,24,0.0,15,42986363781902,10,34.5,610.8081665039062,0.026600001379847527,0,0.0,0.0,,,,,0,,1,,
Raw,255073752,33368100000000,,,-1221705618341838848,0.0,15.609954061801545,-6.256401667292365,10.49171684510663,61,25,0.0,15,42986369028942,6,38.3,-412.9263916015625,0.03360000252723694,0,0.0,0.0,,,,,0,,1,,
Raw,255073753,33368100000000,,,-1221705618341838848,0.0,15.609954061801545,-6.256401667292365,10.49171684510663,61,31,0.0,15,42986365447034,9,35.5,-537.9935913085938,0.029100000858306885,0,0.0,0.0,,,,,0,,1,,
Raw,255073753,33368100000000,,,-1221705618341838848,0.0,15.609954061801545,-6.256401667292365,10.49171684510663,61,32,0.0,15,42986366829540,7,37.0,-234.68714904785156,0.029600001871585846,0,0.0,0.0,,,,,0,,1,,
Raw,255074747,33369100000000,,,-1221705618341838848,0.0,14.5185958899674,-8.434170800135274,9.515134389946128,61,10,0.0,15,42987373103390,4,42.4,-325.3446350097656,0.03830000013113022,0,0.0,0.0,,,,,0,,1,,
Raw,255074747,33369100000000,,,-1221705618341838848,0.0,14.5185958899674,-8.434170800135274,9.515134389946128,61,12,0.0,15,42987367890920,6,38.8,3.576371669769287,0.03060000203549862,0,0.0,0.0,,,,,0,,1,,
Raw,255074748,33369100000000,,,-1221705618341838848,0.0,14.5185958899674,-8.434170800135274,9.515134389946128,61,14,0.0,15,42987362593530,7,37.1,-265.9305114746094,0.023600000888109207,0,0.0,0.0,,,,,0,,1,,
Raw,255074749,33369100000000,,,-1221705618341838848,0.0,14.5185958899674,-8.434170800135274,9.515134389946128,61,15,0.0,15,42987360141526,9,35.5,367.64080810546875,0.02160000056028366,0,0.0,0.0,,,,,0,,1,,
Raw,255074749,33369100000000,,,-1221705618341838848,0.0,14.5185958899674,-8.434170800135274,9.515134389946128,61,20,0.0,15,42987375194090,4,44.4,78.48406219482422,0.040800001472234726,0,0.0,0.0,,,,,0,,1,,
Raw,255074750,33369100000000,,,-1221705618341838848,0.0,14.5185958899674,-8.434170800135274,9.515134389946128,61,21,0.0,15,42987365904390,7,37.7,467.2565002441406,0.02810000069439411,0,0.0,0.0,,,,,0,,1,,
Raw,255074751,33369100000000,,,-1221705618341838848,0.0,14.5185958899674,-8.434170800135274,9.515134389946128,61,24,0.0,15,42987363779869,7,37.4,612.5130615234375,0.025100000202655792,0,0.0,0.0,,,,,0,,1,,
Raw,255074751,33369100000000,,,-1221705618341838848,0.0,14.5185958899674,-8.434170800135274,9.515134389946128,61,25,0.0,15,42987369030309,5,40.5,-411.1360778808594,0.03290000185370445,0,0.0,0.0,,,,,0,,1,,
Raw,255074752,33369100000000,,,-1221705618341838848,0.0,14.5185958899674,-8.434170800135274,9.515134389946128,61,31,0.0,15,42987365448844,6,38.0,-536.2241821289062,0.0276000015437603,0,0.0,0.0,,,,,0,,1,,
Raw,255074753,33369100000000,,,-1221705618341838848,0.0,14.5185958899674,-8.434170800135274,9.515134389946128,61,32,0.0,15,42987366830330,6,39.5,-232.98196411132812,0.028600001707673073,0,0.0,0.0,,,,,0,,1,,
Raw,255075736,33370100000000,,,-1221705618341838848,0.0,14.518576790578663,-2.7836900442056374,9.515115303255502,61,10,0.0,15,42988373104472,4,43.7,-324.7179260253906,0.038100000470876694,0,0.0,0.0,,,,,0,,1,,
Raw,255075737,33370100000000,,,-1221705618341838848,0.0,14.518576790578663,-2.7836900442056374,9.515115303255502,61,12,0.0,15,42988367890913,5,40.4,4.243398189544678,0.029900001361966133,0,0.0,0.0,,,,,0,,1,,
Raw,255075738,33370100000000,,,-1221705618341838848,0.0,14.518576790578663,-2.7836900442056374,9.515115303255502,61,14,0.0,15,42988362594406,6,38.7,-265.3937072753906,0.023100001737475395,0,0.0,0.0,,,,,0,,1,,
Raw,255075738,33370100000000,,,-1221705618341838848,0.0,14.518576790578663,-2.7836900442056374,9.515115303255502,61,15,0.0,15,42988360140308,8,36.8,368.1740417480469,0.02120000123977661,0,0.0,0.0,,,,,0,,1,,
Raw,255075739,33370100000000,,,-1221705618341838848,0.0,14.518576790578663,-2.7836900442056374,9.515115303255502,61,20,0.0,15,42988375193828,4,45.6,79.14798736572266,0.0406000018119812,0,0.0,0.0,,,,,0,,1,,
Raw,255075739,33370100000000,,,-1221705618341838848,0.0,14.518576790578663,-2.7836900442056374,9.515115303255502,61,21,0.0,15,42988365902825,6,39.5,467.8299255371094,0.02710000053048134,0,0.0,0.0,,,,,0,,1,,
Raw,255075740,33370100000000,,,-1221705618341838848,0.0,14.518576790578663,-2.7836900442056374,9.515115303255502,61,24,0.0,15,42988363777834,6,38.6,613.062255859375,0.02460000105202198,0,0.0,0.0,,,,,0,,1,,
Raw,255075741,33370100000000,,,-1221705618341838848,0.0,14.518576790578663,-2.7836900442056374,9.515115303255502,61,25,0.0,15,42988369031681,4,42.2,-410.50506591796875,0.03230000287294388,0,0.0,0.0,,,,,0,,1,,
Raw,255075741,33370100000000,,,-1221705618341838848,0.0,14.518576790578663,-2.7836900442056374,9.515115303255502,61,31,0.0,15,42988365450617,6,39.6,-535.60888671875,0.02710000053048134,0,0.0,0.0,,,,,0,,1,,
Raw,255075742,33370100000000,,,-1221705618341838848,0.0,14.518576790578663,-2.7836900442056374,9.515115303255502,61,32,0.0,15,42988366831098,5,41.2,-232.43092346191406,0.02810000069439411,0,0.0,0.0,,,,,0,,1,,
Raw,255076746,33371100000000,,,-1221705618341838848,0.0,14.518556781695224,-1.008348772366071,9.515096216564874,61,10,0.0,15,42989373105554,4,43.8,-325.0710754394531,0.038100000470876694,0,0.0,0.0,,,,,0,,1,,
Raw,255076746,33371100000000,,,-1221705618341838848,0.0,14.518556781695224,-1.008348772366071,9.515096216564874,61,12,0.0,15,42989367890892,5,40.1,3.92085862159729,0.029900001361966133,0,0.0,0.0,,,,,0,,1,,
Raw,255076747,33371100000000,,,-1221705618341838848,0.0,14.518556781695224,-1.008348772366071,9.515096216564874,61,14,0.0,15,42989362595291,6,38.5,-265.8370361328125,0.023100001737475395,0,0.0,0.0,,,,,0,,1,,
Raw,255076747,33371100000000,,,-1221705618341838848,0.0,14.518556781695224,-1.008348772366071,9.515096216564874,61,15,0.0,15,42989360139069,8,36.7,367.7477111816406,0.02120000123977661,0,0.0,0.0,,,,,0,,1,,
Raw,255076748,33371100000000,,,-1221705618341838848,0.0,14.518556781695224,-1.008348772366071,9.515096216564874,61,20,0.0,15,42989375193565,5,46.0,78.82588958740234,0.04050000011920929,0,0.0,0.0,,,,,0,,1,,
Raw,255076748,33371100000000,,,-1221705618341838848,0.0,14.518556781695224,-1.008348772366071,9.515096216564874,61,21,0.0,15,42989365901269,6,39.3,467.4172668457031,0.02710000053048134,0,0.0,0.0,,,,,0,,1,,
Raw,255076749,33371100000000,,,-1221705618341838848,0.0,14.518556781695224,-1.008348772366071,9.515096216564874,61,24,0.0,15,42989363775783,6,38.4,612.6318969726562,0.02460000105202198,0,0.0,0.0,,,,,0,,1,,
Raw,255076750,33371100000000,,,-1221705618341838848,0.0,14.518556781695224,-1.008348772366071,9.515096216564874,61,25,0.0,15,42989369033050,4,42.1,-410.8623962402344,0.03230000287294388,0,0.0,0.0,,,,,0,,1,,
Raw,255076750,33371100000000,,,-1221705618341838848,0.0,14.518556781695224,-1.008348772366071,9.515096216564874,61,31,0.0,15,42989365452404,6,39.7,-535.9808959960938,0.02710000053048134,0,0.0,0.0,,,,,0,,1,,
Raw,255076751,33371100000000,,,-1221705618341838848,0.0,14.518556781695224,-1.008348772366071,9.515096216564874,61,32,0.0,15,42989366831877,5,41.1,-232.8622589111328,0.02810000069439411,0,0.0,0.0,,,,,0,,1,,
Raw,255077746,33372100000000,,,-1221705618341838848,0.0,14.518537682306487,-2.480034713693599,9.51507633459547,61,10,0.0,15,42990373106632,5,40.3,-324.7774353027344,0.03890000283718109,0,0.0,0.0,,,,,0,,1,,
Raw,255077747,33372100000000,,,-1221705618341838848,0.0,14.518537682306487,-2.480034713693599,9.51507633459547,61,12,0.0,15,42990367890887,8,36.6,4.264194965362549,0.031700000166893005,0,0.0,0.0,,,,,0,,1,,
Raw,255077748,33372100000000,,,-1221705618341838848,0.0,14.518537682306487,-2.480034713693599,9.51507633459547,61,14,0.0,15,42990362596181,10,34.6,-265.615966796875,0.025100000202655792,0,0.0,0.0,,,,,0,,1,,
Raw,255077748,33372100000000,,,-1221705618341838848,0.0,14.518537682306487,-2.480034713693599,9.51507633459547,61,15,0.0,15,42990360137835,12,32.6,367.95721435546875,0.023900000378489494,0,0.0,0.0,,,,,0,,1,,
Raw,255077749,33372100000000,,,-1221705618341838848,0.0,14.518537682306487,-2.480034713693599,9.51507633459547,61,20,0.0,15,42990375193303,4,42.0,79.15005493164062,0.04130000248551369,0,0.0,0.0,,,,,0,,1,,
Raw,255077750,33372100000000,,,-1221705618341838848,0.0,14.518537682306487,-2.480034713693599,9.51507633459547,61,21,0.0,15,42990365899706,9,35.8,467.6647644042969,0.029100000858306885,0,0.0,0.0,,,,,0,,1,,
Raw,255077750,33372100000000,,,-1221705618341838848,0.0,14.518537682306487,-2.480034713693599,9.51507633459547,61,24,0.0,15,42990363773732,10,34.6,612.8483276367188,0.026600001379847527,0,0.0,0.0,,,,,0,,1,,
Raw,255077753,33372100000000,,,-1221705618341838848,0.0,14.518537682306487,-2.480034713693599,9.51507633459547,61,25,0.0,15,42990369034418,6,38.1,-410.5666198730469,0.03360000252723694,0,0.0,0.0,,,,,0,,1,,
Raw,255077753,33372100000000,,,-1221705618341838848,0.0,14.518537682306487,-2.480034713693599,9.51507633459547,61,31,0.0,15,42990365454182,9,35.5,-535.69677734375,0.029100000858306885,0,0.0,0.0,,,,,0,,1,,
Raw,255077754,33372100000000,,,-1221705618341838848,0.0,14.518537682306487,-2.480034713693599,9.51507633459547,61,32,0.0,15,42990366832642,7,37.1,-232.6481170654297,0.029600001871585846,0,0.0,0.0,,,,,0,,1,,
Raw,255078747,33373100000000,,,-1221705618341838848,0.0,14.51851858291775,-1.7695066096883891,9.515057247904842,61,10,0.0,15,42991373107707,5,40.5,-324.4770202636719,0.03890000283718109,0,0.0,0.0,,,,,0,,1,,
Raw,255078748,33373100000000,,,-1221705618341838848,0.0,14.51851858291775,-1.7695066096883891,9.515057247904842,61,12,0.0,15,42991367890854,8,36.9,4.598056793212891,0.031700000166893005,0,0.0,0.0,,,,,0,,1,,
Raw,255078750,33373100000000,,,-1221705618341838848,0.0,14.51851858291775,-1.7695066096883891,9.515057247904842,61,14,0.0,15,42991362597058,10,34.9,-265.3991394042969,0.025100000202655792,0,0.0,0.0,,,,,0,,1,,
Raw,255078751,33373100000000,,,-1221705618341838848,0.0,14.51851858291775,-1.7695066096883891,9.515057247904842,61,15,0.0,15,42991360136593,11,33.3,368.1788330078125,0.02290000021457672,0,0.0,0.0,,,,,0,,1,,
Raw,255078752,33373100000000,,,-1221705618341838848,0.0,14.51851858291775,-1.7695066096883891,9.515057247904842,61,20,0.0,15,42991375193022,4,42.1,79.47642517089844,0.04130000248551369,0,0.0,0.0,,,,,0,,1,,
Raw,255078752,33373100000000,,,-1221705618341838848,0.0,14.51851858291775,-1.7695066096883891,9.515057247904842,61,21,0.0,15,42991365898129,8,36.0,467.912841796875,0.028700001537799835,0,0.0,0.0,,,,,0,,1,,
Raw,255078753,33373100000000,,,-1221705618341838848,0.0,14.51851858291775,-1.7695066096883891,9.515057247904842,61,24,0.0,15,42991363771682,9,35.0,613.0781860351562,0.026100000366568565,0,0.0,0.0,,,,,0,,1,,
Raw,255078754,33373100000000,,,-1221705618341838848,0.0,14.51851858291775,-1.7695066096883891,9.515057247904842,61,25,0.0,15,42991369035770,6,38.3,-410.2625732421875,0.03360000252723694,0,0.0,0.0,,,,,0,,1,,
Raw,255078754,33373100000000,,,-1221705618341838848,0.0,14.51851858291775,-1.7695066096883891,9.515057247904842,61,31,0.0,15,42991365455959,9,35.6,-535.4164428710938,0.029100000858306885,0,0.0,0.0,,,,,0,,1,,
Raw,255078755,33373100000000,,,-1221705618341838848,0.0,14.51851858291775,-1.7695066096883891,9.515057247904842,61,32,0.0,15,42991366833410,7,37.8,-232.42471313476562,0.029600001871585846,0,0.0,0.0,,,,,0,,1,,
Raw,255079747,33374100000000,,,-1221705618341838848,0.0,14.51849857403431,-1.0465146978834365,9.515038161214214,61,10,0.0,15,42992373108791,6,38.5,-324.0845642089844,0.03959999978542328,0,0.0,0.0,,,,,0,,1,,
Raw,255079747,33374100000000,,,-1221705618341838848,0.0,14.51849857403431,-1.0465146978834365,9.515038161214214,61,12,0.0,15,42992367890840,10,34.9,5.0146379470825195,0.032600000500679016,0,0.0,0.0,,,,,0,,1,,
Raw,255079748,33374100000000,,,-1221705618341838848,0.0,14.51849857403431,-1.0465146978834365,9.515038161214214,61,14,0.0,15,42992362597951,12,32.7,-265.1046447753906,0.026900000870227814,0,0.0,0.0,,,,,0,,1,,
Raw,255079749,33374100000000,,,-1221705618341838848,0.0,14.51849857403431,-1.0465146978834365,9.515038161214214,61,15,0.0,15,42992360135390,13,31.3,368.5950012207031,0.025200000032782555,0,0.0,0.0,,,,,0,,1,,
Raw,255079749,33374100000000,,,-1221705618341838848,0.0,14.51849857403431,-1.0465146978834365,9.515038161214214,61,20,0.0,15,42992375192767,5,40.2,79.89342498779297,0.04190000146627426,0,0.0,0.0,,,,,0,,1,,
Raw,255079750,33374100000000,,,-1221705618341838848,0.0,14.51849857403431,-1.0465146978834365,9.515038161214214,61,21,0.0,15,42992365896573,11,33.8,468.146484375,0.030400000512599945,0,0.0,0.0,,,,,0,,1,,
Raw,255079751,33374100000000,,,-1221705618341838848,0.0,14.51849857403431,-1.0465146978834365,9.515038161214214,61,24,0.0,15,42992363769624,11,33.1,613.28076171875,0.027400000020861626,0,0.0,0.0,,,,,0,,1,,
Raw,255079751,33374100000000,,,-1221705618341838848,0.0,14.51849857403431,-1.0465146978834365,9.515038161214214,61,25,0.0,15,42992369037136,8,36.7,-409.978515625,0.034700002521276474,0,0.0,0.0,,,,,0,,1,,
Raw,255079751,33374100000000,,,-1221705618341838848,0.0,14.51849857403431,-1.0465146978834365,9.515038161214214,61,31,0.0,15,42992365457764,11,33.6,-535.0519409179688,0.030400000512599945,0,0.0,0.0,,,,,0,,1,,
Raw,255079752,33374100000000,,,-1221705618341838848,0.0,14.51849857403431,-1.0465146978834365,9.515038161214214,61,32,0.0,15,42992366834194,9,35.8,-232.23236083984375,0.03060000203549862,0,0.0,0.0,,,,,0,,1,,
Raw,255080745,33375100000000,,,-1221705618341838848,0.0,14.518480384140275,-0.10717870171274659,9.515019074523586,61,10,0.0,15,42993373109873,6,39.9,-324.6229248046875,0.039100002497434616,0,0.0,0.0,,,,,0,,1,,
Raw,255080746,33375100000000,,,-1221705618341838848,0.0,14.518480384140275,-0.10717870171274659,9.515019074523586,61,12,0.0,15,42993367890824,8,36.4,4.533873081207275,0.031700000166893005,0,0.0,0.0,,,,,0,,1,,
Raw,255080746,33375100000000,,,-1221705618341838848,0.0,14.518480384140275,-0.10717870171274659,9.515019074523586,61,14,0.0,15,42993362598823,11,33.9,-265.71856689453125,0.02590000070631504,0,0.0,0.0,,,,,0,,1,,
Raw,255080747,33375100000000,,,-1221705618341838848,0.0,14.518480384140275,-0.10717870171274659,9.515019074523586,61,15,0.0,15,42993360134143,12,32.3,367.8940734863281,0.023900000378489494,0,0.0,0.0,,,,,0,,1,,
Raw,255080748,33375100000000,,,-1221705618341838848,0.0,14.518480384140275,-0.10717870171274659,9.515019074523586,61,20,0.0,15,42993375192492,5,41.6,79.38713073730469,0.041600000113248825,0,0.0,0.0,,,,,0,,1,,
Raw,255080748,33375100000000,,,-1221705618341838848,0.0,14.518480384140275,-0.10717870171274659,9.515019074523586,61,21,0.0,15,42993365895002,10,34.9,467.6524963378906,0.029600001871585846,0,0.0,0.0,,,,,0,,1,,
Raw,255080749,33375100000000,,,-1221705618341838848,0.0,14.518480384140275,-0.10717870171274659,9.515019074523586,61,24,0.0,15,42993363767591,10,34.7,612.7833862304688,0.026600001379847527,0,0.0,0.0,,,,,0,,1,,
Raw,255080749,33375100000000,,,-1221705618341838848,0.0,14.518480384140275,-0.10717870171274659,9.515019074523586,61,25,0.0,15,42993369038506,7,37.8,-410.4035949707031,0.0340999998152256,0,0.0,0.0,,,,,0,,1,,
Raw,255080750,33375100000000,,,-1221705618341838848,0.0,14.518480384140275,-0.10717870171274659,9.515019074523586,61,31,0.0,15,42993365459541,9,35.3,-535.5831909179688,0.029100000858306885,0,0.0,0.0,,,,,0,,1,,
Raw,255080750,33375100000000,,,-1221705618341838848,0.0,14.518480384140275,-0.10717870171274659,9.515019074523586,61,32,0.0,15,42993366834960,7,37.0,-232.73634338378906,0.029600001871585846,0,0.0,0.0,,,,,0,,1,,
Raw,255081743,33376100000000,,,-1221705618341838848,0.0,14.518460375256836,-2.0716238710473256,9.514999987832958,61,10,0.0,15,42994373110960,8,36.2,-324.6691589355469,0.04070000350475311,0,0.0,0.0,,,,,0,,1,,
Raw,255081744,33376100000000,,,-1221705618341838848,0.0,14.518460375256836,-2.0716238710473256,9.514999987832958,61,12,0.0,15,42994367890816,12,32.4,4.230471134185791,0.03440000116825104,0,0.0,0.0,,,,,0,,1,,
Raw,255081745,33376100000000,,,-1221705618341838848,0.0,14.518460375256836,-2.0716238710473256,9.514999987832958,61,14,0.0,15,42994362599717,14,30.5,-265.7459716796875,0.028800001367926598,0,0.0,0.0,,,,,0,,1,,
Raw,255081746,33376100000000,,,-1221705618341838848,0.0,14.518460375256836,-2.0716238710473256,9.514999987832958,61,15,0.0,15,42994360132929,17,28.8,367.6716003417969,0.0333000011742115,0,0.0,0.0,,,,,0,,1,,
Raw,255081747,33376100000000,,,-1221705618341838848,0.0,14.518460375256836,-2.0716238710473256,9.514999987832958,61,20,0.0,15,42994375192223,6,38.1,79.2715072631836,0.04260000213980675,0,0.0,0.0,,,,,0,,1,,
Raw,255081747,33376100000000,,,-1221705618341838848,0.0,14.518460375256836,-2.0716238710473256,9.514999987832958,61,21,0.0,15,42994365893451,13,31.2,467.3658142089844,0.03270000219345093,0,0.0,0.0,,,,,0,,1,,
Raw,255081748,33376100000000,,,-1221705618341838848,0.0,14.518460375256836,-2.0716238710473256,9.514999987832958,61,24,0.0,15,42994363765554,14,30.4,612.6539306640625,0.030300000682473183,0,0.0,0.0,,,,,0,,1,,
Raw,255081749,33376100000000,,,-1221705618341838848,0.0,14.518460375256836,-2.0716238710473256,9.514999987832958,61,25,0.0,15,42994369039886,10,34.0,-410.5483703613281,0.035600002855062485,0,0.0,0.0,,,,,0,,1,,
Raw,255081749,33376100000000,,,-1221705618341838848,0.0,14.518460375256836,-2.0716238710473256,9.514999987832958,61,31,0.0,15,42994365461320,13,31.4,-535.7440185546875,0.03270000219345093,0,0.0,0.0,,,,,0,,1,,
Raw,255081750,33376100000000,,,-1221705618341838848,0.0,14.518460375256836,-2.0716238710473256,9.514999987832958,61,32,0.0,15,42994366835744,11,33.1,-232.96539306640625,0.03189999982714653,0,0.0,0.0,,,,,0,,1,,
Raw,255082744,33377100000000,,,-1221705618341838848,0.0,14.975032172515057,-2.6461984718081464,9.604162667822632,61,10,0.0,15,42995373112028,5,41.9,-324.2797546386719,0.038600001484155655,0,0.0,0.0,,,,,0,,1,,
Raw,255082745,33377100000000,,,-1221705618341838848,0.0,14.975032172515057,-2.6461984718081464,9.604162667822632,61,12,0.0,15,42995367890783,6,38.7,4.952439785003662,0.03060000203549862,0,0.0,0.0,,,,,0,,1,,
Raw,255082745,33377100000000,,,-1221705618341838848,0.0,14.975032172515057,-2.6461984718081464,9.604162667822632,61,14,0.0,15,42995362600603,8,36.8,-265.5335998535156,0.02420000173151493,0,0.0,0.0,,,,,0,,1,,
Raw,255082746,33377100000000,,,-1221705618341838848,0.0,14.975032172515057,-2.6461984718081464,9.604162667822632,61,15,0.0,15,42995360131687,9,35.0,368.08154296875,0.02160000056028366,0,0.0,0.0,,,,,0,,1,,
Raw,255082746,33377100000000,,,-1221705618341838848,0.0,14.975032172515057,-2.6461984718081464,9.604162667822632,61,20,0.0,15,42995375191954,4,44.2,79.79199981689453,0.040800001472234726,0,0.0,0.0,,,,,0,,1,,
Raw,255082747,33377100000000,,,-1221705618341838848,0.0,14.975032172515057,-2.6461984718081464,9.604162667822632,61,21,0.0,15,42995365891881,7,37.8,467.9040832519531,0.02810000069439411,0,0.0,0.0,,,,,0,,1,,
Raw,255082747,33377100000000,,,-1221705618341838848,0.0,14.975032172515057,-2.6461984718081464,9.604162667822632,61,24,0.0,15,42995363763495,8,36.4,612.9806518554688,0.025700001046061516,0,0.0,0.0,,,,,0,,1,,
Raw,255082748,33377100000000,,,-1221705618341838848,0.0,14.975032172515057,-2.6461984718081464,9.604162667822632,61,25,0.0,15,42995369041236,5,40.3,-410.0539245605469,0.03290000185370445,0,0.0,0.0,,,,,0,,1,,
Raw,255082748,33377100000000,,,-1221705618341838848,0.0,14.975032172515057,-2.6461984718081464,9.604162667822632,61,31,0.0,15,42995365463103,7,37.3,-535.267822265625,0.02810000069439411,0,0.0,0.0,,,,,0,,1,,
Raw,255082749,33377100000000,,,-1221705618341838848,0.0,14.975032172515057,-2.6461984718081464,9.604162667822632,61,32,0.0,15,42995366836504,6,39.2,-232.5386962890625,0.028600001707673073,0,0.0,0.0,,,,,0,,1,,
Raw,255083745,33378100000000,,,-1221705618341838848,0.0,14.518425814458169,-1.463607201289709,9.51496420028803,61,10,0.0,15,42996373113109,4,43.8,-323.775146484375,0.038100000470876694,0,0.0,0.0,,,,,0,,1,,
Raw,255083745,33378100000000,,,-1221705618341838848,0.0,14.518425814458169,-1.463607201289709,9.51496420028803,61,12,0.0,15,42996367890760,5,40.7,5.4898858070373535,0.029900001361966133,0,0.0,0.0,,,,,0,,1,,
Raw,255083746,33378100000000,,,-1221705618341838848,0.0,14.518425814458169,-1.463607201289709,9.51496420028803,61,14,0.0,15,42996362601470,6,38.9,-265.0999450683594,0.023100001737475395,0,0.0,0.0,,,,,0,,1,,
Raw,255083747,33378100000000,,,-1221705618341838848,0.0,14.518425814458169,-1.463607201289709,9.51496420028803,61,15,0.0,15,42996360130456,8,36.9,368.5054016113281,0.02120000123977661,0,0.0,0.0,,,,,0,,1,,
Raw,255083747,33378100000000,,,-1221705618341838848,0.0,14.518425814458169,-1.463607201289709,9.51496420028803,61,20,0.0,15,42996375191684,5,46.2,80.32411193847656,0.04050000011920929,0,0.0,0.0,,,,,0,,1,,
Raw,255083749,33378100000000,,,-1221705618341838848,0.0,14.518425814458169,-1.463607201289709,9.51496420028803,61,21,0.0,15,42996365890325,6,39.7,468.3515625,0.02710000053048134,0,0.0,0.0,,,,,0,,1,,
Raw,255083749,33378100000000,,,-1221705618341838848,0.0,14.518425814458169,-1.463607201289709,9.51496420028803,61,24,0.0,15,42996363761442,6,38.4,613.4093627929688,0.02460000105202198,0,0.0,0.0,,,,,0,,1,,
Raw,255083750,33378100000000,,,-1221705618341838848,0.0,14.518425814458169,-1.463607201289709,9.51496420028803,61,25,0.0,15,42996369042598,5,41.9,-409.5523376464844,0.032600000500679016,0,0.0,0.0,,,,,0,,1,,
Raw,255083751,33378100000000,,,-1221705618341838848,0.0,14.518425814458169,-1.463607201289709,9.51496420028803,61,31,0.0,15,42996365464881,6,39.7,-534.7757568359375,0.02710000053048134,0,0.0,0.0,,,,,0,,1,,
Raw,255083751,33378100000000,,,-1221705618341838848,0.0,14.518425814458169,-1.463607201289709,9.51496420028803,61,32,0.0,15,42996366837277,5,41.3,-232.1261749267578,0.02810000069439411,0,0.0,0.0,,,,,0,,1,,
Raw,255084741,33379100000000,,,-1221705618341838848,0.0,14.518402167595923,-0.05556034989324978,9.514941932482298,61,10,0.0,15,42997373114185,4,43.8,-323.6847839355469,0.038100000470876694,0,0.0,0.0,,,,,0,,1,,
Raw,255084742,33379100000000,,,-1221705618341838848,0.0,14.518402167595923,-0.05556034989324978,9.514941932482298,61,12,0.0,15,42997367890737,5,40.4,5.6171064376831055,0.029900001361966133,0,0.0,0.0,,,,,0,,1,,
Raw,255084743,33379100000000,,,-1221705618341838848,0.0,14.518402167595923,-0.05556034989324978,9.514941932482298,61,14,0.0,15,42997362602362,6,38.8,-265.107177734375,0.023100001737475395,0,0.0,0.0,,,,,0,,1,,
Raw,255084744,33379100000000,,,-1221705618341838848,0.0,14.518402167595923,-0.05556034989324978,9.514941932482298,61,15,0.0,15,42997360129218,8,36.7,368.52899169921875,0.02120000123977661,0,0.0,0.0,,,,,0,,1,,
Raw,255084744,33379100000000,,,-1221705618341838848,0.0,14.518402167595923,-0.05556034989324978,9.514941932482298,61,20,0.0,15,42997375191410,5,46.1,80.44810485839844,0.04050000011920929,0,0.0,0.0,,,,,0,,1,,
Raw,255084745,33379100000000,,,-1221705618341838848,0.0,14.518402167595923,-0.05556034989324978,9.514941932482298,61,21,0.0,15,42997365888747,6,39.6,468.3874206542969,0.02710000053048134,0,0.0,0.0,,,,,0,,1,,
Raw,255084745,33379100000000,,,-1221705618341838848,0.0,14.518402167595923,-0.05556034989324978,9.514941932482298,61,24,0.0,15,42997363759397,6,38.1,613.428466796875,0.02460000105202198,0,0.0,0.0,,,,,0,,1,,
Raw,255084746,33379100000000,,,-1221705618341838848,0.0,14.518402167595923,-0.05556034989324978,9.514941932482298,61,25,0.0,15,42997369043968,4,42.0,-409.4632873535156,0.03230000287294388,0,0.0,0.0,,,,,0,,1,,
Raw,255084746,33379100000000,,,-1221705618341838848,0.0,14.518402167595923,-0.05556034989324978,9.514941932482298,61,31,0.0,15,42997365466660,6,39.0,-534.6962890625,0.02710000053048134,0,0.0,0.0,,,,,0,,1,,
Raw,255084747,33379100000000,,,-1221705618341838848,0.0,14.518402167595923,-0.05556034989324978,9.514941932482298,61,32,0.0,15,42997366838046,5,40.7,-232.1208038330078,0.028400002047419548,0,0.0,0.0,,,,,0,,1,,
Raw,255085746,33380100000000,,,-1221705618341838848,0.0,14.518383068207186,-0.03379083291227889,9.514922050512894,61,10,0.0,15,42998373115257,4,42.5,-324.0810852050781,0.03830000013113022,0,0.0,0.0,,,,,0,,1,,
Raw,255085747,33380100000000,,,-1221705618341838848,0.0,14.518383068207186,-0.03379083291227889,9.514922050512894,61,12,0.0,15,42998367890704,6,38.9,5.264672756195068,0.03060000203549862,0,0.0,0.0,,,,,0,,1,,
Raw,255085748,33380100000000,,,-1221705618341838848,0.0,14.518383068207186,-0.03379083291227889,9.514922050512894,61,14,0.0,15,42998362603235,8,36.9,-265.59844970703125,0.02420000173151493,0,0.0,0.0,,,,,0,,1,,
Raw,255085749,33380100000000,,,-1221705618341838848,0.0,14.518383068207186,-0.03379083291227889,9.514922050512894,61,15,0.0,15,42998360127987,9,35.4,368.0465087890625,0.02160000056028366,0,0.0,0.0,,,,,0,,1,,
Raw,255085750,33380100000000,,,-1221705618341838848,0.0,14.518383068207186,-0.03379083291227889,9.514922050512894,61,20,0.0,15,42998375191131,4,44.2,80.08135986328125,0.040800001472234726,0,0.0,0.0,,,,,0,,1,,
Raw,255085750,33380100000000,,,-1221705618341838848,0.0,14.518383068207186,-0.03379083291227889,9.514922050512894,61,21,0.0,15,42998365887195,7,37.9,467.9361267089844,0.02810000069439411,0,0.0,0.0,,,,,0,,1,,
Raw,255085751,33380100000000,,,-1221705618341838848,0.0,14.518383068207186,-0.03379083291227889,9.514922050512894,61,24,0.0,15,42998363757337,8,36.7,612.9525146484375,0.025700001046061516,0,0.0,0.0,,,,,0,,1,,
Raw,255085752,33380100000000,,,-1221705618341838848,0.0,14.518383068207186,-0.03379083291227889,9.514922050512894,61,25,0.0,15,42998369045324,5,40.4,-409.85223388671875,0.03290000185370445,0,0.0,0.0,,,,,0,,1,,
Raw,255085752,33380100000000,,,-1221705618341838848,0.0,14.518383068207186,-0.03379083291227889,9.514922050512894,61,31,0.0,15,42998365468437,6,38.0,-535.11328125,0.0276000015437603,0,0.0,0.0,,,,,0,,1,,
Raw,255085753,33380100000000,,,-1221705618341838848,0.0,14.518383068207186,-0.03379083291227889,9.514922050512894,61,32,0.0,15,42998366838810,6,39.3,-232.59642028808594,0.028600001707673073,0,0.0,0.0,,,,,0,,1,,
Raw,255086742,33381100000000,,,-1221705618341838848,0.0,14.518363968818448,-1.6701238021462266,9.514902963822266,61,10,0.0,15,42999373116333,5,41.7,-324.09466552734375,0.038600001484155655,0,0.0,0.0,,,,,0,,1,,
Raw,255086743,33381100000000,,,-1221705618341838848,0.0,14.518363968818448,-1.6701238021462266,9.514902963822266,61,12,0.0,15,42999367890685,7,37.7,5.287330150604248,0.03110000118613243,0,0.0,0.0,,,,,0,,1,,
Raw,255086744,33381100000000,,,-1221705618341838848,0.0,14.518363968818448,-1.6701238021462266,9.514902963822266,61,14,0.0,15,42999362604114,9,35.8,-265.6929931640625,0.02460000105202198,0,0.0,0.0,,,,,0,,1,,
Raw,255086744,33381100000000,,,-1221705618341838848,0.0,14.518363968818448,-1.6701238021462266,9.514902963822266,61,15,0.0,15,42999360126740,10,34.4,367.9559326171875,0.022099999710917473,0,0.0,0.0,,,,,0,,1,,
Raw,255086745,33381100000000,,,-1221705618341838848,0.0,14.518363968818448,-1.6701238021462266,9.514902963822266,61,20,0.0,15,42999375190865,4,43.3,80.08853912353516,0.04110000282526016,0,0.0,0.0,,,,,0,,1,,
Raw,255086746,33381100000000,,,-1221705618341838848,0.0,14.518363968818448,-1.6701238021462266,9.514902963822266,61,21,0.0,15,42999365885617,8,36.6,467.8626403808594,0.028700001537799835,0,0.0,0.0,,,,,0,,1,,
Raw,255086746,33381100000000,,,-1221705618341838848,0.0,14.518363968818448,-1.6701238021462266,9.514902963822266,61,24,0.0,15,42999363755293,9,35.9,612.8668212890625,0.026100000366568565,0,0.0,0.0,,,,,0,,1,,
Raw,255086747,33381100000000,,,-1221705618341838848,0.0,14.518363968818448,-1.6701238021462266,9.514902963822266,61,25,0.0,15,42999369046684,6,39.5,-409.8626403808594,0.03310000151395798,0,0.0,0.0,,,,,0,,1,,
Raw,255086748,33381100000000,,,-1221705618341838848,0.0,14.518363968818448,-1.6701238021462266,9.514902963822266,61,31,0.0,15,42999365470232,8,36.7,-535.1436767578125,0.028700001537799835,0,0.0,0.0,,,,,0,,1,,
Raw,255086749,33381100000000,,,-1221705618341838848,0.0,14.518363968818448,-1.6701238021462266,9.514902963822266,61,32,0.0,15,42999366839581,6,38.5,-232.69561767578125,0.029100000858306885,0,0.0,0.0,,,,,0,,1,,
Raw,255087740,33382100000000,,,-1221705618341838848,0.0,14.518344869429711,-1.9892184759990268,9.514883877131638,61,10,0.0,15,43000373117425,4,43.3,-323.86248779296875,0.038100000470876694,0,0.0,0.0,,,,,0,,1,,
Raw,255087741,33382100000000,,,-1221705618341838848,0.0,14.518344869429711,-1.9892184759990268,9.514883877131638,61,12,0.0,15,43000367890677,5,40.0,5.563102722167969,0.029900001361966133,0,0.0,0.0,,,,,0,,1,,
Raw,255087742,33382100000000,,,-1221705618341838848,0.0,14.518344869429711,-1.9892184759990268,9.514883877131638,61,14,0.0,15,43000362605008,6,38.0,-265.5306701660156,0.023100001737475395,0,0.0,0.0,,,,,0,,1,,
Raw,255087742,33382100000000,,,-1221705618341838848,0.0,14.518344869429711,-1.9892184759990268,9.514883877131638,61,15,0.0,15,43000360125525,8,36.3,368.1341552734375,0.02120000123977661,0,0.0,0.0,,,,,0,,1,,
Raw,255087743,33382100000000,,,-1221705618341838848,0.0,14.518344869429711,-1.9892184759990268,9.514883877131638,61,20,0.0,15,43000375190602,4,45.4,80.35111236572266,0.0406000018119812,0,0.0,0.0,,,,,0,,1,,
Raw,255087744,33382100000000,,,-1221705618341838848,0.0,14.518344869429711,-1.9892184759990268,9.514883877131638,61,21,0.0,15,43000365884060,6,39.0,468.05670166015625,0.02710000053048134,0,0.0,0.0,,,,,0,,1,,
Raw,255087745,33382100000000,,,-1221705618341838848,0.0,14.518344869429711,-1.9892184759990268,9.514883877131638,61,24,0.0,15,43000363753258,7,37.6,613.0274658203125,0.025100000202655792,0,0.0,0.0,,,,,0,,1,,
Raw,255087745,33382100000000,,,-1221705618341838848,0.0,14.518344869429711,-1.9892184759990268,9.514883877131638,61,25,0.0,15,43000369048062,5,41.4,-409.6289978027344,0.032600000500679016,0,0.0,0.0,,,,,0,,1,,
Raw,255087746,33382100000000,,,-1221705618341838848,0.0,14.518344869429711,-1.9892184759990268,9.514883877131638,61,31,0.0,15,43000365472010,6,38.8,-534.9180908203125,0.0276000015437603,0,0.0,0.0,,,,,0,,1,,
Raw,255087746,33382100000000,,,-1221705618341838848,0.0,14.518344869429711,-1.9892184759990268,9.514883877131638,61,32,0.0,15,43000366840372,5,40.4,-232.52455139160156,0.028400002047419548,0,0.0,0.0,,,,,0,,1,,
Raw,255088741,33383100000000,,,-1221705618341838848,0.0,14.518325770040974,-1.4194347339956677,9.514863995162234,61,10,0.0,15,43001373118500,4,45.8,-323.5380554199219,0.03760000318288803,0,0.0,0.0,,,,,0,,1,,
Raw,255088742,33383100000000,,,-1221705618341838848,0.0,14.518325770040974,-1.4194347339956677,9.514863995162234,61,12,0.0,15,43001367890655,4,42.8,5.926816940307617,0.02930000051856041,0,0.0,0.0,,,,,0,,1,,
Raw,255088743,33383100000000,,,-1221705618341838848,0.0,14.518325770040974,-1.4194347339956677,9.514863995162234,61,14,0.0,15,43001362605892,5,40.9,-265.28924560546875,0.02240000106394291,0,0.0,0.0,,,,,0,,1,,
Raw,255088744,33383100000000,,,-1221705618341838848,0.0,14.518325770040974,-1.4194347339956677,9.514863995162234,61,15,0.0,15,43001360124302,6,38.8,368.3708801269531,0.020100001245737076,0,0.0,0.0,,,,,0,,1,,
Raw,255088744,33383100000000,,,-1221705618341838848,0.0,14.518325770040974,-1.4194347339956677,9.514863995162234,61,20,0.0,15,43001375190332,5,47.9,80.71116638183594,0.040300000458955765,0,0.0,0.0,,,,,0,,1,,
Raw,255088745,33383100000000,,,-1221705618341838848,0.0,14.518325770040974,-1.4194347339956677,9.514863995162234,61,21,0.0,15,43001365882502,5,41.7,468.3310852050781,0.026600001379847527,0,0.0,0.0,,,,,0,,1,,
Raw,255088746,33383100000000,,,-1221705618341838848,0.0,14.518325770040974,-1.4194347339956677,9.514863995162234,61,24,0.0,15,43001363751211,5,40.0,613.2822875976562,0.023900000378489494,0,0.0,0.0,,,,,0,,1,,
Raw,255088747,33383100000000,,,-1221705618341838848,0.0,14.518325770040974,-1.4194347339956677,9.514863995162234,61,25,0.0,15,43001369049425,4,43.9,-409.30023193359375,0.032099999487400055,0,0.0,0.0,,,,,0,,1,,
Raw,255088747,33383100000000,,,-1221705618341838848,0.0,14.518325770040974,-1.4194347339956677,9.514863995162234,61,31,0.0,15,43001365473793,5,41.5,-534.6036376953125,0.026600001379847527,0,0.0,0.0,,,,,0,,1,,
Raw,255088748,33383100000000,,,-1221705618341838848,0.0,14.518325770040974,-1.4194347339956677,9.514863995162234,61,32,0.0,15,43001366841144,4,43.0,-232.27581787109375,0.0276000015437603,0,0.0,0.0,,,,,0,,1,,
Raw,255089744,33384100000000,,,-1221705618341838848,0.0,14.518305761157535,-0.6260131822982117,9.514844908471606,61,10,0.0,15,43002373119577,5,47.8,-323.6294250488281,0.037300001829862595,0,0.0,0.0,,,,,0,,1,,
Raw,255089745,33384100000000,,,-1221705618341838848,0.0,14.518305761157535,-0.6260131822982117,9.514844908471606,61,12,0.0,15,43002367890625,4,44.2,5.869917869567871,0.028800001367926598,0,0.0,0.0,,,,,0,,1,,
Raw,255089746,33384100000000,,,-1221705618341838848,0.0,14.518305761157535,-0.6260131822982117,9.514844908471606,61,14,0.0,15,43002362606766,4,42.4,-265.4690856933594,0.021800000220537186,0,0.0,0.0,,,,,0,,1,,
Raw,255089747,33384100000000,,,-1221705618341838848,0.0,14.518305761157535,-0.6260131822982117,9.514844908471606,61,15,0.0,15,43002360123074,5,40.3,368.1995849609375,0.01940000057220459,0,0.0,0.0,,,,,0,,1,,
Raw,255089747,33384100000000,,,-1221705618341838848,0.0,14.518305761157535,-0.6260131822982117,9.514844908471606,61,20,0.0,15,43002375190061,4,49.6,80.64832305908203,0.040300000458955765,0,0.0,0.0,,,,,0,,1,,
Raw,255089748,33384100000000,,,-1221705618341838848,0.0,14.518305761157535,-0.6260131822982117,9.514844908471606,61,21,0.0,15,43002365880932,4,43.1,468.1792907714844,0.026100000366568565,0,0.0,0.0,,,,,0,,1,,
Raw,255089749,33384100000000,,,-1221705618341838848,0.0,14.518305761157535,-0.6260131822982117,9.514844908471606,61,24,0.0,15,43002363749159,4,42.0,613.109619140625,0.02330000139772892,0,0.0,0.0,,,,,0,,1,,
Raw,255089750,33384100000000,,,-1221705618341838848,0.0,14.518305761157535,-0.6260131822982117,9.514844908471606,61,25,0.0,15,43002369050785,4,45.5,-409.392822265625,0.03160000219941139,0,0.0,0.0,,,,,0,,1,,
Raw,255089750,33384100000000,,,-1221705618341838848,0.0,14.518305761157535,-0.6260131822982117,9.514844908471606,61,31,0.0,15,43002365475572,4,43.0,-534.7122802734375,0.026100000366568565,0,0.0,0.0,,,,,0,,1,,
Raw,255089751,33384100000000,,,-1221705618341838848,0.0,14.518305761157535,-0.6260131822982117,9.514844908471606,61,32,0.0,15,43002366841919,4,44.5,-232.45529174804688,0.027300002053380013,0,0.0,0.0,,,,,0,,1,,
Raw,255090742,33385100000000,,,-1221705618341838848,0.0,14.518286661768798,-1.2336909141824117,9.514825821780978,61,10,0.0,15,43003373120650,5,46.7,-323.7616271972656,0.03750000149011612,0,0.0,0.0,,,,,0,,1,,
Raw,255090743,33385100000000,,,-1221705618341838848,0.0,14.518286661768798,-1.2336909141824117,9.514825821780978,61,12,0.0,15,43003367890608,4,44.9,5.778783321380615,0.028800001367926598,0,0.0,0.0,,,,,0,,1,,
Raw,255090744,33385100000000,,,-1221705618341838848,0.0,14.518286661768798,-1.2336909141824117,9.514825821780978,61,14,0.0,15,43003362607654,4,43.0,-265.68218994140625,0.02160000056028366,0,0.0,0.0,,,,,0,,1,,
Raw,255090744,33385100000000,,,-1221705618341838848,0.0,14.518286661768798,-1.2336909141824117,9.514825821780978,61,15,0.0,15,43003360121839,5,40.8,367.98822021484375,0.01940000057220459,0,0.0,0.0,,,,,0,,1,,
Raw,255090745,33385100000000,,,-1221705618341838848,0.0,14.518286661768798,-1.2336909141824117,9.514825821780978,61,20,0.0,15,43003375189791,4,50.2,80.54728698730469,0.040300000458955765,0,0.0,0.0,,,,,0,,1,,
Raw,255090746,33385100000000,,,-1221705618341838848,0.0,14.518286661768798,-1.2336909141824117,9.514825821780978,61,21,0.0,15,43003365879373,4,43.8,468.0022277832031,0.026100000366568565,0,0.0,0.0,,,,,0,,1,,
Raw,255090746,33385100000000,,,-1221705618341838848,0.0,14.518286661768798,-1.2336909141824117,9.514825821780978,61,24,0.0,15,43003363747114,4,42.5,612.906982421875,0.02330000139772892,0,0.0,0.0,,,,,0,,1,,
Raw,255090747,33385100000000,,,-1221705618341838848,0.0,14.518286661768798,-1.2336909141824117,9.514825821780978,61,25,0.0,15,43003369052148,4,45.7,-409.51824951171875,0.03160000219941139,0,0.0,0.0,,,,,0,,1,,
Raw,255090747,33385100000000,,,-1221705618341838848,0.0,14.518286661768798,-1.2336909141824117,9.514825821780978,61,31,0.0,15,43003365477351,4,43.5,-534.8534545898438,0.026100000366568565,0,0.0,0.0,,,,,0,,1,,
Raw,255090748,33385100000000,,,-1221705618341838848,0.0,14.518286661768798,-1.2336909141824117,9.514825821780978,61,32,0.0,15,43003366842689,4,44.9,-232.66644287109375,0.027300002053380013,0,0.0,0.0,,,,,0,,1,,
Raw,255091744,33386100000000,,,-1221705618341838848,0.0,14.51826756238006,-1.9393431640109575,9.51480673509035,61,10,0.0,15,43004373121727,5,47.5,-323.5229797363281,0.037300001829862595,0,0.0,0.0,,,,,0,,1,,
Raw,255091745,33386100000000,,,-1221705618341838848,0.0,14.51826756238006,-1.9393431640109575,9.51480673509035,61,12,0.0,15,43004367890588,4,45.0,6.056492805480957,0.028600001707673073,0,0.0,0.0,,,,,0,,1,,
Raw,255091746,33386100000000,,,-1221705618341838848,0.0,14.51826756238006,-1.9393431640109575,9.51480673509035,61,14,0.0,15,43004362608537,4,43.5,-265.5205078125,0.02160000056028366,0,0.0,0.0,,,,,0,,1,,
Raw,255091746,33386100000000,,,-1221705618341838848,0.0,14.51826756238006,-1.9393431640109575,9.51480673509035,61,15,0.0,15,43004360120605,5,41.3,368.1640625,0.019100001081824303,0,0.0,0.0,,,,,0,,1,,
Raw,255091748,33386100000000,,,-1221705618341838848,0.0,14.51826756238006,-1.9393431640109575,9.51480673509035,61,20,0.0,15,43004375189513,4,49.9,80.81512451171875,0.040300000458955765,0,0.0,0.0,,,,,0,,1,,
Raw,255091748,33386100000000,,,-1221705618341838848,0.0,14.51826756238006,-1.9393431640109575,9.51480673509035,61,21,0.0,15,43004365877812,4,44.2,468.1880798339844,0.025800000876188278,0,0.0,0.0,,,,,0,,1,,
Raw,255091749,33386100000000,,,-1221705618341838848,0.0,14.51826756238006,-1.9393431640109575,9.51480673509035,61,24,0.0,15,43004363745068,4,42.1,613.0723266601562,0.02330000139772892,0,0.0,0.0,,,,,0,,1,,
Raw,255091750,33386100000000,,,-1221705618341838848,0.0,14.51826756238006,-1.9393431640109575,9.51480673509035,61,25,0.0,15,43004369053512,5,46.5,-409.27740478515625,0.03150000050663948,0,0.0,0.0,,,,,0,,1,,
Raw,255091750,33386100000000,,,-1221705618341838848,0.0,14.51826756238006,-1.9393431640109575,9.51480673509035,61,31,0.0,15,43004365479135,4,44.5,-534.62353515625,0.025800000876188278,0,0.0,0.0,,,,,0,,1,,
Raw,255091751,33386100000000,,,-1221705618341838848,0.0,14.51826756238006,-1.9393431640109575,9.51480673509035,61,32,0.0,15,43004366843464,4,45.5,-232.50543212890625,0.02710000053048134,0,0.0,0.0,,,,,0,,1,,
Raw,255092745,33387100000000,,,-1221705618341838848,0.0,14.518247553496622,-1.3880418001755064,9.514786853120945,61,10,0.0,15,43005373122801,5,47.5,-323.4967956542969,0.037300001829862595,0,0.0,0.0,,,,,0,,1,,
Raw,255092746,33387100000000,,,-1221705618341838848,0.0,14.518247553496622,-1.3880418001755064,9.514786853120945,61,12,0.0,15,43005367890566,4,45.8,6.119233131408691,0.028600001707673073,0,0.0,0.0,,,,,0,,1,,
Raw,255092746,33387100000000,,,-1221705618341838848,0.0,14.518247553496622,-1.3880418001755064,9.514786853120945,61,14,0.0,15,43005362609418,4,43.8,-265.58270263671875,0.02160000056028366,0,0.0,0.0,,,,,0,,1,,
Raw,255092747,33387100000000,,,-1221705618341838848,0.0,14.518247553496622,-1.3880418001755064,9.514786853120945,61,15,0.0,15,43005360119377,5,41.7,368.1021423339844,0.019100001081824303,0,0.0,0.0,,,,,0,,1,,
Raw,255092748,33387100000000,,,-1221705618341838848,0.0,14.518247553496622,-1.3880418001755064,9.514786853120945,61,20,0.0,15,43005375189243,4,50.7,80.86967468261719,0.040300000458955765,0,0.0,0.0,,,,,0,,1,,
Raw,255092748,33387100000000,,,-1221705618341838848,0.0,14.518247553496622,-1.3880418001755064,9.514786853120945,61,21,0.0,15,43005365876240,4,44.3,468.156982421875,0.025800000876188278,0,0.0,0.0,,,,,0,,1,,
Raw,255092749,33387100000000,,,-1221705618341838848,0.0,14.518247553496622,-1.3880418001755064,9.514786853120945,61,24,0.0,15,43005363743012,4,42.3,613.02197265625,0.02330000139772892,0,0.0,0.0,,,,,0,,1,,
Raw,255092749,33387100000000,,,-1221705618341838848,0.0,14.518247553496622,-1.3880418001755064,9.514786853120945,61,25,0.0,15,43005369054874,5,46.7,-409.2514953613281,0.03150000050663948,0,0.0,0.0,,,,,0,,1,,
Raw,255092750,33387100000000,,,-1221705618341838848,0.0,14.518247553496622,-1.3880418001755064,9.514786853120945,61,31,0.0,15,43005365480913,4,44.5,-534.6165771484375,0.025800000876188278,0,0.0,0.0,,,,,0,,1,,
Raw,255092751,33387100000000,,,-1221705618341838848,0.0,14.518247553496622,-1.3880418001755064,9.514786853120945,61,32,0.0,15,43005366844230,5,46.0,-232.5660858154297,0.027000000700354576,0,0.0,0.0,,,,,0,,1,,
Raw,255093738,33388100000000,,,-1221705618341838848,0.0,14.518228454107884,-1.6089409182891106,9.514767766430317,61,10,0.0,15,43006373123879,5,47.6,-323.6015625,0.037300001829862595,0,0.0,0.0,,,,,0,,1,,
Raw,255093739,33388100000000,,,-1221705618341838848,0.0,14.518228454107884,-1.6089409182891106,9.514767766430317,61,12,0.0,15,43006367890538,4,45.5,6.051698684692383,0.028600001707673073,0,0.0,0.0,,,,,0,,1,,
Raw,255093739,33388100000000,,,-1221705618341838848,0.0,14.518228454107884,-1.6089409182891106,9.514767766430317,61,14,0.0,15,43006362610305,4,43.7,-265.7652893066406,0.02160000056028366,0,0.0,0.0,,,,,0,,1,,
Raw,255093740,33388100000000,,,-1221705618341838848,0.0,14.518228454107884,-1.6089409182891106,9.514767766430317,61,15,0.0,15,43006360118144,5,41.6,367.9250183105469,0.019100001081824303,0,0.0,0.0,,,,,0,,1,,
Raw,255093741,33388100000000,,,-1221705618341838848,0.0,14.518228454107884,-1.6089409182891106,9.514767766430317,61,20,0.0,15,43006375188969,4,51.5,80.79072570800781,0.040300000458955765,0,0.0,0.0,,,,,0,,1,,
Raw,255093742,33388100000000,,,-1221705618341838848,0.0,14.518228454107884,-1.6089409182891106,9.514767766430317,61,21,0.0,15,43006365874671,4,44.8,468.0042724609375,0.025800000876188278,0,0.0,0.0,,,,,0,,1,,
Raw,255093742,33388100000000,,,-1221705618341838848,0.0,14.518228454107884,-1.6089409182891106,9.514767766430317,61,24,0.0,15,43006363740965,4,42.5,612.84423828125,0.02330000139772892,0,0.0,0.0,,,,,0,,1,,
Raw,255093743,33388100000000,,,-1221705618341838848,0.0,14.518228454107884,-1.6089409182891106,9.514767766430317,61,25,0.0,15,43006369056237,5,46.9,-409.3551330566406,0.03150000050663948,0,0.0,0.0,,,,,0,,1,,
Raw,255093743,33388100000000,,,-1221705618341838848,0.0,14.518228454107884,-1.6089409182891106,9.514767766430317,61,31,0.0,15,43006365482697,4,44.7,-534.7332153320312,0.025800000876188278,0,0.0,0.0,,,,,0,,1,,
Raw,255093744,33388100000000,,,-1221705618341838848,0.0,14.518228454107884,-1.6089409182891106,9.514767766430317,61,32,0.0,15,43006366844999,5,46.0,-232.7420196533203,0.027000000700354576,0,0.0,0.0,,,,,0,,1,,
Raw,255094743,33389100000000,,,-1221705618341838848,0.0,14.518209354719147,-2.2096896347212076,9.51474867973969,61,10,0.0,15,43007373124953,5,48.0,-323.31671142578125,0.037300001829862595,0,0.0,0.0,,,,,0,,1,,
Raw,255094744,33389100000000,,,-1221705618341838848,0.0,14.518209354719147,-2.2096896347212076,9.51474867973969,61,12,0.0,15,43007367890520,4,45.6,6.372697830200195,0.028600001707673073,0,0.0,0.0,,,,,0,,1,,
Raw,255094745,33389100000000,,,-1221705618341838848,0.0,14.518209354719147,-2.2096896347212076,9.51474867973969,61,14,0.0,15,43007362611184,4,43.9,-265.5664367675781,0.02160000056028366,0,0.0,0.0,,,,,0,,1,,
Raw,255094745,33389100000000,,,-1221705618341838848,0.0,14.518209354719147,-2.2096896347212076,9.51474867973969,61,15,0.0,15,43007360116922,5,41.8,368.1349792480469,0.019100001081824303,0,0.0,0.0,,,,,0,,1,,
Raw,255094746,33389100000000,,,-1221705618341838848,0.0,14.518209354719147,-2.2096896347212076,9.51474867973969,61,20,0.0,15,43007375188693,4,50.4,81.10509490966797,0.040300000458955765,0,0.0,0.0,,,,,0,,1,,
Raw,255094746,33389100000000,,,-1221705618341838848,0.0,14.518209354719147,-2.2096896347212076,9.51474867973969,61,21,0.0,15,43007365873105,4,45.2,468.2342529296875,0.025600001215934753,0,0.0,0.0,,,,,0,,1,,
Raw,255094747,33389100000000,,,-1221705618341838848,0.0,14.518209354719147,-2.2096896347212076,9.51474867973969,61,24,0.0,15,43007363738917,4,42.8,613.0533447265625,0.02330000139772892,0,0.0,0.0,,,,,0,,1,,
Raw,255094748,33389100000000,,,-1221705618341838848,0.0,14.518209354719147,-2.2096896347212076,9.51474867973969,61,25,0.0,15,43007369057597,5,47.1,-409.06988525390625,0.031300000846385956,0,0.0,0.0,,,,,0,,1,,
Raw,255094748,33389100000000,,,-1221705618341838848,0.0,14.518209354719147,-2.2096896347212076,9.51474867973969,61,31,0.0,15,43007365484474,4,44.8,-534.4658813476562,0.025800000876188278,0,0.0,0.0,,,,,0,,1,,
Raw,255094749,33389100000000,,,-1221705618341838848,0.0,14.518209354719147,-2.2096896347212076,9.51474867973969,61,32,0.0,15,43007366845773,5,46.0,-232.53567504882812,0.027000000700354576,0,0.0,0.0,,,,,0,,1,,
Raw,255095738,33390100000000,,,-1221705618341838848,0.0,14.51819025533041,-1.5436576764719379,9.514728797770285,61,10,0.0,15,43008373126028,5,47.4,-323.4185791015625,0.037300001829862595,0,0.0,0.0,,,,,0,,1,,
Raw,255095739,33390100000000,,,-1221705618341838848,0.0,14.51819025533041,-1.5436576764719379,9.514728797770285,61,12,0.0,15,43008367890496,4,45.9,6.317357063293457,0.028600001707673073,0,0.0,0.0,,,,,0,,1,,
Raw,255095740,33390100000000,,,-1221705618341838848,0.0,14.51819025533041,-1.5436576764719379,9.514728797770285,61,14,0.0,15,43008362612065,4,43.6,-265.7468566894531,0.02160000056028366,0,0.0,0.0,,,,,0,,1,,
Raw,255095741,33390100000000,,,-1221705618341838848,0.0,14.51819025533041,-1.5436576764719379,9.514728797770285,61,15,0.0,15,43008360115676,5,41.8,367.95501708984375,0.019100001081824303,0,0.0,0.0,,,,,0,,1,,
Raw,255095742,33390100000000,,,-1221705618341838848,0.0,14.51819025533041,-1.5436576764719379,9.514728797770285,61,20,0.0,15,43008375188418,4,50.3,81.03575897216797,0.040300000458955765,0,0.0,0.0,,,,,0,,1,,
Raw,255095742,33390100000000,,,-1221705618341838848,0.0,14.51819025533041,-1.5436576764719379,9.514728797770285,61,21,0.0,15,43008365871543,4,44.5,468.08441162109375,0.025800000876188278,0,0.0,0.0,,,,,0,,1,,
Raw,255095743,33390100000000,,,-1221705618341838848,0.0,14.51819025533041,-1.5436576764719379,9.514728797770285,61,24,0.0,15,43008363736873,4,42.8,612.8798828125,0.02330000139772892,0,0.0,0.0,,,,,0,,1,,
Raw,255095743,33390100000000,,,-1221705618341838848,0.0,14.51819025533041,-1.5436576764719379,9.514728797770285,61,25,0.0,15,43008369058956,5,46.7,-409.16619873046875,0.03150000050663948,0,0.0,0.0,,,,,0,,1,,
Raw,255095744,33390100000000,,,-1221705618341838848,0.0,14.51819025533041,-1.5436576764719379,9.514728797770285,61,31,0.0,15,43008365486253,4,44.4,-534.5773315429688,0.025800000876188278,0,0.0,0.0,,,,,0,,1,,
Raw,255095744,33390100000000,,,-1221705618341838848,0.0,14.51819025533041,-1.5436576764719379,9.514728797770285,61,32,0.0,15,43008366846549,5,46.1,-232.7163543701172,0.027000000700354576,0,0.0,0.0,,,,,0,,1,,
Raw,255096741,33391100000000,,,-1221705618341838848,0.0,14.518171155941673,-2.1475163305582257,9.514709711079657,61,10,0.0,15,43009373127103,5,47.2,-322.850830078125,0.037300001829862595,0,0.0,0.0,,,,,0,,1,,
Raw,255096742,33391100000000,,,-1221705618341838848,0.0,14.518171155941673,-2.1475163305582257,9.514709711079657,61,12,0.0,15,43009367890467,4,45.1,6.921462059020996,0.028600001707673073,0,0.0,0.0,,,,,0,,1,,
Raw,255096742,33391100000000,,,-1221705618341838848,0.0,14.518171155941673,-2.1475163305582257,9.514709711079657,61,14,0.0,15,43009362612948,4,43.6,-265.2564697265625,0.02160000056028366,0,0.0,0.0,,,,,0,,1,,
Raw,255096743,33391100000000,,,-1221705618341838848,0.0,14.518171155941673,-2.1475163305582257,9.514709711079657,61,15,0.0,15,43009360114453,5,41.6,368.4551086425781,0.019100001081824303,0,0.0,0.0,,,,,0,,1,,
Raw,255096744,33391100000000,,,-1221705618341838848,0.0,14.518171155941673,-2.1475163305582257,9.514709711079657,61,20,0.0,15,43009375188145,4,50.3,81.63230895996094,0.040300000458955765,0,0.0,0.0,,,,,0,,1,,
Raw,255096744,33391100000000,,,-1221705618341838848,0.0,14.518171155941673,-2.1475163305582257,9.514709711079657,61,21,0.0,15,43009365869972,4,44.0,468.5989990234375,0.025800000876188278,0,0.0,0.0,,,,,0,,1,,
Raw,255096745,33391100000000,,,-1221705618341838848,0.0,14.518171155941673,-2.1475163305582257,9.514709711079657,61,24,0.0,15,43009363734822,4,42.1,613.3776245117188,0.02330000139772892,0,0.0,0.0,,,,,0,,1,,
Raw,255096746,33391100000000,,,-1221705618341838848,0.0,14.518171155941673,-2.1475163305582257,9.514709711079657,61,25,0.0,15,43009369060313,5,46.5,-408.592529296875,0.03150000050663948,0,0.0,0.0,,,,,0,,1,,
Raw,255096746,33391100000000,,,-1221705618341838848,0.0,14.518171155941673,-2.1475163305582257,9.514709711079657,61,31,0.0,15,43009365488026,4,43.6,-534.0205078125,0.026100000366568565,0,0.0,0.0,,,,,0,,1,,
Raw,255096747,33391100000000,,,-1221705618341838848,0.0,14.518171155941673,-2.1475163305582257,9.514709711079657,61,32,0.0,15,43009366847320,5,46.0,-232.22984313964844,0.027000000700354576,0,0.0,0.0,,,,,0,,1,,
Raw,255097742,33392100000000,,,-1221705618341838848,0.0,14.518151147058234,-0.5068651125123408,9.514689829110253,61,10,0.0,15,43010373128177,4,49.1,-322.8460998535156,0.037300001829862595,0,0.0,0.0,,,,,0,,1,,
Raw,255097743,33392100000000,,,-1221705618341838848,0.0,14.518151147058234,-0.5068651125123408,9.514689829110253,61,12,0.0,15,43010367890438,4,45.6,6.963564872741699,0.028600001707673073,0,0.0,0.0,,,,,0,,1,,
Raw,255097743,33392100000000,,,-1221705618341838848,0.0,14.518151147058234,-0.5068651125123408,9.514689829110253,61,14,0.0,15,43010362613829,4,43.5,-265.3376159667969,0.02160000056028366,0,0.0,0.0,,,,,0,,1,,
Raw,255097744,33392100000000,,,-1221705618341838848,0.0,14.518151147058234,-0.5068651125123408,9.514689829110253,61,15,0.0,15,43010360113220,5,41.5,368.37860107421875,0.019100001081824303,0,0.0,0.0,,,,,0,,1,,
Raw,255097745,33392100000000,,,-1221705618341838848,0.0,14.518151147058234,-0.5068651125123408,9.514689829110253,61,20,0.0,15,43010375187869,4,50.8,81.66835021972656,0.040300000458955765,0,0.0,0.0,,,,,0,,1,,
Raw,255097745,33392100000000,,,-1221705618341838848,0.0,14.518151147058234,-0.5068651125123408,9.514689829110253,61,21,0.0,15,43010365868412,4,44.3,468.5463562011719,0.025800000876188278,0,0.0,0.0,,,,,0,,1,,
Raw,255097746,33392100000000,,,-1221705618341838848,0.0,14.518151147058234,-0.5068651125123408,9.514689829110253,61,24,0.0,15,43010363732778,4,42.8,613.3031616210938,0.02330000139772892,0,0.0,0.0,,,,,0,,1,,
Raw,255097746,33392100000000,,,-1221705618341838848,0.0,14.518151147058234,-0.5068651125123408,9.514689829110253,61,25,0.0,15,43010369061675,5,46.5,-408.58795166015625,0.03150000050663948,0,0.0,0.0,,,,,0,,1,,
Raw,255097747,33392100000000,,,-1221705618341838848,0.0,14.518151147058234,-0.5068651125123408,9.514689829110253,61,31,0.0,15,43010365489806,4,44.5,-534.0300903320312,0.025800000876188278,0,0.0,0.0,,,,,0,,1,,
Raw,255097747,33392100000000,,,-1221705618341838848,0.0,14.518151147058234,-0.5068651125123408,9.514689829110253,61,32,0.0,15,43010366848090,4,45.8,-232.3089141845703,0.02710000053048134,0,0.0,0.0,,,,,0,,1,,
Raw,255098743,33393100000000,,,-1221705618341838848,0.0,14.518132047669496,-0.7871082808377983,9.514670742419625,61,10,0.0,15,43011373129251,5,47.1,-323.2951354980469,0.037300001829862595,0,0.0,0.0,,,,,0,,1,,
Raw,255098744,33393100000000,,,-1221705618341838848,0.0,14.518132047669496,-0.7871082808377983,9.514670742419625,61,12,0.0,15,43011367890420,4,44.9,6.553910255432129,0.028800001367926598,0,0.0,0.0,,,,,0,,1,,
Raw,255098744,33393100000000,,,-1221705618341838848,0.0,14.518132047669496,-0.7871082808377983,9.514670742419625,61,14,0.0,15,43011362614708,4,43.0,-265.8741760253906,0.02160000056028366,0,0.0,0.0,,,,,0,,1,,
Raw,255098745,33393100000000,,,-1221705618341838848,0.0,14.518132047669496,-0.7871082808377983,9.514670742419625,61,15,0.0,15,43011360111987,5,41.5,367.8445129394531,0.019100001081824303,0,0.0,0.0,,,,,0,,1,,
Raw,255098746,33393100000000,,,-1221705618341838848,0.0,14.518132047669496,-0.7871082808377983,9.514670742419625,61,20,0.0,15,43011375187595,4,49.5,81.24956512451172,0.040300000458955765,0,0.0,0.0,,,,,0,,1,,
Raw,255098746,33393100000000,,,-1221705618341838848,0.0,14.518132047669496,-0.7871082808377983,9.514670742419625,61,21,0.0,15,43011365866849,4,43.8,468.04376220703125,0.026100000366568565,0,0.0,0.0,,,,,0,,1,,
Raw,255098747,33393100000000,,,-1221705618341838848,0.0,14.518132047669496,-0.7871082808377983,9.514670742419625,61,24,0.0,15,43011363730720,4,42.6,612.7709350585938,0.02330000139772892,0,0.0,0.0,,,,,0,,1,,
Raw,255098748,33393100000000,,,-1221705618341838848,0.0,14.518132047669496,-0.7871082808377983,9.514670742419625,61,25,0.0,15,43011369063035,4,45.8,-409.0346984863281,0.03160000219941139,0,0.0,0.0,,,,,0,,1,,
Raw,255098749,33393100000000,,,-1221705618341838848,0.0,14.518132047669496,-0.7871082808377983,9.514670742419625,61,31,0.0,15,43011365491587,4,43.6,-534.4972534179688,0.026100000366568565,0,0.0,0.0,,,,,0,,1,,
Raw,255098749,33393100000000,,,-1221705618341838848,0.0,14.518132047669496,-0.7871082808377983,9.514670742419625,61,32,0.0,15,43011366848864,4,45.3,-232.8421173095703,0.02710000053048134,0,0.0,0.0,,,,,0,,1,,
Raw,255099739,33394100000000,,,-1221705618341838848,0.0,14.51811294828076,-2.5909339531933986,9.514651655728997,61,10,0.0,15,43012373130328,5,48.2,-323.19378662109375,0.037300001829862595,0,0.0,0.0,,,,,0,,1,,
Raw,255099741,33394100000000,,,-1221705618341838848,0.0,14.51811294828076,-2.5909339531933986,9.514651655728997,61,12,0.0,15,43012367890388,4,45.0,6.6997971534729,0.028600001707673073,0,0.0,0.0,,,,,0,,1,,
Raw,255099741,33394100000000,,,-1221705618341838848,0.0,14.51811294828076,-2.5909339531933986,9.514651655728997,61,14,0.0,15,43012362615601,4,43.2,-265.84063720703125,0.02160000056028366,0,0.0,0.0,,,,,0,,1,,
Raw,255099743,33394100000000,,,-1221705618341838848,0.0,14.51811294828076,-2.5909339531933986,9.514651655728997,61,15,0.0,15,43012360110759,5,40.6,367.88800048828125,0.01940000057220459,0,0.0,0.0,,,,,0,,1,,
Raw,255099743,33394100000000,,,-1221705618341838848,0.0,14.51811294828076,-2.5909339531933986,9.514651655728997,61,20,0.0,15,43012375187323,4,49.9,81.37529754638672,0.040300000458955765,0,0.0,0.0,,,,,0,,1,,
Raw,255099744,33394100000000,,,-1221705618341838848,0.0,14.51811294828076,-2.5909339531933986,9.514651655728997,61,21,0.0,15,43012365865280,4,43.7,468.09808349609375,0.026100000366568565,0,0.0,0.0,,,,,0,,1,,
Raw,255099744,33394100000000,,,-1221705618341838848,0.0,14.51811294828076,-2.5909339531933986,9.514651655728997,61,24,0.0,15,43012363728681,4,42.3,612.8125,0.02330000139772892,0,0.0,0.0,,,,,0,,1,,
Raw,255099745,33394100000000,,,-1221705618341838848,0.0,14.51811294828076,-2.5909339531933986,9.514651655728997,61,25,0.0,15,43012369064399,5,46.0,-408.9258728027344,0.03150000050663948,0,0.0,0.0,,,,,0,,1,,
Raw,255099745,33394100000000,,,-1221705618341838848,0.0,14.51811294828076,-2.5909339531933986,9.514651655728997,61,31,0.0,15,43012365493372,4,43.9,-534.4003295898438,0.026100000366568565,0,0.0,0.0,,,,,0,,1,,
Raw,255099746,33394100000000,,,-1221705618341838848,0.0,14.51811294828076,-2.5909339531933986,9.514651655728997,61,32,0.0,15,43012366849636,4,45.2,-232.80581665039062,0.02710000053048134,0,0.0,0.0,,,,,0,,1,,
Raw,255100727,33395100000000,,,-1221705618341838848,0.0,14.51809293939732,-2.4507430058099113,9.514631773759593,61,10,0.0,15,43013373131399,5,46.5,-323.5727233886719,0.03750000149011612,0,0.0,0.0,,,,,0,,1,,
Raw,255100727,33395100000000,,,-1221705618341838848,0.0,14.51809293939732,-2.4507430058099113,9.514631773759593,61,12,0.0,15,43013367890362,4,43.8,6.3448052406311035,0.029100000858306885,0,0.0,0.0,,,,,0,,1,,
Raw,255100728,33395100000000,,,-1221705618341838848,0.0,14.51809293939732,-2.4507430058099113,9.514631773759593,61,14,0.0,15,43013362616482,5,41.9,-266.3323059082031,0.022100001573562622,0,0.0,0.0,,,,,0,,1,,
Raw,255100728,33395100000000,,,-1221705618341838848,0.0,14.51809293939732,-2.4507430058099113,9.514631773759593,61,15,0.0,15,43013360109534,6,39.5,367.3887023925781,0.019600000232458115,0,0.0,0.0,,,,,0,,1,,
Raw,255100729,33395100000000,,,-1221705618341838848,0.0,14.51809293939732,-2.4507430058099113,9.514631773759593,61,20,0.0,15,43013375187051,5,48.8,81.03584289550781,0.040300000458955765,0,0.0,0.0,,,,,0,,1,,
