# 
# Header Description:
# 
# Version: v2.0.0.1 Platform: Gnss Module Manufacturer: Ublox NEO-M8N
# 
# Raw,ElapsedRealtimeMillis,TimeNanos,LeapSecond,TimeUncertaintyNanos,FullBiasNanos,BiasNanos,BiasUncertaintyNanos,DriftNanosPerSecond,DriftUncertaintyNanosPerSecond,HardwareClockDiscontinuityCount,Svid,TimeOffsetNanos,State,ReceivedSvTimeNanos,ReceivedSvTimeUncertaintyNanos,Cn0DbHz,PseudorangeRateMetersPerSecond,PseudorangeRateUncertaintyMetersPerSecond,AccumulatedDeltaRangeState,AccumulatedDeltaRangeMeters,AccumulatedDeltaRangeUncertaintyMeters,CarrierFrequencyHz,CarrierCycles,CarrierPhase,CarrierPhaseUncertainty,MultipathIndicator,SnrInDb,ConstellationType,AgcDb,CarrierFrequencyHz
# 
# Fix,Provider,Latitude,Longitude,Altitude,Speed,Accuracy,(UTC)TimeInMs
# 
# Nav,Svid,Type,Status,MessageId,Sub-messageId,Data(Bytes)
# 
Raw,5000,5000000000,18,,633470,0.0,,161.225,,,10,,1,,,15,,,,,,,,,,,,,,
Raw,5000,5000000000,18,,633470,0.0,,161.225,,,14,,1,,,15,,,,,,,,,,,,,,
Raw,5000,5000000000,18,,633470,0.0,,161.225,,,25,,1,,,20,,,,,,,,,,,,,,
Raw,5000,5000000000,18,,633470,0.0,,161.225,,,31,,1,,,16,,,,,,,,,,,,,,
Raw,5000,5000000000,18,,633470,0.0,,161.225,,,32,,1,,,16,,,,,,,,,,,,,,
Raw,5100,5100000000,18,,633486,0.0,,161.225,,,10,,1,,,15,,,,,,,,,,,,,,
Raw,5100,5100000000,18,,633486,0.0,,161.225,,,14,,1,,,15,,,,,,,,,,,,,,
Raw,5100,5100000000,18,,633486,0.0,,161.225,,,25,,1,,,20,,,,,,,,,,,,,,
Raw,5100,5100000000,18,,633486,0.0,,161.225,,,31,,1,,,16,,,,,,,,,,,,,,
Raw,5100,5100000000,18,,633486,0.0,,161.225,,,32,,1,,,16,,,,,,,,,,,,,,
Raw,5200,5200000000,18,,633502,0.0,,161.225,,,10,,1,,,15,,,,,,,,,,,,,,
Raw,5200,5200000000,18,,633502,0.0,,161.225,,,11,,1,,,21,,,,,,,,,,,,,,
Raw,5200,5200000000,18,,633502,0.0,,161.225,,,14,,1,,,15,,,,,,,,,,,,,,
Raw,5200,5200000000,18,,633502,0.0,,161.225,,,25,,1,,,20,,,,,,,,,,,,,,
Raw,5200,5200000000,18,,633502,0.0,,161.225,,,31,,1,,,16,,,,,,,,,,,,,,
Raw,5200,5200000000,18,,633502,0.0,,161.225,,,32,,1,,,16,,,,,,,,,,,,,,
Raw,5300,5300000000,18,,633518,0.0,,161.225,,,10,,1,,,15,,,,,,,,,,,,,,
Raw,5300,5300000000,18,,633518,0.0,,161.225,,,11,,1,,,21,,,,,,,,,,,,,,
Raw,5300,5300000000,18,,633518,0.0,,161.225,,,14,,1,,,15,,,,,,,,,,,,,,
Raw,5300,5300000000,18,,633518,0.0,,161.225,,,25,,1,,,20,,,,,,,,,,,,,,
Raw,5300,5300000000,18,,633518,0.0,,161.225,,,31,,1,,,16,,,,,,,,,,,,,,
Raw,5300,5300000000,18,,633518,0.0,,161.225,,,32,,1,,,16,,,,,,,,,,,,,,
Raw,5400,5400000000,18,,633534,0.0,,161.225,,,10,,1,,,15,,,,,,,,,,,,,,
Raw,5400,5400000000,18,,633534,0.0,,161.225,,,11,,1,,,21,,,,,,,,,,,,,,
Raw,5400,5400000000,18,,633534,0.0,,161.225,,,14,,1,,,15,,,,,,,,,,,,,,
Raw,5400,5400000000,18,,633534,0.0,,161.225,,,25,,1,,,20,,,,,,,,,,,,,,
Raw,5400,5400000000,18,,633534,0.0,,161.225,,,31,,1,,,16,,,,,,,,,,,,,,
Raw,5400,5400000000,18,,633534,0.0,,161.225,,,32,,1,,,15,,,,,,,,,,,,,,
Raw,5500,5500000000,18,,633551,0.0,,161.225,,,10,,1,,,15,,,,,,,,,,,,,,
Raw,5500,5500000000,18,,633551,0.0,,161.225,,,11,,1,,,21,,,,,,,,,,,,,,
Raw,5500,5500000000,18,,633551,0.0,,161.225,,,14,,1,,,16,,,,,,,,,,,,,,
Raw,5500,5500000000,18,,633551,0.0,,161.225,,,25,,1,,,20,,,,,,,,,,,,,,
Raw,5500,5500000000,18,,633551,0.0,,161.225,,,31,,1,,,16,,,,,,,,,,,,,,
Raw,5500,5500000000,18,,633551,0.0,,161.225,,,32,,1,,,15,,,,,,,,,,,,,,
Raw,5600,5600000000,18,,633567,0.0,,161.225,,,10,,1,,,15,,,,,,,,,,,,,,
Raw,5600,5600000000,18,,633567,0.0,,161.225,,,11,,1,,,20,,,,,,,,,,,,,,
Raw,5600,5600000000,18,,633567,0.0,,161.225,,,14,,1,,,15,,,,,,,,,,,,,,
Raw,5600,5600000000,18,,633567,0.0,,161.225,,,25,,1,,,20,,,,,,,,,,,,,,
Raw,5600,5600000000,18,,633567,0.0,,161.225,,,31,,1,,,16,,,,,,,,,,,,,,
Raw,5600,5600000000,18,,633567,0.0,,161.225,,,32,,1,,,15,,,,,,,,,,,,,,
Raw,5700,5700000000,18,,633583,0.0,,161.225,,,10,,1,,,15,,,,,,,,,,,,,,
Raw,5700,5700000000,18,,633583,0.0,,161.225,,,11,,1,,,20,,,,,,,,,,,,,,
Raw,5700,5700000000,18,,633583,0.0,,161.225,,,14,,1,,,15,,,,,,,,,,,,,,
Raw,5700,5700000000,18,,633583,0.0,,161.225,,,25,,1,,,20,,,,,,,,,,,,,,
Raw,5700,5700000000,18,,633583,0.0,,161.225,,,31,,1,,,16,,,,,,,,,,,,,,
Raw,5700,5700000000,18,,633583,0.0,,161.225,,,32,,1,,,15,,,,,,,,,,,,,,
Raw,5800,5800000000,18,,633599,0.0,,161.225,,,10,,1,,,15,,,,,,,,,,,,,,
Raw,5800,5800000000,18,,633599,0.0,,161.225,,,11,,1,,,20,,,,,,,,,,,,,,
Raw,5800,5800000000,18,,633599,0.0,,161.225,,,14,,1,,,15,,,,,,,,,,,,,,
Raw,5800,5800000000,18,,633599,0.0,,161.225,,,25,,1,,,20,,,,,,,,,,,,,,
Raw,5800,5800000000,18,,633599,0.0,,161.225,,,31,,1,,,16,,,,,,,,,,,,,,
Raw,5800,5800000000,18,,633599,0.0,,161.225,,,32,,1,,,15,,,,,,,,,,,,,,
Raw,5900,5900000000,18,,633615,0.0,,161.225,,,10,,1,,,15,,,,,,,,,,,,,,
Raw,5900,5900000000,18,,633615,0.0,,161.225,,,11,,1,,,19,,,,,,,,,,,,,,
Raw,5900,5900000000,18,,633615,0.0,,161.225,,,14,,1,,,16,,,,,,,,,,,,,,
Raw,5900,5900000000,18,,633615,0.0,,161.225,,,25,,1,,,20,,,,,,,,,,,,,,
Raw,5900,5900000000,18,,633615,0.0,,161.225,,,31,,1,,,16,,,,,,,,,,,,,,
Raw,5900,5900000000,18,,633615,0.0,,161.225,,,32,,1,,,15,,,,,,,,,,,,,,
Raw,6000,6000000000,18,,633631,0.0,,161.225,,,10,,1,,,15,,,,,,,,,,,,,,
Raw,6000,6000000000,18,,633631,0.0,,161.225,,,11,,1,,,19,,,,,,,,,,,,,,
Raw,6000,6000000000,18,,633631,0.0,,161.225,,,14,,1,,,16,,,,,,,,,,,,,,
Raw,6000,6000000000,18,,633631,0.0,,161.225,,,25,,1,,,19,,,,,,,,,,,,,,
Raw,6000,6000000000,18,,633631,0.0,,161.225,,,31,,1,,,16,,,,,,,,,,,,,,
Raw,6000,6000000000,18,,633631,0.0,,161.225,,,32,,1,,,15,,,,,,,,,,,,,,
Raw,6100,6100000000,18,,633647,0.0,,161.225,,,10,,1,,,15,,,,,,,,,,,,,,
Raw,6100,6100000000,18,,633647,0.0,,161.225,,,11,,1,,,19,,,,,,,,,,,,,,
Raw,6100,6100000000,18,,633647,0.0,,161.225,,,14,,1,,,16,,,,,,,,,,,,,,
Raw,6100,6100000000,18,,633647,0.0,,161.225,,,25,,1,,,20,,,,,,,,,,,,,,
Raw,6100,6100000000,18,,633647,0.0,,161.225,,,31,,1,,,16,,,,,,,,,,,,,,
Raw,6100,6100000000,18,,633647,0.0,,161.225,,,32,,1,,,15,,,,,,,,,,,,,,
Raw,6200,6200000000,18,,633663,0.0,,161.225,,,10,,1,,,15,,,,,,,,,,,,,,
Raw,6200,6200000000,18,,633663,0.0,,161.225,,,11,,1,,,19,,,,,,,,,,,,,,
Raw,6200,6200000000,18,,633663,0.0,,161.225,,,14,,1,,,16,,,,,,,,,,,,,,
Raw,6200,6200000000,18,,633663,0.0,,161.225,,,25,,1,,,20,,,,,,,,,,,,,,
Raw,6200,6200000000,18,,633663,0.0,,161.225,,,31,,1,,,16,,,,,,,,,,,,,,
Raw,6200,6200000000,18,,633663,0.0,,161.225,,,32,,1,,,15,,,,,,,,,,,,,,
Raw,6300,6300000000,18,,633680,0.0,,161.225,,,10,,1,,,15,,,,,,,,,,,,,,
Raw,6300,6300000000,18,,633680,0.0,,161.225,,,11,,1,,,18,,,,,,,,,,,,,,
Raw,6300,6300000000,18,,633680,0.0,,161.225,,,14,,1,,,16,,,,,,,,,,,,,,
Raw,6300,6300000000,18,,633680,0.0,,161.225,,,25,,1,,,20,,,,,,,,,,,,,,
Raw,6300,6300000000,18,,633680,0.0,,161.225,,,31,,1,,,15,,,,,,,,,,,,,,
Raw,6300,6300000000,18,,633680,0.0,,161.225,,,32,,1,,,15,,,,,,,,,,,,,,
Raw,6400,6400000000,18,,633696,0.0,,161.225,,,10,,1,,,15,,,,,,,,,,,,,,
Raw,6400,6400000000,18,,633696,0.0,,161.225,,,11,,1,,,18,,,,,,,,,,,,,,
Raw,6400,6400000000,18,,633696,0.0,,161.225,,,14,,1,,,16,,,,,,,,,,,,,,
Raw,6400,6400000000,18,,633696,0.0,,161.225,,,25,,1,,,20,,,,,,,,,,,,,,
Raw,6400,6400000000,18,,633696,0.0,,161.225,,,31,,1,,,15,,,,,,,,,,,,,,
Raw,6400,6400000000,18,,633696,0.0,,161.225,,,32,,1,,,15,,,,,,,,,,,,,,
Raw,6500,6500000000,18,,633693,0.0,,161.769,,,10,,1,,,15,,,,,,,,,,,,,,
Raw,6500,6500000000,18,,633693,0.0,,161.769,,,11,,1,,,18,,,,,,,,,,,,,,
Raw,6500,6500000000,18,,633693,0.0,,161.769,,,14,,1,,,15,,,,,,,,,,,,,,
Raw,6500,6500000000,18,,633693,0.0,,161.769,,,25,,1,,,20,,,,,,,,,,,,,,
Raw,6500,6500000000,18,,633693,0.0,,161.769,,,31,,1,,,15,,,,,,,,,,,,,,
Raw,6500,6500000000,18,,633693,0.0,,161.769,,,32,,1,,,16,,,,,,,,,,,,,,
Raw,6600,6600000000,18,,633690,0.0,,161.809,,,10,,1,,,15,,,,,,,,,,,,,,
Raw,6600,6600000000,18,,633690,0.0,,161.809,,,11,,1,,,18,,,,,,,,,,,,,,
Raw,6600,6600000000,18,,633690,0.0,,161.809,,,14,,1,,,16,,,,,,,,,,,,,,
Raw,6600,6600000000,18,,633690,0.0,,161.809,,,25,,1,,,20,,,,,,,,,,,,,,
Raw,6600,6600000000,18,,633690,0.0,,161.809,,,31,,1,,,15,,,,,,,,,,,,,,
Raw,6600,6600000000,18,,633690,0.0,,161.809,,,32,,1,,,16,,,,,,,,,,,,,,
Raw,6700,6700000000,18,,633687,0.0,,161.714,,,10,,1,,,15,,,,,,,,,,,,,,
Raw,6700,6700000000,18,,633687,0.0,,161.714,,,11,,1,,,17,,,,,,,,,,,,,,
Raw,6700,6700000000,18,,633687,0.0,,161.714,,,14,,1,,,15,,,,,,,,,,,,,,
Raw,6700,6700000000,18,,633687,0.0,,161.714,,,25,,1,,,20,,,,,,,,,,,,,,
Raw,6700,6700000000,18,,633687,0.0,,161.714,,,31,,1,,,15,,,,,,,,,,,,,,
Raw,6700,6700000000,18,,633687,0.0,,161.714,,,32,,1,,,16,,,,,,,,,,,,,,
Raw,6800,6800000000,18,,633684,0.0,,161.308,,,10,,1,,,15,,,,,,,,,,,,,,
Raw,6800,6800000000,18,,633684,0.0,,161.308,,,11,,1,,,17,,,,,,,,,,,,,,
Raw,6800,6800000000,18,,633684,0.0,,161.308,,,14,,1,,,15,,,,,,,,,,,,,,
Raw,6800,6800000000,18,,633684,0.0,,161.308,,,25,,1,,,20,,,,,,,,,,,,,,
Raw,6800,6800000000,18,,633684,0.0,,161.308,,,31,,1,,,15,,,,,,,,,,,,,,
Raw,6800,6800000000,18,,633684,0.0,,161.308,,,32,,1,,,16,,,,,,,,,,,,,,
Raw,6900,6900000000,18,,633681,0.0,,161.136,,,10,,1,,,15,,,,,,,,,,,,,,
Raw,6900,6900000000,18,,633681,0.0,,161.136,,,11,,1,,,17,,,,,,,,,,,,,,
Raw,6900,6900000000,18,,633681,0.0,,161.136,,,14,,1,,,15,,,,,,,,,,,,,,
Raw,6900,6900000000,18,,633681,0.0,,161.136,,,25,,1,,,20,,,,,,,,,,,,,,
Raw,6900,6900000000,18,,633681,0.0,,161.136,,,31,,1,,,15,,,,,,,,,,,,,,
Raw,6900,6900000000,18,,633681,0.0,,161.136,,,32,,1,,,16,,,,,,,,,,,,,,
Raw,7000,7000000000,18,,633680,0.0,,161.297,,,10,,1,,,16,,,,,,,,,,,,,,
Raw,7000,7000000000,18,,633680,0.0,,161.297,,,11,,1,,,17,,,,,,,,,,,,,,
Raw,7000,7000000000,18,,633680,0.0,,161.297,,,25,,1,,,20,,,,,,,,,,,,,,
Raw,7000,7000000000,18,,633680,0.0,,161.297,,,31,,1,,,15,,,,,,,,,,,,,,
Raw,7000,7000000000,18,,633680,0.0,,161.297,,,32,,1,,,16,,,,,,,,,,,,,,
Raw,7100,7100000000,18,,633678,0.0,,161.268,,,10,,1,,,16,,,,,,,,,,,,,,
Raw,7100,7100000000,18,,633678,0.0,,161.268,,,11,,1,,,17,,,,,,,,,,,,,,
Raw,7100,7100000000,18,,633678,0.0,,161.268,,,25,,1,,,20,,,,,,,,,,,,,,
Raw,7100,7100000000,18,,633678,0.0,,161.268,,,31,,1,,,15,,,,,,,,,,,,,,
Raw,7100,7100000000,18,,633678,0.0,,161.268,,,32,,1,,,16,,,,,,,,,,,,,,
Raw,7200,7200000000,18,,633677,0.0,,161.047,,,10,,1,,,15,,,,,,,,,,,,,,
Raw,7200,7200000000,18,,633677,0.0,,161.047,,,11,,1,,,16,,,,,,,,,,,,,,
Raw,7200,7200000000,18,,633677,0.0,,161.047,,,25,,1,,,20,,,,,,,,,,,,,,
Raw,7200,7200000000,18,,633677,0.0,,161.047,,,31,,1,,,15,,,,,,,,,,,,,,
Raw,7200,7200000000,18,,633677,0.0,,161.047,,,32,,1,,,16,,,,,,,,,,,,,,
Raw,7300,7300000000,18,,633676,0.0,,160.804,,,10,,1,,,15,,,,,,,,,,,,,,
Raw,7300,7300000000,18,,633676,0.0,,160.804,,,11,,1,,,16,,,,,,,,,,,,,,
Raw,7300,7300000000,18,,633676,0.0,,160.804,,,25,,1,,,20,,,,,,,,,,,,,,
Raw,7300,7300000000,18,,633676,0.0,,160.804,,,31,,1,,,15,,,,,,,,,,,,,,
Raw,7300,7300000000,18,,633676,0.0,,160.804,,,32,,1,,,16,,,,,,,,,,,,,,
Raw,7400,7400000000,18,,633676,0.0,,160.589,,,10,,1,,,15,,,,,,,,,,,,,,
Raw,7400,7400000000,18,,633676,0.0,,160.589,,,11,,1,,,16,,,,,,,,,,,,,,
Raw,7400,7400000000,18,,633676,0.0,,160.589,,,25,,1,,,20,,,,,,,,,,,,,,
Raw,7400,7400000000,18,,633676,0.0,,160.589,,,31,,1,,,15,,,,,,,,,,,,,,
Raw,7400,7400000000,18,,633676,0.0,,160.589,,,32,,1,,,16,,,,,,,,,,,,,,
Raw,7500,7500000000,18,,633678,0.0,,160.609,,,10,,1,,,15,,,,,,,,,,,,,,
Raw,7500,7500000000,18,,633678,0.0,,160.609,,,11,,1,,,16,,,,,,,,,,,,,,
Raw,7500,7500000000,18,,633678,0.0,,160.609,,,25,,1,,,20,,,,,,,,,,,,,,
Raw,7500,7500000000,18,,633678,0.0,,160.609,,,31,,1,,,15,,,,,,,,,,,,,,
Raw,7500,7500000000,18,,633678,0.0,,160.609,,,32,,1,,,15,,,,,,,,,,,,,,
Raw,7600,7600000000,18,,633680,0.0,,160.557,,,10,,1,,,15,,,,,,,,,,,,,,
Raw,7600,7600000000,18,,633680,0.0,,160.557,,,11,,1,,,16,,,,,,,,,,,,,,
Raw,7600,7600000000,18,,633680,0.0,,160.557,,,25,,1,,,20,,,,,,,,,,,,,,
Raw,7600,7600000000,18,,633680,0.0,,160.557,,,31,,1,,,15,,,,,,,,,,,,,,
Raw,7600,7600000000,18,,633680,0.0,,160.557,,,32,,1,,,15,,,,,,,,,,,,,,
Raw,7700,7700000000,18,,633681,0.0,,160.067,,,10,,1,,,16,,,,,,,,,,,,,,
Raw,7700,7700000000,18,,633681,0.0,,160.067,,,11,,1,,,16,,,,,,,,,,,,,,
Raw,7700,7700000000,18,,633681,0.0,,160.067,,,25,,1,,,21,,,,,,,,,,,,,,
Raw,7700,7700000000,18,,633681,0.0,,160.067,,,31,,1,,,15,,,,,,,,,,,,,,
Raw,7700,7700000000,18,,633681,0.0,,160.067,,,32,,1,,,15,,,,,,,,,,,,,,
Raw,7800,7800000000,18,,633682,0.0,,159.630,,,10,,1,,,15,,,,,,,,,,,,,,
Raw,7800,7800000000,18,,633682,0.0,,159.630,,,11,,1,,,16,,,,,,,,,,,,,,
Raw,7800,7800000000,18,,633682,0.0,,159.630,,,25,,1,,,21,,,,,,,,,,,,,,
Raw,7800,7800000000,18,,633682,0.0,,159.630,,,31,,1,,,15,,,,,,,,,,,,,,
Raw,7800,7800000000,18,,633682,0.0,,159.630,,,32,,1,,,15,,,,,,,,,,,,,,
Raw,7900,7900000000,18,,633684,0.0,,159.334,,,10,,1,,,16,,,,,,,,,,,,,,
Raw,7900,7900000000,18,,633684,0.0,,159.334,,,11,,1,,,16,,,,,,,,,,,,,,
Raw,7900,7900000000,18,,633684,0.0,,159.334,,,25,,1,,,21,,,,,,,,,,,,,,
Raw,7900,7900000000,18,,633684,0.0,,159.334,,,31,,1,,,15,,,,,,,,,,,,,,
Raw,7900,7900000000,18,,633684,0.0,,159.334,,,32,,1,,,15,,,,,,,,,,,,,,
Raw,8000,8000000000,18,,633687,0.0,,159.608,,,10,,1,,,16,,,,,,,,,,,,,,
Raw,8000,8000000000,18,,633687,0.0,,159.608,,,11,,1,,,16,,,,,,,,,,,,,,
Raw,8000,8000000000,18,,633687,0.0,,159.608,,,25,,1,,,21,,,,,,,,,,,,,,
Raw,8000,8000000000,18,,633687,0.0,,159.608,,,31,,1,,,15,,,,,,,,,,,,,,
Raw,8000,8000000000,18,,633687,0.0,,159.608,,,32,,1,,,15,,,,,,,,,,,,,,
Raw,8100,8100000000,18,,633691,0.0,,159.691,,,10,,1,,,16,,,,,,,,,,,,,,
Raw,8100,8100000000,18,,633691,0.0,,159.691,,,11,,1,,,16,,,,,,,,,,,,,,
Raw,8100,8100000000,18,,633691,0.0,,159.691,,,14,,1,,,19,,,,,,,,,,,,,,
Raw,8100,8100000000,18,,633691,0.0,,159.691,,,25,,1,,,21,,,,,,,,,,,,,,
Raw,8100,8100000000,18,,633691,0.0,,159.691,,,31,,1,,,15,,,,,,,,,,,,,,
Raw,8100,8100000000,18,,633691,0.0,,159.691,,,32,,1,,,15,,,,,,,,,,,,,,
Raw,8200,8200000000,18,,633694,0.0,,159.763,,,10,,1,,,16,,,,,,,,,,,,,,
Raw,8200,8200000000,18,,633694,0.0,,159.763,,,11,,1,,,16,,,,,,,,,,,,,,
Raw,8200,8200000000,18,,633694,0.0,,159.763,,,14,,1,,,19,,,,,,,,,,,,,,
Raw,8200,8200000000,18,,633694,0.0,,159.763,,,25,,1,,,21,,,,,,,,,,,,,,
Raw,8200,8200000000,18,,633694,0.0,,159.763,,,31,,1,,,15,,,,,,,,,,,,,,
Raw,8200,8200000000,18,,633694,0.0,,159.763,,,32,,1,,,16,,,,,,,,,,,,,,
Raw,8300,8300000000,18,,633698,0.0,,159.863,,,10,,1,,,16,,,,,,,,,,,,,,
Raw,8300,8300000000,18,,633698,0.0,,159.863,,,11,,1,,,16,,,,,,,,,,,,,,
Raw,8300,8300000000,18,,633698,0.0,,159.863,,,14,,1,,,19,,,,,,,,,,,,,,
Raw,8300,8300000000,18,,633698,0.0,,159.863,,,25,,1,,,21,,,,,,,,,,,,,,
Raw,8300,8300000000,18,,633698,0.0,,159.863,,,31,,1,,,14,,,,,,,,,,,,,,
Raw,8300,8300000000,18,,633698,0.0,,159.863,,,32,,1,,,15,,,,,,,,,,,,,,
Raw,8400,8400000000,18,,633702,0.0,,160.015,,,10,,1,,,16,,,,,,,,,,,,,,
Raw,8400,8400000000,18,,633702,0.0,,160.015,,,11,,1,,,16,,,,,,,,,,,,,,
Raw,8400,8400000000,18,,633702,0.0,,160.015,,,14,,1,,,19,,,,,,,,,,,,,,
Raw,8400,8400000000,18,,633702,0.0,,160.015,,,25,,1,,,21,,,,,,,,,,,,,,
Raw,8400,8400000000,18,,633702,0.0,,160.015,,,31,,1,,,14,,,,,,,,,,,,,,
Raw,8400,8400000000,18,,633702,0.0,,160.015,,,32,,1,,,15,,,,,,,,,,,,,,
Raw,8500,8500000000,18,,633706,0.0,,160.239,,,10,,1,,,16,,,,,,,,,,,,,,
Raw,8500,8500000000,18,,633706,0.0,,160.239,,,11,,1,,,16,,,,,,,,,,,,,,
Raw,8500,8500000000,18,,633706,0.0,,160.239,,,14,,1,,,18,,,,,,,,,,,,,,
Raw,8500,8500000000,18,,633706,0.0,,160.239,,,25,,1,,,21,,,,,,,,,,,,,,
Raw,8500,8500000000,18,,633706,0.0,,160.239,,,31,,1,,,14,,,,,,,,,,,,,,
Raw,8500,8500000000,18,,633706,0.0,,160.239,,,32,,1,,,15,,,,,,,,,,,,,,
Raw,8600,8600000000,18,,633711,0.0,,160.444,,,10,,1,,,16,,,,,,,,,,,,,,
Raw,8600,8600000000,18,,633711,0.0,,160.444,,,11,,1,,,16,,,,,,,,,,,,,,
Raw,8600,8600000000,18,,633711,0.0,,160.444,,,14,,1,,,18,,,,,,,,,,,,,,
Raw,8600,8600000000,18,,633711,0.0,,160.444,,,25,,1,,,21,,,,,,,,,,,,,,
Raw,8600,8600000000,18,,633711,0.0,,160.444,,,31,,1,,,14,,,,,,,,,,,,,,
Raw,8600,8600000000,18,,633711,0.0,,160.444,,,32,,1,,,15,,,,,,,,,,,,,,
Raw,8700,8700000000,18,,633716,0.0,,160.515,,,10,,1,,,16,,,,,,,,,,,,,,
Raw,8700,8700000000,18,,633716,0.0,,160.515,,,11,,1,,,16,,,,,,,,,,,,,,
Raw,8700,8700000000,18,,633716,0.0,,160.515,,,14,,1,,,18,,,,,,,,,,,,,,
Raw,8700,8700000000,18,,633716,0.0,,160.515,,,25,,1,,,21,,,,,,,,,,,,,,
Raw,8700,8700000000,18,,633716,0.0,,160.515,,,31,,1,,,15,,,,,,,,,,,,,,
Raw,8700,8700000000,18,,633716,0.0,,160.515,,,32,,1,,,15,,,,,,,,,,,,,,
Raw,8800,8800000000,18,,633721,0.0,,160.449,,,10,,1,,,16,,,,,,,,,,,,,,
Raw,8800,8800000000,18,,633721,0.0,,160.449,,,11,,1,,,15,,,,,,,,,,,,,,
Raw,8800,8800000000,18,,633721,0.0,,160.449,,,14,,1,,,18,,,,,,,,,,,,,,
Raw,8800,8800000000,18,,633721,0.0,,160.449,,,25,,1,,,21,,,,,,,,,,,,,,
Raw,8800,8800000000,18,,633721,0.0,,160.449,,,31,,1,,,15,,,,,,,,,,,,,,
Raw,8800,8800000000,18,,633721,0.0,,160.449,,,32,,1,,,15,,,,,,,,,,,,,,
Raw,8900,8900000000,18,,633726,0.0,,160.292,,,10,,1,,,16,,,,,,,,,,,,,,
Raw,8900,8900000000,18,,633726,0.0,,160.292,,,11,,1,,,15,,,,,,,,,,,,,,
Raw,8900,8900000000,18,,633726,0.0,,160.292,,,14,,1,,,17,,,,,,,,,,,,,,
Raw,8900,8900000000,18,,633726,0.0,,160.292,,,25,,1,,,21,,,,,,,,,,,,,,
Raw,8900,8900000000,18,,633726,0.0,,160.292,,,31,,1,,,15,,,,,,,,,,,,,,
Raw,8900,8900000000,18,,633726,0.0,,160.292,,,32,,1,,,15,,,,,,,,,,,,,,
Raw,9000,9000000000,18,,633731,0.0,,160.372,,,10,,1,,,16,,,,,,,,,,,,,,
Raw,9000,9000000000,18,,633731,0.0,,160.372,,,11,,1,,,15,,,,,,,,,,,,,,
Raw,9000,9000000000,18,,633731,0.0,,160.372,,,14,,1,,,17,,,,,,,,,,,,,,
Raw,9000,9000000000,18,,633731,0.0,,160.372,,,25,,1,,,21,,,,,,,,,,,,,,
Raw,9000,9000000000,18,,633731,0.0,,160.372,,,31,,1,,,14,,,,,,,,,,,,,,
Raw,9000,9000000000,18,,633731,0.0,,160.372,,,32,,1,,,15,,,,,,,,,,,,,,
Raw,9100,9100000000,18,,633737,0.0,,160.276,,,10,,1,,,16,,,,,,,,,,,,,,
Raw,9100,9100000000,18,,633737,0.0,,160.276,,,11,,1,,,15,,,,,,,,,,,,,,
Raw,9100,9100000000,18,,633737,0.0,,160.276,,,14,,1,,,17,,,,,,,,,,,,,,
Raw,9100,9100000000,18,,633737,0.0,,160.276,,,25,,1,,,21,,,,,,,,,,,,,,
Raw,9100,9100000000,18,,633737,0.0,,160.276,,,31,,1,,,15,,,,,,,,,,,,,,
Raw,9100,9100000000,18,,633737,0.0,,160.276,,,32,,1,,,16,,,,,,,,,,,,,,
Raw,9200,9200000000,18,,633742,0.0,,160.145,,,10,,1,,,16,,,,,,,,,,,,,,
Raw,9200,9200000000,18,,633742,0.0,,160.145,,,11,,1,,,14,,,,,,,,,,,,,,
Raw,9200,9200000000,18,,633742,0.0,,160.145,,,14,,1,,,17,,,,,,,,,,,,,,
Raw,9200,9200000000,18,,633742,0.0,,160.145,,,25,,1,,,21,,,,,,,,,,,,,,
Raw,9200,9200000000,18,,633742,0.0,,160.145,,,31,,1,,,15,,,,,,,,,,,,,,
Raw,9200,9200000000,18,,633742,0.0,,160.145,,,32,,1,,,15,,,,,,,,,,,,,,
Raw,9300,9300000000,18,,633749,0.0,,160.262,,,10,,1,,,16,,,,,,,,,,,,,,
Raw,9300,9300000000,18,,633749,0.0,,160.262,,,11,,1,,,14,,,,,,,,,,,,,,
Raw,9300,9300000000,18,,633749,0.0,,160.262,,,14,,1,,,17,,,,,,,,,,,,,,
Raw,9300,9300000000,18,,633749,0.0,,160.262,,,25,,1,,,21,,,,,,,,,,,,,,
Raw,9300,9300000000,18,,633749,0.0,,160.262,,,31,,1,,,15,,,,,,,,,,,,,,
Raw,9300,9300000000,18,,633749,0.0,,160.262,,,32,,1,,,15,,,,,,,,,,,,,,
Raw,9400,9400000000,18,,633755,0.0,,160.488,,,10,,1,,,16,,,,,,,,,,,,,,
Raw,9400,9400000000,18,,633755,0.0,,160.488,,,11,,1,,,14,,,,,,,,,,,,,,
Raw,9400,9400000000,18,,633755,0.0,,160.488,,,14,,1,,,17,,,,,,,,,,,,,,
Raw,9400,9400000000,18,,633755,0.0,,160.488,,,25,,1,,,21,,,,,,,,,,,,,,
Raw,9400,9400000000,18,,633755,0.0,,160.488,,,31,,1,,,15,,,,,,,,,,,,,,
Raw,9400,9400000000,18,,633755,0.0,,160.488,,,32,,1,,,16,,,,,,,,,,,,,,
Raw,9500,9500000000,18,,633762,0.0,,160.630,,,10,,1,,,16,,,,,,,,,,,,,,
Raw,9500,9500000000,18,,633762,0.0,,160.630,,,11,,1,,,14,,,,,,,,,,,,,,
Raw,9500,9500000000,18,,633762,0.0,,160.630,,,14,,1,,,17,,,,,,,,,,,,,,
Raw,9500,9500000000,18,,633762,0.0,,160.630,,,25,,1,,,21,,,,,,,,,,,,,,
Raw,9500,9500000000,18,,633762,0.0,,160.630,,,31,,1,,,15,,,,,,,,,,,,,,
Raw,9500,9500000000,18,,633762,0.0,,160.630,,,32,,1,,,16,,,,,,,,,,,,,,
Raw,9600,9600000000,18,,633769,0.0,,160.739,,,10,,1,,,16,,,,,,,,,,,,,,
Raw,9600,9600000000,18,,633769,0.0,,160.739,,,11,,1,,,13,,,,,,,,,,,,,,
Raw,9600,9600000000,18,,633769,0.0,,160.739,,,14,,1,,,17,,,,,,,,,,,,,,
Raw,9600,9600000000,18,,633769,0.0,,160.739,,,25,,1,,,21,,,,,,,,,,,,,,
Raw,9600,9600000000,18,,633769,0.0,,160.739,,,31,,1,,,15,,,,,,,,,,,,,,
Raw,9600,9600000000,18,,633769,0.0,,160.739,,,32,,1,,,16,,,,,,,,,,,,,,
Raw,9700,9700000000,18,,633776,0.0,,160.847,,,10,,1,,,16,,,,,,,,,,,,,,
Raw,9700,9700000000,18,,633776,0.0,,160.847,,,11,,1,,,13,,,,,,,,,,,,,,
Raw,9700,9700000000,18,,633776,0.0,,160.847,,,14,,1,,,17,,,,,,,,,,,,,,
Raw,9700,9700000000,18,,633776,0.0,,160.847,,,25,,1,,,21,,,,,,,,,,,,,,
Raw,9700,9700000000,18,,633776,0.0,,160.847,,,31,,1,,,15,,,,,,,,,,,,,,
Raw,9700,9700000000,18,,633776,0.0,,160.847,,,32,,1,,,15,,,,,,,,,,,,,,
Raw,9800,9800000000,18,,633784,0.0,,161.064,,,10,,1,,,16,,,,,,,,,,,,,,
Raw,9800,9800000000,18,,633784,0.0,,161.064,,,11,,1,,,13,,,,,,,,,,,,,,
Raw,9800,9800000000,18,,633784,0.0,,161.064,,,14,,1,,,17,,,,,,,,,,,,,,
Raw,9800,9800000000,18,,633784,0.0,,161.064,,,25,,1,,,21,,,,,,,,,,,,,,
Raw,9800,9800000000,18,,633784,0.0,,161.064,,,31,,1,,,15,,,,,,,,,,,,,,
Raw,9800,9800000000,18,,633784,0.0,,161.064,,,32,,1,,,15,,,,,,,,,,,,,,
Raw,9900,9900000000,18,,633792,0.0,,161.333,,,10,,1,,,16,,,,,,,,,,,,,,
Raw,9900,9900000000,18,,633792,0.0,,161.333,,,11,,1,,,13,,,,,,,,,,,,,,
Raw,9900,9900000000,18,,633792,0.0,,161.333,,,14,,1,,,17,,,,,,,,,,,,,,
Raw,9900,9900000000,18,,633792,0.0,,161.333,,,25,,1,,,21,,,,,,,,,,,,,,
Raw,9900,9900000000,18,,633792,0.0,,161.333,,,31,,1,,,15,,,,,,,,,,,,,,
Raw,9900,9900000000,18,,633792,0.0,,161.333,,,32,,1,,,15,,,,,,,,,,,,,,
Raw,10000,10000000000,18,,633799,0.0,,161.295,,,10,,1,,,16,,,,,,,,,,,,,,
Raw,10000,10000000000,18,,633799,0.0,,161.295,,,11,,1,,,13,,,,,,,,,,,,,,
Raw,10000,10000000000,18,,633799,0.0,,161.295,,,14,,1,,,17,,,,,,,,,,,,,,
Raw,10000,10000000000,18,,633799,0.0,,161.295,,,25,,1,,,21,,,,,,,,,,,,,,
Raw,10000,10000000000,18,,633799,0.0,,161.295,,,31,,1,,,15,,,,,,,,,,,,,,
Raw,10000,10000000000,18,,633799,0.0,,161.295,,,32,,1,,,15,,,,,,,,,,,,,,
Raw,10100,10100000000,18,,633807,0.0,,161.194,,,10,,1,,,16,,,,,,,,,,,,,,
Raw,10100,10100000000,18,,633807,0.0,,161.194,,,11,,1,,,13,,,,,,,,,,,,,,
Raw,10100,10100000000,18,,633807,0.0,,161.194,,,14,,1,,,17,,,,,,,,,,,,,,
Raw,10100,10100000000,18,,633807,0.0,,161.194,,,20,,1,,,21,,,,,,,,,,,,,,
Raw,10100,10100000000,18,,633807,0.0,,161.194,,,25,,1,,,21,,,,,,,,,,,,,,
Raw,10100,10100000000,18,,633807,0.0,,161.194,,,31,,1,,,15,,,,,,,,,,,,,,
Raw,10100,10100000000,18,,633807,0.0,,161.194,,,32,,1,,,15,,,,,,,,,,,,,,
Raw,10200,10200000000,18,,633815,0.0,,161.149,,,10,,1,,,16,,,,,,,,,,,,,,
Raw,10200,10200000000,18,,633815,0.0,,161.149,,,11,,1,,,13,,,,,,,,,,,,,,
Raw,10200,10200000000,18,,633815,0.0,,161.149,,,14,,1,,,16,,,,,,,,,,,,,,
Raw,10200,10200000000,18,,633815,0.0,,161.149,,,20,,1,,,21,,,,,,,,,,,,,,
Raw,10200,10200000000,18,,633815,0.0,,161.149,,,25,,1,,,21,,,,,,,,,,,,,,
Raw,10200,10200000000,18,,633815,0.0,,161.149,,,31,,1,,,15,,,,,,,,,,,,,,
Raw,10200,10200000000,18,,633815,0.0,,161.149,,,32,,1,,,15,,,,,,,,,,,,,,
Raw,10300,10300000000,18,,633823,0.0,,161.106,,,10,,1,,,15,,,,,,,,,,,,,,
Raw,10300,10300000000,18,,633823,0.0,,161.106,,,11,,1,,,13,,,,,,,,,,,,,,
Raw,10300,10300000000,18,,633823,0.0,,161.106,,,14,,1,,,16,,,,,,,,,,,,,,
Raw,10300,10300000000,18,,633823,0.0,,161.106,,,20,,1,,,21,,,,,,,,,,,,,,
Raw,10300,10300000000,18,,633823,0.0,,161.106,,,25,,1,,,21,,,,,,,,,,,,,,
Raw,10300,10300000000,18,,633823,0.0,,161.106,,,31,,1,,,15,,,,,,,,,,,,,,
Raw,10300,10300000000,18,,633823,0.0,,161.106,,,32,,1,,,15,,,,,,,,,,,,,,
Raw,10400,10400000000,18,,633832,0.0,,161.048,,,10,,1,,,15,,,,,,,,,,,,,,
Raw,10400,10400000000,18,,633832,0.0,,161.048,,,11,,1,,,13,,,,,,,,,,,,,,
Raw,10400,10400000000,18,,633832,0.0,,161.048,,,14,,1,,,16,,,,,,,,,,,,,,
Raw,10400,10400000000,18,,633832,0.0,,161.048,,,20,,1,,,20,,,,,,,,,,,,,,
Raw,10400,10400000000,18,,633832,0.0,,161.048,,,25,,1,,,21,,,,,,,,,,,,,,
Raw,10400,10400000000,18,,633832,0.0,,161.048,,,31,,1,,,15,,,,,,,,,,,,,,
Raw,10400,10400000000,18,,633832,0.0,,161.048,,,32,,1,,,15,,,,,,,,,,,,,,
Raw,10500,10500000000,18,,633840,0.0,,160.980,,,10,,1,,,15,,,,,,,,,,,,,,
Raw,10500,10500000000,18,,633840,0.0,,160.980,,,11,,1,,,13,,,,,,,,,,,,,,
Raw,10500,10500000000,18,,633840,0.0,,160.980,,,14,,1,,,16,,,,,,,,,,,,,,
Raw,10500,10500000000,18,,633840,0.0,,160.980,,,20,,1,,,20,,,,,,,,,,,,,,
Raw,10500,10500000000,18,,633840,0.0,,160.980,,,25,,1,,,21,,,,,,,,,,,,,,
Raw,10500,10500000000,18,,633840,0.0,,160.980,,,31,,1,,,14,,,,,,,,,,,,,,
Raw,10500,10500000000,18,,633840,0.0,,160.980,,,32,,1,,,15,,,,,,,,,,,,,,
Raw,10600,10600000000,18,,633848,0.0,,160.843,,,10,,1,,,15,,,,,,,,,,,,,,
Raw,10600,10600000000,18,,633848,0.0,,160.843,,,11,,1,,,13,,,,,,,,,,,,,,
Raw,10600,10600000000,18,,633848,0.0,,160.843,,,14,,1,,,16,,,,,,,,,,,,,,
Raw,10600,10600000000,18,,633848,0.0,,160.843,,,20,,1,,,20,,,,,,,,,,,,,,
Raw,10600,10600000000,18,,633848,0.0,,160.843,,,25,,1,,,21,,,,,,,,,,,,,,
Raw,10600,10600000000,18,,633848,0.0,,160.843,,,31,,1,,,14,,,,,,,,,,,,,,
Raw,10600,10600000000,18,,633848,0.0,,160.843,,,32,,1,,,15,,,,,,,,,,,,,,
Raw,10700,10700000000,18,,633857,0.0,,160.701,,,10,,1,,,15,,,,,,,,,,,,,,
Raw,10700,10700000000,18,,633857,0.0,,160.701,,,11,,1,,,13,,,,,,,,,,,,,,
Raw,10700,10700000000,18,,633857,0.0,,160.701,,,14,,1,,,16,,,,,,,,,,,,,,
Raw,10700,10700000000,18,,633857,0.0,,160.701,,,20,,1,,,19,,,,,,,,,,,,,,
Raw,10700,10700000000,18,,633857,0.0,,160.701,,,25,,1,,,21,,,,,,,,,,,,,,
Raw,10700,10700000000,18,,633857,0.0,,160.701,,,31,,1,,,14,,,,,,,,,,,,,,
Raw,10700,10700000000,18,,633857,0.0,,160.701,,,32,,1,,,15,,,,,,,,,,,,,,
Raw,10800,10800000000,18,,633865,0.0,,160.660,,,10,,1,,,16,,,,,,,,,,,,,,
Raw,10800,10800000000,18,,633865,0.0,,160.660,,,11,,1,,,13,,,,,,,,,,,,,,
Raw,10800,10800000000,18,,633865,0.0,,160.660,,,14,,1,,,16,,,,,,,,,,,,,,
Raw,10800,10800000000,18,,633865,0.0,,160.660,,,20,,1,,,19,,,,,,,,,,,,,,
Raw,10800,10800000000,18,,633865,0.0,,160.660,,,25,,1,,,21,,,,,,,,,,,,,,
Raw,10800,10800000000,18,,633865,0.0,,160.660,,,31,,1,,,14,,,,,,,,,,,,,,
Raw,10800,10800000000,18,,633865,0.0,,160.660,,,32,,1,,,15,,,,,,,,,,,,,,
Raw,10900,10900000000,18,,633875,0.0,,160.785,,,10,,1,,,15,,,,,,,,,,,,,,
Raw,10900,10900000000,18,,633875,0.0,,160.785,,,11,,1,,,13,,,,,,,,,,,,,,
Raw,10900,10900000000,18,,633875,0.0,,160.785,,,14,,1,,,16,,,,,,,,,,,,,,
Raw,10900,10900000000,18,,633875,0.0,,160.785,,,20,,1,,,19,,,,,,,,,,,,,,
Raw,10900,10900000000,18,,633875,0.0,,160.785,,,25,,1,,,21,,,,,,,,,,,,,,
Raw,10900,10900000000,18,,633875,0.0,,160.785,,,31,,1,,,13,,,,,,,,,,,,,,
Raw,10900,10900000000,18,,633875,0.0,,160.785,,,32,,1,,,15,,,,,,,,,,,,,,
Raw,11000,11000000000,18,,633884,0.0,,160.944,,,10,,1,,,15,,,,,,,,,,,,,,
Raw,11000,11000000000,18,,633884,0.0,,160.944,,,11,,1,,,14,,,,,,,,,,,,,,
Raw,11000,11000000000,18,,633884,0.0,,160.944,,,14,,1,,,15,,,,,,,,,,,,,,
Raw,11000,11000000000,18,,633884,0.0,,160.944,,,20,,1,,,19,,,,,,,,,,,,,,
Raw,11000,11000000000,18,,633884,0.0,,160.944,,,25,,1,,,21,,,,,,,,,,,,,,
Raw,11000,11000000000,18,,633884,0.0,,160.944,,,31,,1,,,13,,,,,,,,,,,,,,
Raw,11000,11000000000,18,,633884,0.0,,160.944,,,32,,1,,,15,,,,,,,,,,,,,,
Raw,11100,11100000000,18,,633893,0.0,,160.947,,,10,,1,,,15,,,,,,,,,,,,,,
Raw,11100,11100000000,18,,633893,0.0,,160.947,,,11,,1,,,13,,,,,,,,,,,,,,
Raw,11100,11100000000,18,,633893,0.0,,160.947,,,14,,1,,,15,,,,,,,,,,,,,,
Raw,11100,11100000000,18,,633893,0.0,,160.947,,,20,,1,,,19,,,,,,,,,,,,,,
Raw,11100,11100000000,18,,633893,0.0,,160.947,,,25,,1,,,21,,,,,,,,,,,,,,
Raw,11100,11100000000,18,,633893,0.0,,160.947,,,31,,1,,,13,,,,,,,,,,,,,,
Raw,11100,11100000000,18,,633893,0.0,,160.947,,,32,,1,,,15,,,,,,,,,,,,,,
Raw,11200,11200000000,18,,633903,0.0,,160.922,,,10,,1,,,15,,,,,,,,,,,,,,
Raw,11200,11200000000,18,,633903,0.0,,160.922,,,11,,1,,,13,,,,,,,,,,,,,,
Raw,11200,11200000000,18,,633903,0.0,,160.922,,,14,,1,,,15,,,,,,,,,,,,,,
Raw,11200,11200000000,18,,633903,0.0,,160.922,,,20,,1,,,19,,,,,,,,,,,,,,
Raw,11200,11200000000,18,,633903,0.0,,160.922,,,25,,1,,,21,,,,,,,,,,,,,,
Raw,11200,11200000000,18,,633903,0.0,,160.922,,,31,,1,,,13,,,,,,,,,,,,,,
Raw,11200,11200000000,18,,633903,0.0,,160.922,,,32,,1,,,14,,,,,,,,,,,,,,
Raw,11300,11300000000,18,,633912,0.0,,160.842,,,10,,1,,,15,,,,,,,,,,,,,,
Raw,11300,11300000000,18,,633912,0.0,,160.842,,,11,,1,,,13,,,,,,,,,,,,,,
Raw,11300,11300000000,18,,633912,0.0,,160.842,,,14,,1,,,15,,,,,,,,,,,,,,
Raw,11300,11300000000,18,,633912,0.0,,160.842,,,20,,1,,,18,,,,,,,,,,,,,,
Raw,11300,11300000000,18,,633912,0.0,,160.842,,,25,,1,,,21,,,,,,,,,,,,,,
Raw,11300,11300000000,18,,633912,0.0,,160.842,,,31,,1,,,13,,,,,,,,,,,,,,
Raw,11300,11300000000,18,,633912,0.0,,160.842,,,32,,1,,,14,,,,,,,,,,,,,,
Raw,11400,11400000000,18,,633921,0.0,,160.800,,,10,,1,,,15,,,,,,,,,,,,,,
Raw,11400,11400000000,18,,633921,0.0,,160.800,,,11,,1,,,13,,,,,,,,,,,,,,
Raw,11400,11400000000,18,,633921,0.0,,160.800,,,14,,1,,,15,,,,,,,,,,,,,,
Raw,11400,11400000000,18,,633921,0.0,,160.800,,,20,,1,,,18,,,,,,,,,,,,,,
Raw,11400,11400000000,18,,633921,0.0,,160.800,,,25,,1,,,21,,,,,,,,,,,,,,
Raw,11400,11400000000,18,,633921,0.0,,160.800,,,31,,1,,,13,,,,,,,,,,,,,,
Raw,11400,11400000000,18,,633921,0.0,,160.800,,,32,,1,,,15,,,,,,,,,,,,,,
Raw,11500,11500000000,18,,633931,0.0,,160.822,,,10,,1,,,15,,,,,,,,,,,,,,
Raw,11500,11500000000,18,,633931,0.0,,160.822,,,11,,1,,,13,,,,,,,,,,,,,,
Raw,11500,11500000000,18,,633931,0.0,,160.822,,,14,,1,,,15,,,,,,,,,,,,,,
Raw,11500,11500000000,18,,633931,0.0,,160.822,,,20,,1,,,18,,,,,,,,,,,,,,
Raw,11500,11500000000,18,,633931,0.0,,160.822,,,25,,1,,,21,,,,,,,,,,,,,,
Raw,11500,11500000000,18,,633931,0.0,,160.822,,,31,,1,,,13,,,,,,,,,,,,,,
Raw,11500,11500000000,18,,633931,0.0,,160.822,,,32,,1,,,15,,,,,,,,,,,,,,
Raw,11600,11600000000,18,,633940,0.0,,160.716,,,10,,1,,,15,,,,,,,,,,,,,,
Raw,11600,11600000000,18,,633940,0.0,,160.716,,,11,,1,,,13,,,,,,,,,,,,,,
Raw,11600,11600000000,18,,633940,0.0,,160.716,,,14,,1,,,15,,,,,,,,,,,,,,
Raw,11600,11600000000,18,,633940,0.0,,160.716,,,20,,1,,,18,,,,,,,,,,,,,,
Raw,11600,11600000000,18,,633940,0.0,,160.716,,,25,,1,,,21,,,,,,,,,,,,,,
Raw,11600,11600000000,18,,633940,0.0,,160.716,,,31,,1,,,13,,,,,,,,,,,,,,
Raw,11600,11600000000,18,,633940,0.0,,160.716,,,32,,1,,,15,,,,,,,,,,,,,,
Raw,11700,11700000000,18,,633951,0.0,,160.739,,,10,,1,,,15,,,,,,,,,,,,,,
Raw,11700,11700000000,18,,633951,0.0,,160.739,,,11,,1,,,13,,,,,,,,,,,,,,
Raw,11700,11700000000,18,,633951,0.0,,160.739,,,14,,1,,,15,,,,,,,,,,,,,,
Raw,11700,11700000000,18,,633951,0.0,,160.739,,,20,,1,,,18,,,,,,,,,,,,,,
Raw,11700,11700000000,18,,633951,0.0,,160.739,,,25,,1,,,21,,,,,,,,,,,,,,
Raw,11700,11700000000,18,,633951,0.0,,160.739,,,31,,1,,,13,,,,,,,,,,,,,,
Raw,11700,11700000000,18,,633951,0.0,,160.739,,,32,,1,,,15,,,,,,,,,,,,,,
Raw,11800,11800000000,18,,633961,0.0,,160.750,,,10,,1,,,15,,,,,,,,,,,,,,
Raw,11800,11800000000,18,,633961,0.0,,160.750,,,11,,1,,,13,,,,,,,,,,,,,,
Raw,11800,11800000000,18,,633961,0.0,,160.750,,,14,,1,,,14,,,,,,,,,,,,,,
Raw,11800,11800000000,18,,633961,0.0,,160.750,,,20,,1,,,18,,,,,,,,,,,,,,
Raw,11800,11800000000,18,,633961,0.0,,160.750,,,25,,1,,,21,,,,,,,,,,,,,,
Raw,11800,11800000000,18,,633961,0.0,,160.750,,,31,,1,,,13,,,,,,,,,,,,,,
Raw,11800,11800000000,18,,633961,0.0,,160.750,,,32,,1,,,15,,,,,,,,,,,,,,
Raw,11900,11900000000,18,,633971,0.0,,160.692,,,10,,1,,,15,,,,,,,,,,,,,,
Raw,11900,11900000000,18,,633971,0.0,,160.692,,,11,,1,,,13,,,,,,,,,,,,,,
Raw,11900,11900000000,18,,633971,0.0,,160.692,,,14,,1,,,15,,,,,,,,,,,,,,
Raw,11900,11900000000,18,,633971,0.0,,160.692,,,20,,1,,,17,,,,,,,,,,,,,,
Raw,11900,11900000000,18,,633971,0.0,,160.692,,,25,,1,,,21,,,,,,,,,,,,,,
Raw,11900,11900000000,18,,633971,0.0,,160.692,,,31,,1,,,13,,,,,,,,,,,,,,
Raw,11900,11900000000,18,,633971,0.0,,160.692,,,32,,1,,,15,,,,,,,,,,,,,,
Raw,12000,12000000000,18,,633981,0.0,,160.584,,,10,,1,,,15,,,,,,,,,,,,,,
Raw,12000,12000000000,18,,633981,0.0,,160.584,,,11,,1,,,13,,,,,,,,,,,,,,
Raw,12000,12000000000,18,,633981,0.0,,160.584,,,14,,1,,,15,,,,,,,,,,,,,,
Raw,12000,12000000000,18,,633981,0.0,,160.584,,,20,,1,,,17,,,,,,,,,,,,,,
Raw,12000,12000000000,18,,633981,0.0,,160.584,,,25,,1,,,21,,,,,,,,,,,,,,
Raw,12000,12000000000,18,,633981,0.0,,160.584,,,31,,1,,,13,,,,,,,,,,,,,,
Raw,12000,12000000000,18,,633981,0.0,,160.584,,,32,,1,,,15,,,,,,,,,,,,,,
Raw,12100,12100000000,18,,633991,0.0,,160.454,,,10,,1,,,15,,,,,,,,,,,,,,
Raw,12100,12100000000,18,,633991,0.0,,160.454,,,11,,1,,,13,,,,,,,,,,,,,,
Raw,12100,12100000000,18,,633991,0.0,,160.454,,,14,,1,,,15,,,,,,,,,,,,,,
Raw,12100,12100000000,18,,633991,0.0,,160.454,,,20,,1,,,18,,,,,,,,,,,,,,
Raw,12100,12100000000,18,,633991,0.0,,160.454,,,25,,1,,,21,,,,,,,,,,,,,,
Raw,12100,12100000000,18,,633991,0.0,,160.454,,,31,,1,,,13,,,,,,,,,,,,,,
Raw,12100,12100000000,18,,633991,0.0,,160.454,,,32,,1,,,15,,,,,,,,,,,,,,
Raw,12200,12200000000,18,,633996,0.0,,160.165,,,10,,1,,,14,,,,,,,,,,,,,,
Raw,12200,12200000000,18,,633996,0.0,,160.165,,,11,,1,,,13,,,,,,,,,,,,,,
Raw,12200,12200000000,18,,633996,0.0,,160.165,,,14,,1,,,14,,,,,,,,,,,,,,
Raw,12200,12200000000,18,,633996,0.0,,160.165,,,20,,1,,,17,,,,,,,,,,,,,,
Raw,12200,12200000000,18,,633996,0.0,,160.165,,,25,,1,,,21,,,,,,,,,,,,,,
Raw,12200,12200000000,18,,633996,0.0,,160.165,,,31,,1,,,13,,,,,,,,,,,,,,
Raw,12200,12200000000,18,,633996,0.0,,160.165,,,32,,1,,,15,,,,,,,,,,,,,,
Raw,12300,12300000000,18,,634002,0.0,,160.043,,,10,,1,,,15,,,,,,,,,,,,,,
Raw,12300,12300000000,18,,634002,0.0,,160.043,,,11,,1,,,13,,,,,,,,,,,,,,
Raw,12300,12300000000,18,,634002,0.0,,160.043,,,14,,1,,,15,,,,,,,,,,,,,,
Raw,12300,12300000000,18,,634002,0.0,,160.043,,,20,,1,,,17,,,,,,,,,,,,,,
Raw,12300,12300000000,18,,634002,0.0,,160.043,,,25,,1,,,21,,,,,,,,,,,,,,
Raw,12300,12300000000,18,,634002,0.0,,160.043,,,31,,1,,,13,,,,,,,,,,,,,,
Raw,12300,12300000000,18,,634002,0.0,,160.043,,,32,,1,,,15,,,,,,,,,,,,,,
Raw,12400,12400000000,18,,634008,0.0,,159.874,,,10,,1,,,15,,,,,,,,,,,,,,
Raw,12400,12400000000,18,,634008,0.0,,159.874,,,11,,1,,,13,,,,,,,,,,,,,,
Raw,12400,12400000000,18,,634008,0.0,,159.874,,,14,,1,,,15,,,,,,,,,,,,,,
Raw,12400,12400000000,18,,634008,0.0,,159.874,,,20,,1,,,17,,,,,,,,,,,,,,
Raw,12400,12400000000,18,,634008,0.0,,159.874,,,25,,1,,,21,,,,,,,,,,,,,,
Raw,12400,12400000000,18,,634008,0.0,,159.874,,,31,,1,,,14,,,,,,,,,,,,,,
Raw,12400,12400000000,18,,634008,0.0,,159.874,,,32,,1,,,14,,,,,,,,,,,,,,
Raw,12500,12500000000,18,,634015,0.0,,159.717,,,10,,1,,,15,,,,,,,,,,,,,,
Raw,12500,12500000000,18,,634015,0.0,,159.717,,,11,,1,,,13,,,,,,,,,,,,,,
Raw,12500,12500000000,18,,634015,0.0,,159.717,,,14,,1,,,15,,,,,,,,,,,,,,
Raw,12500,12500000000,18,,634015,0.0,,159.717,,,20,,1,,,17,,,,,,,,,,,,,,
Raw,12500,12500000000,18,,634015,0.0,,159.717,,,25,,1,,,21,,,,,,,,,,,,,,
Raw,12500,12500000000,18,,634015,0.0,,159.717,,,31,,1,,,14,,,,,,,,,,,,,,
Raw,12500,12500000000,18,,634015,0.0,,159.717,,,32,,1,,,15,,,,,,,,,,,,,,
Raw,12600,12600000000,18,,634022,0.0,,159.592,,,10,,1,,,14,,,,,,,,,,,,,,
Raw,12600,12600000000,18,,634022,0.0,,159.592,,,11,,1,,,13,,,,,,,,,,,,,,
Raw,12600,12600000000,18,,634022,0.0,,159.592,,,14,,1,,,15,,,,,,,,,,,,,,
Raw,12600,12600000000,18,,634022,0.0,,159.592,,,20,,1,,,17,,,,,,,,,,,,,,
Raw,12600,12600000000,18,,634022,0.0,,159.592,,,25,,1,,,21,,,,,,,,,,,,,,
Raw,12600,12600000000,18,,634022,0.0,,159.592,,,31,,1,,,14,,,,,,,,,,,,,,
Raw,12600,12600000000,18,,634022,0.0,,159.592,,,32,,1,,,14,,,,,,,,,,,,,,
Raw,12700,12700000000,18,,634029,0.0,,159.452,,,10,,1,,,14,,,,,,,,,,,,,,
Raw,12700,12700000000,18,,634029,0.0,,159.452,,,11,,1,,,13,,,,,,,,,,,,,,
Raw,12700,12700000000,18,,634029,0.0,,159.452,,,14,,1,,,15,,,,,,,,,,,,,,
Raw,12700,12700000000,18,,634029,0.0,,159.452,,,20,,1,,,17,,,,,,,,,,,,,,
Raw,12700,12700000000,18,,634029,0.0,,159.452,,,25,,1,,,21,,,,,,,,,,,,,,
Raw,12700,12700000000,18,,634029,0.0,,159.452,,,31,,1,,,13,,,,,,,,,,,,,,
Raw,12700,12700000000,18,,634029,0.0,,159.452,,,32,,1,,,14,,,,,,,,,,,,,,
Raw,12800,12800000000,18,,634037,0.0,,159.318,,,10,,1,,,14,,,,,,,,,,,,,,
Raw,12800,12800000000,18,,634037,0.0,,159.318,,,11,,1,,,13,,,,,,,,,,,,,,
Raw,12800,12800000000,18,,634037,0.0,,159.318,,,14,,1,,,15,,,,,,,,,,,,,,
Raw,12800,12800000000,18,,634037,0.0,,159.318,,,20,,1,,,16,,,,,,,,,,,,,,
Raw,12800,12800000000,18,,634037,0.0,,159.318,,,25,,1,,,21,,,,,,,,,,,,,,
Raw,12800,12800000000,18,,634037,0.0,,159.318,,,31,,1,,,13,,,,,,,,,,,,,,
Raw,12800,12800000000,18,,634037,0.0,,159.318,,,32,,1,,,14,,,,,,,,,,,,,,
Raw,12900,12900000000,18,,634045,0.0,,159.237,,,10,,1,,,14,,,,,,,,,,,,,,
Raw,12900,12900000000,18,,634045,0.0,,159.237,,,11,,1,,,13,,,,,,,,,,,,,,
Raw,12900,12900000000,18,,634045,0.0,,159.237,,,14,,1,,,16,,,,,,,,,,,,,,
Raw,12900,12900000000,18,,634045,0.0,,159.237,,,20,,1,,,16,,,,,,,,,,,,,,
Raw,12900,12900000000,18,,634045,0.0,,159.237,,,25,,1,,,21,,,,,,,,,,,,,,
Raw,12900,12900000000,18,,634045,0.0,,159.237,,,31,,1,,,14,,,,,,,,,,,,,,
Raw,12900,12900000000,18,,634045,0.0,,159.237,,,32,,1,,,14,,,,,,,,,,,,,,
Raw,13000,13000000000,18,,634053,0.0,,159.194,,,10,,1,,,14,,,,,,,,,,,,,,
Raw,13000,13000000000,18,,634053,0.0,,159.194,,,11,,1,,,13,,,,,,,,,,,,,,
Raw,13000,13000000000,18,,634053,0.0,,159.194,,,14,,1,,,16,,,,,,,,,,,,,,
Raw,13000,13000000000,18,,634053,0.0,,159.194,,,20,,1,,,16,,,,,,,,,,,,,,
Raw,13000,13000000000,18,,634053,0.0,,159.194,,,25,,1,,,20,,,,,,,,,,,,,,
Raw,13000,13000000000,18,,634053,0.0,,159.194,,,31,,1,,,13,,,,,,,,,,,,,,
Raw,13000,13000000000,18,,634053,0.0,,159.194,,,32,,1,,,14,,,,,,,,,,,,,,
Raw,13100,13100000000,18,,634061,0.0,,159.151,,,10,,1,,,14,,,,,,,,,,,,,,
Raw,13100,13100000000,18,,634061,0.0,,159.151,,,11,,1,,,13,,,,,,,,,,,,,,
Raw,13100,13100000000,18,,634061,0.0,,159.151,,,14,,1,,,16,,,,,,,,,,,,,,
Raw,13100,13100000000,18,,634061,0.0,,159.151,,,20,,1,,,16,,,,,,,,,,,,,,
Raw,13100,13100000000,18,,634061,0.0,,159.151,,,25,,1,,,20,,,,,,,,,,,,,,
Raw,13100,13100000000,18,,634061,0.0,,159.151,,,31,,1,,,13,,,,,,,,,,,,,,
Raw,13100,13100000000,18,,634061,0.0,,159.151,,,32,,1,,,14,,,,,,,,,,,,,,
Raw,13200,13200000000,18,,634070,0.0,,159.088,,,10,,1,,,14,,,,,,,,,,,,,,
Raw,13200,13200000000,18,,634070,0.0,,159.088,,,11,,1,,,13,,,,,,,,,,,,,,
Raw,13200,13200000000,18,,634070,0.0,,159.088,,,14,,1,,,16,,,,,,,,,,,,,,
Raw,13200,13200000000,18,,634070,0.0,,159.088,,,20,,1,,,16,,,,,,,,,,,,,,
Raw,13200,13200000000,18,,634070,0.0,,159.088,,,25,,1,,,20,,,,,,,,,,,,,,
Raw,13200,13200000000,18,,634070,0.0,,159.088,,,31,,1,,,14,,,,,,,,,,,,,,
Raw,13200,13200000000,18,,634070,0.0,,159.088,,,32,,1,,,14,,,,,,,,,,,,,,
Raw,13300,13300000000,18,,634085,0.0,,159.092,,,11,,1,,,12,,,,,,,,,,,,,,
Raw,13300,13300000000,18,,634085,0.0,,159.092,,,14,,1,,,16,,,,,,,,,,,,,,
Raw,13300,13300000000,18,,634085,0.0,,159.092,,,20,,1,,,16,,,,,,,,,,,,,,
Raw,13300,13300000000,18,,634085,0.0,,159.092,,,25,,1,,,20,,,,,,,,,,,,,,
Raw,13300,13300000000,18,,634085,0.0,,159.092,,,31,,1,,,14,,,,,,,,,,,,,,
Raw,13300,13300000000,18,,634085,0.0,,159.092,,,32,,1,,,14,,,,,,,,,,,,,,
Raw,13400,13400000000,18,,634100,0.0,,159.054,,,11,,1,,,12,,,,,,,,,,,,,,
Raw,13400,13400000000,18,,634100,0.0,,159.054,,,14,,1,,,16,,,,,,,,,,,,,,
Raw,13400,13400000000,18,,634100,0.0,,159.054,,,20,,1,,,16,,,,,,,,,,,,,,
Raw,13400,13400000000,18,,634100,0.0,,159.054,,,25,,1,,,20,,,,,,,,,,,,,,
Raw,13400,13400000000,18,,634100,0.0,,159.054,,,31,,1,,,13,,,,,,,,,,,,,,
Raw,13400,13400000000,18,,634100,0.0,,159.054,,,32,,1,,,14,,,,,,,,,,,,,,
Raw,13500,13500000000,18,,634115,0.0,,159.017,,,11,,1,,,13,,,,,,,,,,,,,,
Raw,13500,13500000000,18,,634115,0.0,,159.017,,,14,,1,,,16,,,,,,,,,,,,,,
Raw,13500,13500000000,18,,634115,0.0,,159.017,,,20,,1,,,16,,,,,,,,,,,,,,
Raw,13500,13500000000,18,,634115,0.0,,159.017,,,25,,1,,,20,,,,,,,,,,,,,,
Raw,13500,13500000000,18,,634115,0.0,,159.017,,,31,,1,,,13,,,,,,,,,,,,,,
Raw,13500,13500000000,18,,634115,0.0,,159.017,,,32,,1,,,14,,,,,,,,,,,,,,
Raw,13600,13600000000,18,,634131,0.0,,159.006,,,11,,1,,,13,,,,,,,,,,,,,,
Raw,13600,13600000000,18,,634131,0.0,,159.006,,,14,,1,,,16,,,,,,,,,,,,,,
Raw,13600,13600000000,18,,634131,0.0,,159.006,,,20,,1,,,16,,,,,,,,,,,,,,
Raw,13600,13600000000,18,,634131,0.0,,159.006,,,25,,1,,,20,,,,,,,,,,,,,,
Raw,13600,13600000000,18,,634131,0.0,,159.006,,,31,,1,,,13,,,,,,,,,,,,,,
Raw,13600,13600000000,18,,634131,0.0,,159.006,,,32,,1,,,14,,,,,,,,,,,,,,
Raw,13700,13700000000,18,,634146,0.0,,159.118,,,11,,1,,,13,,,,,,,,,,,,,,
Raw,13700,13700000000,18,,634146,0.0,,159.118,,,14,,1,,,16,,,,,,,,,,,,,,
Raw,13700,13700000000,18,,634146,0.0,,159.118,,,20,,1,,,16,,,,,,,,,,,,,,
Raw,13700,13700000000,18,,634146,0.0,,159.118,,,25,,1,,,21,,,,,,,,,,,,,,
Raw,13700,13700000000,18,,634146,0.0,,159.118,,,31,,1,,,13,,,,,,,,,,,,,,
Raw,13700,13700000000,18,,634146,0.0,,159.118,,,32,,1,,,15,,,,,,,,,,,,,,
Raw,13800,13800000000,18,,634162,0.0,,159.235,,,11,,1,,,13,,,,,,,,,,,,,,
Raw,13800,13800000000,18,,634162,0.0,,159.235,,,14,,1,,,16,,,,,,,,,,,,,,
Raw,13800,13800000000,18,,634162,0.0,,159.235,,,20,,1,,,16,,,,,,,,,,,,,,
Raw,13800,13800000000,18,,634162,0.0,,159.235,,,25,,1,,,21,,,,,,,,,,,,,,
Raw,13800,13800000000,18,,634162,0.0,,159.235,,,31,,1,,,13,,,,,,,,,,,,,,
Raw,13800,13800000000,18,,634162,0.0,,159.235,,,32,,1,,,15,,,,,,,,,,,,,,
Raw,13900,13900000000,18,,634177,0.0,,159.325,,,11,,1,,,13,,,,,,,,,,,,,,
Raw,13900,13900000000,18,,634177,0.0,,159.325,,,14,,1,,,15,,,,,,,,,,,,,,
Raw,13900,13900000000,18,,634177,0.0,,159.325,,,20,,1,,,16,,,,,,,,,,,,,,
Raw,13900,13900000000,18,,634177,0.0,,159.325,,,25,,1,,,20,,,,,,,,,,,,,,
Raw,13900,13900000000,18,,634177,0.0,,159.325,,,31,,1,,,14,,,,,,,,,,,,,,
Raw,13900,13900000000,18,,634177,0.0,,159.325,,,32,,1,,,15,,,,,,,,,,,,,,
Raw,14000,14000000000,18,,634193,0.0,,159.345,,,11,,1,,,12,,,,,,,,,,,,,,
Raw,14000,14000000000,18,,634193,0.0,,159.345,,,14,,1,,,15,,,,,,,,,,,,,,
Raw,14000,14000000000,18,,634193,0.0,,159.345,,,20,,1,,,16,,,,,,,,,,,,,,
Raw,14000,14000000000,18,,634193,0.0,,159.345,,,25,,1,,,20,,,,,,,,,,,,,,
Raw,14000,14000000000,18,,634193,0.0,,159.345,,,31,,1,,,13,,,,,,,,,,,,,,
Raw,14000,14000000000,18,,634193,0.0,,159.345,,,32,,1,,,15,,,,,,,,,,,,,,
Raw,14100,14100000000,18,,634223,0.0,,159.534,,,11,,1,,,13,,,,,,,,,,,,,,
Raw,14100,14100000000,18,,634223,0.0,,159.534,,,14,,1,,,15,,,,,,,,,,,,,,
Raw,14100,14100000000,18,,634223,0.0,,159.534,,,20,,1,,,16,,,,,,,,,,,,,,
Raw,14100,14100000000,18,,634223,0.0,,159.534,,,25,,1,,,20,,,,,,,,,,,,,,
Raw,14100,14100000000,18,,634223,0.0,,159.534,,,31,,1,,,13,,,,,,,,,,,,,,
Raw,14100,14100000000,18,,634223,0.0,,159.534,,,32,,1,,,15,,,,,,,,,,,,,,
Raw,14200,14200000000,18,,634253,0.0,,159.752,,,10,,1,,,17,,,,,,,,,,,,,,
Raw,14200,14200000000,18,,634253,0.0,,159.752,,,11,,1,,,13,,,,,,,,,,,,,,
Raw,14200,14200000000,18,,634253,0.0,,159.752,,,14,,1,,,15,,,,,,,,,,,,,,
Raw,14200,14200000000,18,,634253,0.0,,159.752,,,20,,1,,,16,,,,,,,,,,,,,,
Raw,14200,14200000000,18,,634253,0.0,,159.752,,,25,,1,,,20,,,,,,,,,,,,,,
Raw,14200,14200000000,18,,634253,0.0,,159.752,,,31,,1,,,14,,,,,,,,,,,,,,
Raw,14200,14200000000,18,,634253,0.0,,159.752,,,32,,1,,,15,,,,,,,,,,,,,,
Raw,14300,14300000000,18,,634281,0.0,,159.756,,,10,,1,,,17,,,,,,,,,,,,,,
Raw,14300,14300000000,18,,634281,0.0,,159.756,,,11,,1,,,13,,,,,,,,,,,,,,
Raw,14300,14300000000,18,,634281,0.0,,159.756,,,14,,1,,,15,,,,,,,,,,,,,,
Raw,14300,14300000000,18,,634281,0.0,,159.756,,,20,,1,,,16,,,,,,,,,,,,,,
Raw,14300,14300000000,18,,634281,0.0,,159.756,,,25,,1,,,20,,,,,,,,,,,,,,
Raw,14300,14300000000,18,,634281,0.0,,159.756,,,31,,1,,,14,,,,,,,,,,,,,,
Raw,14300,14300000000,18,,634281,0.0,,159.756,,,32,,1,,,15,,,,,,,,,,,,,,
Raw,14400,14400000000,18,,634308,0.0,,159.722,,,10,,1,,,17,,,,,,,,,,,,,,
Raw,14400,14400000000,18,,634308,0.0,,159.722,,,11,,1,,,13,,,,,,,,,,,,,,
Raw,14400,14400000000,18,,634308,0.0,,159.722,,,14,,1,,,15,,,,,,,,,,,,,,
Raw,14400,14400000000,18,,634308,0.0,,159.722,,,20,,1,,,15,,,,,,,,,,,,,,
Raw,14400,14400000000,18,,634308,0.0,,159.722,,,25,,1,,,20,,,,,,,,,,,,,,
Raw,14400,14400000000,18,,634308,0.0,,159.722,,,31,,1,,,14,,,,,,,,,,,,,,
Raw,14400,14400000000,18,,634308,0.0,,159.722,,,32,,1,,,15,,,,,,,,,,,,,,
Raw,14500,14500000000,18,,634335,0.0,,159.632,,,10,,1,,,17,,,,,,,,,,,,,,
Raw,14500,14500000000,18,,634335,0.0,,159.632,,,11,,1,,,12,,,,,,,,,,,,,,
Raw,14500,14500000000,18,,634335,0.0,,159.632,,,14,,1,,,15,,,,,,,,,,,,,,
Raw,14500,14500000000,18,,634335,0.0,,159.632,,,20,,1,,,15,,,,,,,,,,,,,,
Raw,14500,14500000000,18,,634335,0.0,,159.632,,,25,,1,,,20,,,,,,,,,,,,,,
Raw,14500,14500000000,18,,634335,0.0,,159.632,,,31,,1,,,14,,,,,,,,,,,,,,
Raw,14500,14500000000,18,,634335,0.0,,159.632,,,32,,1,,,15,,,,,,,,,,,,,,
Raw,14600,14600000000,18,,634361,0.0,,159.540,,,10,,1,,,17,,,,,,,,,,,,,,
Raw,14600,14600000000,18,,634361,0.0,,159.540,,,11,,1,,,12,,,,,,,,,,,,,,
Raw,14600,14600000000,18,,634361,0.0,,159.540,,,14,,1,,,15,,,,,,,,,,,,,,
Raw,14600,14600000000,18,,634361,0.0,,159.540,,,20,,1,,,15,,,,,,,,,,,,,,
Raw,14600,14600000000,18,,634361,0.0,,159.540,,,25,,1,,,20,,,,,,,,,,,,,,
Raw,14600,14600000000,18,,634361,0.0,,159.540,,,31,,1,,,14,,,,,,,,,,,,,,
Raw,14600,14600000000,18,,634361,0.0,,159.540,,,32,,1,,,14,,,,,,,,,,,,,,
Raw,14700,14700000000,18,,634387,0.0,,159.463,,,10,,1,,,17,,,,,,,,,,,,,,
Raw,14700,14700000000,18,,634387,0.0,,159.463,,,11,,1,,,12,,,,,,,,,,,,,,
Raw,14700,14700000000,18,,634387,0.0,,159.463,,,14,,1,,,15,,,,,,,,,,,,,,
Raw,14700,14700000000,18,,634387,0.0,,159.463,,,20,,1,,,15,,,,,,,,,,,,,,
Raw,14700,14700000000,18,,634387,0.0,,159.463,,,25,,1,,,20,,,,,,,,,,,,,,
Raw,14700,14700000000,18,,634387,0.0,,159.463,,,31,,1,,,14,,,,,,,,,,,,,,
Raw,14700,14700000000,18,,634387,0.0,,159.463,,,32,,1,,,14,,,,,,,,,,,,,,
Raw,14800,14800000000,18,,634412,0.0,,159.307,,,10,,1,,,16,,,,,,,,,,,,,,
Raw,14800,14800000000,18,,634412,0.0,,159.307,,,11,,1,,,12,,,,,,,,,,,,,,
Raw,14800,14800000000,18,,634412,0.0,,159.307,,,14,,1,,,15,,,,,,,,,,,,,,
Raw,14800,14800000000,18,,634412,0.0,,159.307,,,20,,1,,,15,,,,,,,,,,,,,,
Raw,14800,14800000000,18,,634412,0.0,,159.307,,,25,,1,,,19,,,,,,,,,,,,,,
Raw,14800,14800000000,18,,634412,0.0,,159.307,,,31,,1,,,14,,,,,,,,,,,,,,
Raw,14800,14800000000,18,,634412,0.0,,159.307,,,32,,1,,,14,,,,,,,,,,,,,,
Raw,14900,14900000000,18,,634437,0.0,,159.170,,,10,,1,,,16,,,,,,,,,,,,,,
Raw,14900,14900000000,18,,634437,0.0,,159.170,,,11,,1,,,12,,,,,,,,,,,,,,
Raw,14900,14900000000,18,,634437,0.0,,159.170,,,14,,1,,,15,,,,,,,,,,,,,,
Raw,14900,14900000000,18,,634437,0.0,,159.170,,,20,,1,,,15,,,,,,,,,,,,,,
Raw,14900,14900000000,18,,634437,0.0,,159.170,,,25,,1,,,19,,,,,,,,,,,,,,
Raw,14900,14900000000,18,,634437,0.0,,159.170,,,31,,1,,,14,,,,,,,,,,,,,,
Raw,14900,14900000000,18,,634437,0.0,,159.170,,,32,,1,,,14,,,,,,,,,,,,,,
Raw,15000,15000000000,18,,634461,0.0,,158.949,,,10,,1,,,16,,,,,,,,,,,,,,
Raw,15000,15000000000,18,,634461,0.0,,158.949,,,11,,1,,,12,,,,,,,,,,,,,,
Raw,15000,15000000000,18,,634461,0.0,,158.949,,,14,,1,,,15,,,,,,,,,,,,,,
Raw,15000,15000000000,18,,634461,0.0,,158.949,,,20,,1,,,15,,,,,,,,,,,,,,
Raw,15000,15000000000,18,,634461,0.0,,158.949,,,25,,1,,,19,,,,,,,,,,,,,,
Raw,15000,15000000000,18,,634461,0.0,,158.949,,,31,,1,,,14,,,,,,,,,,,,,,
Raw,15000,15000000000,18,,634461,0.0,,158.949,,,32,,1,,,14,,,,,,,,,,,,,,
Raw,15100,15100000000,18,,634485,0.0,,158.712,,,10,,1,,,16,,,,,,,,,,,,,,
Raw,15100,15100000000,18,,634485,0.0,,158.712,,,11,,1,,,12,,,,,,,,,,,,,,
Raw,15100,15100000000,18,,634485,0.0,,158.712,,,14,,1,,,15,,,,,,,,,,,,,,
Raw,15100,15100000000,18,,634485,0.0,,158.712,,,20,,1,,,15,,,,,,,,,,,,,,
Raw,15100,15100000000,18,,634485,0.0,,158.712,,,25,,1,,,19,,,,,,,,,,,,,,
Raw,15100,15100000000,18,,634485,0.0,,158.712,,,31,,1,,,14,,,,,,,,,,,,,,
Raw,15100,15100000000,18,,634485,0.0,,158.712,,,32,,1,,,14,,,,,,,,,,,,,,
Raw,15200,15200000000,18,,634509,0.0,,158.478,,,10,,1,,,16,,,,,,,,,,,,,,
Raw,15200,15200000000,18,,634509,0.0,,158.478,,,11,,1,,,12,,,,,,,,,,,,,,
Raw,15200,15200000000,18,,634509,0.0,,158.478,,,14,,1,,,15,,,,,,,,,,,,,,
Raw,15200,15200000000,18,,634509,0.0,,158.478,,,20,,1,,,15,,,,,,,,,,,,,,
Raw,15200,15200000000,18,,634509,0.0,,158.478,,,25,,1,,,20,,,,,,,,,,,,,,
Raw,15200,15200000000,18,,634509,0.0,,158.478,,,31,,1,,,14,,,,,,,,,,,,,,
Raw,15200,15200000000,18,,634509,0.0,,158.478,,,32,,1,,,13,,,,,,,,,,,,,,
Raw,15300,15300000000,18,,634533,0.0,,158.214,,,10,,1,,,15,,,,,,,,,,,,,,
Raw,15300,15300000000,18,,634533,0.0,,158.214,,,11,,1,,,12,,,,,,,,,,,,,,
Raw,15300,15300000000,18,,634533,0.0,,158.214,,,14,,1,,,14,,,,,,,,,,,,,,
Raw,15300,15300000000,18,,634533,0.0,,158.214,,,20,,1,,,15,,,,,,,,,,,,,,
Raw,15300,15300000000,18,,634533,0.0,,158.214,,,25,,1,,,19,,,,,,,,,,,,,,
Raw,15300,15300000000,18,,634533,0.0,,158.214,,,31,,1,,,14,,,,,,,,,,,,,,
Raw,15300,15300000000,18,,634533,0.0,,158.214,,,32,,1,,,13,,,,,,,,,,,,,,
Raw,15400,15400000000,18,,634557,0.0,,158.119,,,10,,1,,,16,,,,,,,,,,,,,,
Raw,15400,15400000000,18,,634557,0.0,,158.119,,,11,,1,,,12,,,,,,,,,,,,,,
Raw,15400,15400000000,18,,634557,0.0,,158.119,,,14,,1,,,14,,,,,,,,,,,,,,
Raw,15400,15400000000,18,,634557,0.0,,158.119,,,20,,1,,,15,,,,,,,,,,,,,,
Raw,15400,15400000000,18,,634557,0.0,,158.119,,,25,,1,,,20,,,,,,,,,,,,,,
Raw,15400,15400000000,18,,634557,0.0,,158.119,,,31,,1,,,14,,,,,,,,,,,,,,
Raw,15400,15400000000,18,,634557,0.0,,158.119,,,32,,1,,,13,,,,,,,,,,,,,,
Raw,15500,15500000000,18,,634580,0.0,,157.993,,,10,,1,,,16,,,,,,,,,,,,,,
Raw,15500,15500000000,18,,634580,0.0,,157.993,,,11,,1,,,13,,,,,,,,,,,,,,
Raw,15500,15500000000,18,,634580,0.0,,157.993,,,14,,1,,,13,,,,,,,,,,,,,,
Raw,15500,15500000000,18,,634580,0.0,,157.993,,,20,,1,,,15,,,,,,,,,,,,,,
Raw,15500,15500000000,18,,634580,0.0,,157.993,,,25,,1,,,19,,,,,,,,,,,,,,
Raw,15500,15500000000,18,,634580,0.0,,157.993,,,31,,1,,,15,,,,,,,,,,,,,,
Raw,15500,15500000000,18,,634580,0.0,,157.993,,,32,,1,,,13,,,,,,,,,,,,,,
Raw,15600,15600000000,18,,634603,0.0,,157.878,,,10,,1,,,15,,,,,,,,,,,,,,
Raw,15600,15600000000,18,,634603,0.0,,157.878,,,11,,1,,,13,,,,,,,,,,,,,,
Raw,15600,15600000000,18,,634603,0.0,,157.878,,,14,,1,,,14,,,,,,,,,,,,,,
Raw,15600,15600000000,18,,634603,0.0,,157.878,,,20,,1,,,15,,,,,,,,,,,,,,
Raw,15600,15600000000,18,,634603,0.0,,157.878,,,25,,1,,,19,,,,,,,,,,,,,,
Raw,15600,15600000000,18,,634603,0.0,,157.878,,,31,,1,,,15,,,,,,,,,,,,,,
Raw,15600,15600000000,18,,634603,0.0,,157.878,,,32,,1,,,13,,,,,,,,,,,,,,
Raw,15700,15700000000,18,,634626,0.0,,157.811,,,10,,1,,,16,,,,,,,,,,,,,,
Raw,15700,15700000000,18,,634626,0.0,,157.811,,,11,,1,,,13,,,,,,,,,,,,,,
Raw,15700,15700000000,18,,634626,0.0,,157.811,,,14,,1,,,14,,,,,,,,,,,,,,
Raw,15700,15700000000,18,,634626,0.0,,157.811,,,20,,1,,,15,,,,,,,,,,,,,,
Raw,15700,15700000000,18,,634626,0.0,,157.811,,,25,,1,,,19,,,,,,,,,,,,,,
Raw,15700,15700000000,18,,634626,0.0,,157.811,,,31,,1,,,14,,,,,,,,,,,,,,
Raw,15700,15700000000,18,,634626,0.0,,157.811,,,32,,1,,,13,,,,,,,,,,,,,,
Raw,15800,15800000000,18,,634649,0.0,,157.741,,,10,,1,,,16,,,,,,,,,,,,,,
Raw,15800,15800000000,18,,634649,0.0,,157.741,,,11,,1,,,13,,,,,,,,,,,,,,
Raw,15800,15800000000,18,,634649,0.0,,157.741,,,14,,1,,,13,,,,,,,,,,,,,,
Raw,15800,15800000000,18,,634649,0.0,,157.741,,,20,,1,,,15,,,,,,,,,,,,,,
Raw,15800,15800000000,18,,634649,0.0,,157.741,,,25,,1,,,19,,,,,,,,,,,,,,
Raw,15800,15800000000,18,,634649,0.0,,157.741,,,31,,1,,,14,,,,,,,,,,,,,,
Raw,15800,15800000000,18,,634649,0.0,,157.741,,,32,,1,,,13,,,,,,,,,,,,,,
Raw,15900,15900000000,18,,634671,0.0,,157.700,,,10,,1,,,16,,,,,,,,,,,,,,
Raw,15900,15900000000,18,,634671,0.0,,157.700,,,11,,1,,,12,,,,,,,,,,,,,,
Raw,15900,15900000000,18,,634671,0.0,,157.700,,,14,,1,,,13,,,,,,,,,,,,,,
Raw,15900,15900000000,18,,634671,0.0,,157.700,,,20,,1,,,15,,,,,,,,,,,,,,
Raw,15900,15900000000,18,,634671,0.0,,157.700,,,25,,1,,,19,,,,,,,,,,,,,,
Raw,15900,15900000000,18,,634671,0.0,,157.700,,,31,,1,,,14,,,,,,,,,,,,,,
Raw,15900,15900000000,18,,634671,0.0,,157.700,,,32,,1,,,14,,,,,,,,,,,,,,
Raw,16000,16000000000,18,,634693,0.0,,157.616,,,10,,1,,,16,,,,,,,,,,,,,,
Raw,16000,16000000000,18,,634693,0.0,,157.616,,,11,,1,,,13,,,,,,,,,,,,,,
Raw,16000,16000000000,18,,634693,0.0,,157.616,,,14,,1,,,14,,,,,,,,,,,,,,
Raw,16000,16000000000,18,,634693,0.0,,157.616,,,20,,1,,,15,,,,,,,,,,,,,,
Raw,16000,16000000000,18,,634693,0.0,,157.616,,,25,,1,,,19,,,,,,,,,,,,,,
Raw,16000,16000000000,18,,634693,0.0,,157.616,,,31,,1,,,14,,,,,,,,,,,,,,
Raw,16000,16000000000,18,,634693,0.0,,157.616,,,32,,1,,,14,,,,,,,,,,,,,,
Raw,16100,16100000000,18,,634716,0.0,,157.519,,,10,,1,,,16,,,,,,,,,,,,,,
Raw,16100,16100000000,18,,634716,0.0,,157.519,,,11,,1,,,13,,,,,,,,,,,,,,
Raw,16100,16100000000,18,,634716,0.0,,157.519,,,14,,1,,,14,,,,,,,,,,,,,,
Raw,16100,16100000000,18,,634716,0.0,,157.519,,,20,,1,,,16,,,,,,,,,,,,,,
Raw,16100,16100000000,18,,634716,0.0,,157.519,,,25,,1,,,19,,,,,,,,,,,,,,
Raw,16100,16100000000,18,,634716,0.0,,157.519,,,31,,1,,,13,,,,,,,,,,,,,,
Raw,16100,16100000000,18,,634716,0.0,,157.519,,,32,,1,,,14,,,,,,,,,,,,,,
Raw,16200,16200000000,18,,634739,0.0,,157.558,,,10,,1,,,16,,,,,,,,,,,,,,
Raw,16200,16200000000,18,,634739,0.0,,157.558,,,11,,1,,,13,,,,,,,,,,,,,,
Raw,16200,16200000000,18,,634739,0.0,,157.558,,,14,,1,,,14,,,,,,,,,,,,,,
Raw,16200,16200000000,18,,634739,0.0,,157.558,,,20,,1,,,16,,,,,,,,,,,,,,
Raw,16200,16200000000,18,,634739,0.0,,157.558,,,25,,1,,,19,,,,,,,,,,,,,,
Raw,16200,16200000000,18,,634739,0.0,,157.558,,,32,,1,,,14,,,,,,,,,,,,,,
Raw,16300,16300000000,18,,634762,0.0,,157.549,,,10,,1,,,15,,,,,,,,,,,,,,
Raw,16300,16300000000,18,,634762,0.0,,157.549,,,11,,1,,,13,,,,,,,,,,,,,,
Raw,16300,16300000000,18,,634762,0.0,,157.549,,,14,,1,,,13,,,,,,,,,,,,,,
Raw,16300,16300000000,18,,634762,0.0,,157.549,,,20,,1,,,16,,,,,,,,,,,,,,
Raw,16300,16300000000,18,,634762,0.0,,157.549,,,25,,1,,,20,,,,,,,,,,,,,,
Raw,16300,16300000000,18,,634762,0.0,,157.549,,,32,,1,,,14,,,,,,,,,,,,,,
Raw,16400,16400000000,18,,634784,0.0,,157.574,,,10,,1,,,16,,,,,,,,,,,,,,
Raw,16400,16400000000,18,,634784,0.0,,157.574,,,11,,1,,,14,,,,,,,,,,,,,,
Raw,16400,16400000000,18,,634784,0.0,,157.574,,,14,,1,,,14,,,,,,,,,,,,,,
Raw,16400,16400000000,18,,634784,0.0,,157.574,,,20,,1,,,15,,,,,,,,,,,,,,
Raw,16400,16400000000,18,,634784,0.0,,157.574,,,25,,1,,,20,,,,,,,,,,,,,,
Raw,16400,16400000000,18,,634784,0.0,,157.574,,,32,,1,,,14,,,,,,,,,,,,,,
Raw,16500,16500000000,18,,634800,0.0,,157.574,,,10,,1,,,15,,,,,,,,,,,,,,
Raw,16500,16500000000,18,,634800,0.0,,157.574,,,11,,1,,,14,,,,,,,,,,,,,,
Raw,16500,16500000000,18,,634800,0.0,,157.574,,,14,,1,,,14,,,,,,,,,,,,,,
Raw,16500,16500000000,18,,634800,0.0,,157.574,,,20,,1,,,16,,,,,,,,,,,,,,
Raw,16500,16500000000,18,,634800,0.0,,157.574,,,25,,1,,,20,,,,,,,,,,,,,,
Raw,16500,16500000000,18,,634800,0.0,,157.574,,,32,,1,,,14,,,,,,,,,,,,,,
Raw,16600,16600000000,18,,634816,0.0,,157.574,,,10,,1,,,15,,,,,,,,,,,,,,
Raw,16600,16600000000,18,,634816,0.0,,157.574,,,11,,1,,,14,,,,,,,,,,,,,,
Raw,16600,16600000000,18,,634816,0.0,,157.574,,,14,,1,,,13,,,,,,,,,,,,,,
Raw,16600,16600000000,18,,634816,0.0,,157.574,,,20,,1,,,16,,,,,,,,,,,,,,
Raw,16600,16600000000,18,,634816,0.0,,157.574,,,25,,1,,,20,,,,,,,,,,,,,,
Raw,16600,16600000000,18,,634816,0.0,,157.574,,,32,,1,,,14,,,,,,,,,,,,,,
Raw,16700,16700000000,18,,634832,0.0,,157.574,,,10,,1,,,15,,,,,,,,,,,,,,
Raw,16700,16700000000,18,,634832,0.0,,157.574,,,11,,1,,,14,,,,,,,,,,,,,,
Raw,16700,16700000000,18,,634832,0.0,,157.574,,,14,,1,,,13,,,,,,,,,,,,,,
Raw,16700,16700000000,18,,634832,0.0,,157.574,,,20,,1,,,16,,,,,,,,,,,,,,
Raw,16700,16700000000,18,,634832,0.0,,157.574,,,25,,1,,,19,,,,,,,,,,,,,,
Raw,16700,16700000000,18,,634832,0.0,,157.574,,,32,,1,,,14,,,,,,,,,,,,,,
Raw,16800,16800000000,18,,634847,0.0,,157.574,,,10,,1,,,15,,,,,,,,,,,,,,
Raw,16800,16800000000,18,,634847,0.0,,157.574,,,11,,1,,,14,,,,,,,,,,,,,,
Raw,16800,16800000000,18,,634847,0.0,,157.574,,,14,,1,,,13,,,,,,,,,,,,,,
Raw,16800,16800000000,18,,634847,0.0,,157.574,,,20,,1,,,16,,,,,,,,,,,,,,
Raw,16800,16800000000,18,,634847,0.0,,157.574,,,25,,1,,,20,,,,,,,,,,,,,,
Raw,16800,16800000000,18,,634847,0.0,,157.574,,,32,,1,,,14,,,,,,,,,,,,,,
Raw,16900,16900000000,18,,634863,0.0,,157.574,,,10,,1,,,15,,,,,,,,,,,,,,
Raw,16900,16900000000,18,,634863,0.0,,157.574,,,11,,1,,,14,,,,,,,,,,,,,,
Raw,16900,16900000000,18,,634863,0.0,,157.574,,,14,,1,,,14,,,,,,,,,,,,,,
Raw,16900,16900000000,18,,634863,0.0,,157.574,,,20,,1,,,16,,,,,,,,,,,,,,
Raw,16900,16900000000,18,,634863,0.0,,157.574,,,25,,1,,,19,,,,,,,,,,,,,,
Raw,16900,16900000000,18,,634863,0.0,,157.574,,,32,,1,,,14,,,,,,,,,,,,,,
Raw,17000,17000000000,18,,634879,0.0,,157.574,,,10,,1,,,15,,,,,,,,,,,,,,
Raw,17000,17000000000,18,,634879,0.0,,157.574,,,11,,1,,,14,,,,,,,,,,,,,,
Raw,17000,17000000000,18,,634879,0.0,,157.574,,,14,,1,,,14,,,,,,,,,,,,,,
Raw,17000,17000000000,18,,634879,0.0,,157.574,,,20,,1,,,16,,,,,,,,,,,,,,
Raw,17000,17000000000,18,,634879,0.0,,157.574,,,25,,1,,,19,,,,,,,,,,,,,,
Raw,17000,17000000000,18,,634879,0.0,,157.574,,,32,,1,,,14,,,,,,,,,,,,,,
Raw,17100,17100000000,18,,634895,0.0,,157.574,,,10,,1,,,15,,,,,,,,,,,,,,
Raw,17100,17100000000,18,,634895,0.0,,157.574,,,11,,1,,,14,,,,,,,,,,,,,,
Raw,17100,17100000000,18,,634895,0.0,,157.574,,,14,,1,,,14,,,,,,,,,,,,,,
Raw,17100,17100000000,18,,634895,0.0,,157.574,,,20,,1,,,16,,,,,,,,,,,,,,
Raw,17100,17100000000,18,,634895,0.0,,157.574,,,25,,1,,,19,,,,,,,,,,,,,,
Raw,17100,17100000000,18,,634895,0.0,,157.574,,,31,,1,,,17,,,,,,,,,,,,,,
Raw,17100,17100000000,18,,634895,0.0,,157.574,,,32,,1,,,14,,,,,,,,,,,,,,
Raw,17200,17200000000,18,,634910,0.0,,157.574,,,10,,1,,,15,,,,,,,,,,,,,,
Raw,17200,17200000000,18,,634910,0.0,,157.574,,,11,,1,,,14,,,,,,,,,,,,,,
Raw,17200,17200000000,18,,634910,0.0,,157.574,,,14,,1,,,14,,,,,,,,,,,,,,
Raw,17200,17200000000,18,,634910,0.0,,157.574,,,20,,1,,,16,,,,,,,,,,,,,,
Raw,17200,17200000000,18,,634910,0.0,,157.574,,,25,,1,,,19,,,,,,,,,,,,,,
Raw,17200,17200000000,18,,634910,0.0,,157.574,,,31,,1,,,16,,,,,,,,,,,,,,
Raw,17200,17200000000,18,,634910,0.0,,157.574,,,32,,1,,,14,,,,,,,,,,,,,,
Raw,17300,17300000000,18,,634926,0.0,,157.574,,,10,,1,,,15,,,,,,,,,,,,,,
Raw,17300,17300000000,18,,634926,0.0,,157.574,,,11,,1,,,13,,,,,,,,,,,,,,
Raw,17300,17300000000,18,,634926,0.0,,157.574,,,14,,1,,,14,,,,,,,,,,,,,,
Raw,17300,17300000000,18,,634926,0.0,,157.574,,,20,,1,,,16,,,,,,,,,,,,,,
Raw,17300,17300000000,18,,634926,0.0,,157.574,,,25,,1,,,20,,,,,,,,,,,,,,
Raw,17300,17300000000,18,,634926,0.0,,157.574,,,31,,1,,,16,,,,,,,,,,,,,,
Raw,17300,17300000000,18,,634926,0.0,,157.574,,,32,,1,,,14,,,,,,,,,,,,,,
Raw,17400,17400000000,18,,634942,0.0,,157.574,,,10,,1,,,15,,,,,,,,,,,,,,
Raw,17400,17400000000,18,,634942,0.0,,157.574,,,11,,1,,,13,,,,,,,,,,,,,,
Raw,17400,17400000000,18,,634942,0.0,,157.574,,,14,,1,,,14,,,,,,,,,,,,,,
Raw,17400,17400000000,18,,634942,0.0,,157.574,,,20,,1,,,16,,,,,,,,,,,,,,
Raw,17400,17400000000,18,,634942,0.0,,157.574,,,25,,1,,,20,,,,,,,,,,,,,,
Raw,17400,17400000000,18,,634942,0.0,,157.574,,,31,,1,,,16,,,,,,,,,,,,,,
Raw,17400,17400000000,18,,634942,0.0,,157.574,,,32,,1,,,14,,,,,,,,,,,,,,
Raw,17500,17500000000,18,,634958,0.0,,157.574,,,10,,1,,,15,,,,,,,,,,,,,,
Raw,17500,17500000000,18,,634958,0.0,,157.574,,,11,,1,,,13,,,,,,,,,,,,,,
Raw,17500,17500000000,18,,634958,0.0,,157.574,,,14,,1,,,15,,,,,,,,,,,,,,
Raw,17500,17500000000,18,,634958,0.0,,157.574,,,20,,1,,,16,,,,,,,,,,,,,,
Raw,17500,17500000000,18,,634958,0.0,,157.574,,,25,,1,,,20,,,,,,,,,,,,,,
Raw,17500,17500000000,18,,634958,0.0,,157.574,,,31,,1,,,16,,,,,,,,,,,,,,
Raw,17500,17500000000,18,,634958,0.0,,157.574,,,32,,1,,,14,,,,,,,,,,,,,,
Raw,17600,17600000000,18,,634973,0.0,,157.574,,,10,,1,,,15,,,,,,,,,,,,,,
Raw,17600,17600000000,18,,634973,0.0,,157.574,,,11,,1,,,13,,,,,,,,,,,,,,
Raw,17600,17600000000,18,,634973,0.0,,157.574,,,14,,1,,,15,,,,,,,,,,,,,,
Raw,17600,17600000000,18,,634973,0.0,,157.574,,,20,,1,,,16,,,,,,,,,,,,,,
Raw,17600,17600000000,18,,634973,0.0,,157.574,,,25,,1,,,20,,,,,,,,,,,,,,
Raw,17600,17600000000,18,,634973,0.0,,157.574,,,31,,1,,,16,,,,,,,,,,,,,,
Raw,17600,17600000000,18,,634973,0.0,,157.574,,,32,,1,,,14,,,,,,,,,,,,,,
Raw,17700,17700000000,18,,634989,0.0,,157.574,,,10,,1,,,15,,,,,,,,,,,,,,
Raw,17700,17700000000,18,,634989,0.0,,157.574,,,11,,1,,,13,,,,,,,,,,,,,,
Raw,17700,17700000000,18,,634989,0.0,,157.574,,,14,,1,,,15,,,,,,,,,,,,,,
Raw,17700,17700000000,18,,634989,0.0,,157.574,,,20,,1,,,16,,,,,,,,,,,,,,
Raw,17700,17700000000,18,,634989,0.0,,157.574,,,25,,1,,,20,,,,,,,,,,,,,,
Raw,17700,17700000000,18,,634989,0.0,,157.574,,,31,,1,,,16,,,,,,,,,,,,,,
Raw,17700,17700000000,18,,634989,0.0,,157.574,,,32,,1,,,14,,,,,,,,,,,,,,
Raw,17800,17800000000,18,,635005,0.0,,157.574,,,10,,1,,,15,,,,,,,,,,,,,,
Raw,17800,17800000000,18,,635005,0.0,,157.574,,,11,,1,,,13,,,,,,,,,,,,,,
Raw,17800,17800000000,18,,635005,0.0,,157.574,,,14,,1,,,15,,,,,,,,,,,,,,
Raw,17800,17800000000,18,,635005,0.0,,157.574,,,20,,1,,,16,,,,,,,,,,,,,,
