# 
# Header Description:
# 
# Version: v2.0.0.1 Platform: 8.0.0 Manufacturer: Xiaomi Model: MIX 2
# 
# Raw,ElapsedRealtimeMillis,TimeNanos,LeapSecond,TimeUncertaintyNanos,FullBiasNanos,BiasNanos,BiasUncertaintyNanos,DriftNanosPerSecond,DriftUncertaintyNanosPerSecond,HardwareClockDiscontinuityCount,Svid,TimeOffsetNanos,State,ReceivedSvTimeNanos,ReceivedSvTimeUncertaintyNanos,Cn0DbHz,PseudorangeRateMetersPerSecond,PseudorangeRateUncertaintyMetersPerSecond,AccumulatedDeltaRangeState,AccumulatedDeltaRangeMeters,AccumulatedDeltaRangeUncertaintyMeters,CarrierFrequencyHz,CarrierCycles,CarrierPhase,CarrierPhaseUncertainty,MultipathIndicator,SnrInDb,ConstellationType,AgcDb,CarrierFrequencyHz
# 
# Fix,Provider,Latitude,Longitude,Altitude,Speed,Accuracy,(UTC)TimeInMs
# 
# Nav,Svid,Type,Status,MessageId,Sub-messageId,Data(Bytes)
# 
Raw,256920465,34280180000000,,,-1221704739252142592,0.0,14.517976524075493,14.856130421934441,9.514515663058273,76,10,0.0,15,43019363441427,5,46.6,-318.5557861328125,0.02250000089406967,0,0.0,0.0,,,,,0,,1,,
Raw,256920466,34280180000000,,,-1221704739252142592,0.0,14.517976524075493,14.856130421934441,9.514515663058273,76,12,0.0,15,43019358193794,4,44.8,11.642960548400879,0.04530000314116478,0,0.0,0.0,,,,,0,,1,,
Raw,256920467,34280180000000,,,-1221704739252142592,0.0,14.517976524075493,14.856130421934441,9.514515663058273,76,14,0.0,15,43019352925369,4,43.0,-261.75592041015625,0.03660000115633011,0,0.0,0.0,,,,,0,,1,,
Raw,256920467,34280180000000,,,-1221704739252142592,0.0,14.517976524075493,14.856130421934441,9.514515663058273,76,15,0.0,15,43019350405744,5,40.5,372.0106201171875,0.03440000116825104,0,0.0,0.0,,,,,0,,1,,
Raw,256920469,34280180000000,,,-1221704739252142592,0.0,14.517976524075493,14.856130421934441,9.514515663058273,76,20,0.0,15,43019365488985,4,49.4,86.22692108154297,0.025300001725554466,0,0.0,0.0,,,,,0,,1,,
Raw,256920470,34280180000000,,,-1221704739252142592,0.0,14.517976524075493,14.856130421934441,9.514515663058273,76,21,0.0,15,43019356157936,4,43.2,472.3996276855469,0.04260000213980675,0,0.0,0.0,,,,,0,,1,,
Raw,256920470,34280180000000,,,-1221704739252142592,0.0,14.517976524075493,14.856130421934441,9.514515663058273,76,24,0.0,15,43019354017961,4,42.2,616.95361328125,0.0398000031709671,0,0.0,0.0,,,,,0,,1,,
Raw,256920471,34280180000000,,,-1221704739252142592,0.0,14.517976524075493,14.856130421934441,9.514515663058273,76,25,0.0,15,43019359377494,4,45.6,-404.22760009765625,0.04660000279545784,0,0.0,0.0,,,,,0,,1,,
Raw,256920472,34280180000000,,,-1221704739252142592,0.0,14.517976524075493,14.856130421934441,9.514515663058273,76,31,0.0,15,43019355809393,4,43.4,-529.8221435546875,0.04110000282526016,0,0.0,0.0,,,,,0,,1,,
Raw,256920472,34280180000000,,,-1221704739252142592,0.0,14.517976524075493,14.856130421934441,9.514515663058273,76,32,0.0,15,43019357158639,4,45.2,-228.6862335205078,0.04360000044107437,0,0.0,0.0,,,,,0,,1,,
Raw,256921455,34281180000000,,,-1221704739252142592,0.0,14.517957424686756,11.237781384765665,9.514496576367646,76,10,0.0,15,43020363442493,4,45.8,-319.030517578125,0.022600000724196434,0,0.0,0.0,,,,,0,,1,,
Raw,256921456,34281180000000,,,-1221704739252142592,0.0,14.517957424686756,11.237781384765665,9.514496576367646,76,12,0.0,15,43020358193755,4,42.7,11.135228157043457,0.04580000042915344,0,0.0,0.0,,,,,0,,1,,
Raw,256921458,34281180000000,,,-1221704739252142592,0.0,14.517957424686756,11.237781384765665,9.514496576367646,76,14,0.0,15,43020352926244,5,41.1,-262.3595886230469,0.03710000216960907,0,0.0,0.0,,,,,0,,1,,
Raw,256921459,34281180000000,,,-1221704739252142592,0.0,14.517957424686756,11.237781384765665,9.514496576367646,76,15,0.0,15,43020350404512,6,39.2,371.4195251464844,0.03460000082850456,0,0.0,0.0,,,,,0,,1,,
Raw,256921460,34281180000000,,,-1221704739252142592,0.0,14.517957424686756,11.237781384765665,9.514496576367646,76,20,0.0,15,43020365488697,5,48.2,85.76962280273438,0.025300001725554466,0,0.0,0.0,,,,,0,,1,,
Raw,256921461,34281180000000,,,-1221704739252142592,0.0,14.517957424686756,11.237781384765665,9.514496576367646,76,21,0.0,15,43020356156361,5,41.9,471.8121032714844,0.04310000315308571,0,0.0,0.0,,,,,0,,1,,
Raw,256921462,34281180000000,,,-1221704739252142592,0.0,14.517957424686756,11.237781384765665,9.514496576367646,76,24,0.0,15,43020354015904,5,40.6,616.355712890625,0.040400002151727676,0,0.0,0.0,,,,,0,,1,,
Raw,256921462,34281180000000,,,-1221704739252142592,0.0,14.517957424686756,11.237781384765665,9.514496576367646,76,25,0.0,15,43020359378847,4,44.2,-404.78125,0.046800002455711365,0,0.0,0.0,,,,,0,,1,,
Raw,256921463,34281180000000,,,-1221704739252142592,0.0,14.517957424686756,11.237781384765665,9.514496576367646,76,31,0.0,15,43020355811159,5,41.9,-530.376708984375,0.041600000113248825,0,0.0,0.0,,,,,0,,1,,
Raw,256921464,34281180000000,,,-1221704739252142592,0.0,14.517957424686756,11.237781384765665,9.514496576367646,76,32,0.0,15,43020357159403,4,43.2,-229.31072998046875,0.04410000145435333,0,0.0,0.0,,,,,0,,1,,
Raw,256922457,34282180000000,,,-1221704739252142592,0.0,14.517938325298019,9.10901494427368,9.514476694398242,76,10,0.0,15,43021363443538,5,47.2,-317.14520263671875,0.022300001233816147,0,0.0,0.0,,,,,0,,1,,
Raw,256922458,34282180000000,,,-1221704739252142592,0.0,14.517938325298019,9.10901494427368,9.514476694398242,76,12,0.0,15,43021358193707,4,45.1,13.075019836425781,0.045100003480911255,0,0.0,0.0,,,,,0,,1,,
Raw,256922461,34282180000000,,,-1221704739252142592,0.0,14.517938325298019,9.10901494427368,9.514476694398242,76,14,0.0,15,43021352927099,4,43.1,-260.5482482910156,0.03660000115633011,0,0.0,0.0,,,,,0,,1,,
Raw,256922462,34282180000000,,,-1221704739252142592,0.0,14.517938325298019,9.10901494427368,9.514476694398242,76,15,0.0,15,43021350403260,5,40.3,373.233154296875,0.03440000116825104,0,0.0,0.0,,,,,0,,1,,
Raw,256922463,34282180000000,,,-1221704739252142592,0.0,14.517938325298019,9.10901494427368,9.514476694398242,76,20,0.0,15,43021365488400,4,49.4,87.68534851074219,0.025300001725554466,0,0.0,0.0,,,,,0,,1,,
Raw,256922464,34282180000000,,,-1221704739252142592,0.0,14.517938325298019,9.10901494427368,9.514476694398242,76,21,0.0,15,43021356154777,4,43.0,473.65155029296875,0.04260000213980675,0,0.0,0.0,,,,,0,,1,,
Raw,256922465,34282180000000,,,-1221704739252142592,0.0,14.517938325298019,9.10901494427368,9.514476694398242,76,24,0.0,15,43021354013837,5,41.6,618.169677734375,0.04010000079870224,0,0.0,0.0,,,,,0,,1,,
Raw,256922465,34282180000000,,,-1221704739252142592,0.0,14.517938325298019,9.10901494427368,9.514476694398242,76,25,0.0,15,43021359380185,5,46.1,-402.8786926269531,0.04650000110268593,0,0.0,0.0,,,,,0,,1,,
Raw,256922466,34282180000000,,,-1221704739252142592,0.0,14.517938325298019,9.10901494427368,9.514476694398242,76,31,0.0,15,43021355812922,4,43.3,-528.4895629882812,0.04110000282526016,0,0.0,0.0,,,,,0,,1,,
Raw,256922466,34282180000000,,,-1221704739252142592,0.0,14.517938325298019,9.10901494427368,9.514476694398242,76,32,0.0,15,43021357160154,4,45.3,-227.49713134765625,0.04360000044107437,0,0.0,0.0,,,,,0,,1,,
Raw,256923461,34283180000000,,,-1221704739252142592,0.0,14.51791831641458,15.159589716228155,9.514457607707614,76,10,0.0,15,43022363444601,5,46.5,-316.5899963378906,0.02250000089406967,0,0.0,0.0,,,,,0,,1,,
Raw,256923461,34283180000000,,,-1221704739252142592,0.0,14.51791831641458,15.159589716228155,9.514457607707614,76,12,0.0,15,43022358193664,4,44.6,13.680814743041992,0.04530000314116478,0,0.0,0.0,,,,,0,,1,,
Raw,256923462,34283180000000,,,-1221704739252142592,0.0,14.51791831641458,15.159589716228155,9.514457607707614,76,14,0.0,15,43022352927976,4,43.0,-260.06658935546875,0.03660000115633011,0,0.0,0.0,,,,,0,,1,,
Raw,256923462,34283180000000,,,-1221704739252142592,0.0,14.51791831641458,15.159589716228155,9.514457607707614,76,15,0.0,15,43022350402014,5,40.5,373.7229309082031,0.03440000116825104,0,0.0,0.0,,,,,0,,1,,
Raw,256923462,34283180000000,,,-1221704739252142592,0.0,14.51791831641458,15.159589716228155,9.514457607707614,76,20,0.0,15,43022365488111,4,49.9,88.27371215820312,0.025300001725554466,0,0.0,0.0,,,,,0,,1,,
Raw,256923462,34283180000000,,,-1221704739252142592,0.0,14.51791831641458,15.159589716228155,9.514457607707614,76,21,0.0,15,43022356153200,4,43.8,474.169921875,0.04260000213980675,0,0.0,0.0,,,,,0,,1,,
Raw,256923463,34283180000000,,,-1221704739252142592,0.0,14.51791831641458,15.159589716228155,9.514457607707614,76,24,0.0,15,43022354011775,4,42.9,618.6736450195312,0.0398000031709671,0,0.0,0.0,,,,,0,,1,,
Raw,256923463,34283180000000,,,-1221704739252142592,0.0,14.51791831641458,15.159589716228155,9.514457607707614,76,25,0.0,15,43022359381529,4,45.6,-402.30645751953125,0.04660000279545784,0,0.0,0.0,,,,,0,,1,,
Raw,256923463,34283180000000,,,-1221704739252142592,0.0,14.51791831641458,15.159589716228155,9.514457607707614,76,31,0.0,15,43022355814685,4,44.1,-527.9323120117188,0.040800001472234726,0,0.0,0.0,,,,,0,,1,,
Raw,256923464,34283180000000,,,-1221704739252142592,0.0,14.51791831641458,15.159589716228155,9.514457607707614,76,32,0.0,15,43022357160920,4,45.8,-227.00729370117188,0.04360000044107437,0,0.0,0.0,,,,,0,,1,,
Raw,256924443,34284180000000,,,-1221704739252142592,0.0,14.517899217025843,16.812535297989537,9.51443772573821,76,10,0.0,15,43023363445655,5,46.8,-317.2889709472656,0.02250000089406967,0,0.0,0.0,,,,,0,,1,,
Raw,256924443,34284180000000,,,-1221704739252142592,0.0,14.517899217025843,16.812535297989537,9.51443772573821,76,12,0.0,15,43023358193618,4,45.4,13.025168418884277,0.045100003480911255,0,0.0,0.0,,,,,0,,1,,
Raw,256924444,34284180000000,,,-1221704739252142592,0.0,14.517899217025843,16.812535297989537,9.51443772573821,76,14,0.0,15,43023352928835,4,43.4,-260.8421325683594,0.03660000115633011,0,0.0,0.0,,,,,0,,1,,
Raw,256924445,34284180000000,,,-1221704739252142592,0.0,14.517899217025843,16.812535297989537,9.51443772573821,76,15,0.0,15,43023350400770,5,40.9,372.94195556640625,0.03440000116825104,0,0.0,0.0,,,,,0,,1,,
Raw,256924446,34284180000000,,,-1221704739252142592,0.0,14.517899217025843,16.812535297989537,9.51443772573821,76,20,0.0,15,43023365487812,4,50.3,87.60103607177734,0.025300001725554466,0,0.0,0.0,,,,,0,,1,,
Raw,256924446,34284180000000,,,-1221704739252142592,0.0,14.517899217025843,16.812535297989537,9.51443772573821,76,21,0.0,15,43023356151610,4,43.8,473.4168395996094,0.04260000213980675,0,0.0,0.0,,,,,0,,1,,
Raw,256924446,34284180000000,,,-1221704739252142592,0.0,14.517899217025843,16.812535297989537,9.51443772573821,76,24,0.0,15,43023354009706,4,42.9,617.8904418945312,0.0398000031709671,0,0.0,0.0,,,,,0,,1,,
Raw,256924447,34284180000000,,,-1221704739252142592,0.0,14.517899217025843,16.812535297989537,9.51443772573821,76,25,0.0,15,43023359382870,5,46.5,-402.99957275390625,0.04650000110268593,0,0.0,0.0,,,,,0,,1,,
Raw,256924447,34284180000000,,,-1221704739252142592,0.0,14.517899217025843,16.812535297989537,9.51443772573821,76,31,0.0,15,43023355816445,4,44.2,-528.6438598632812,0.040800001472234726,0,0.0,0.0,,,,,0,,1,,
Raw,256924448,34284180000000,,,-1221704739252142592,0.0,14.517899217025843,16.812535297989537,9.51443772573821,76,32,0.0,15,43023357161672,4,45.6,-227.78211975097656,0.04360000044107437,0,0.0,0.0,,,,,0,,1,,
Raw,256925462,34285180000000,,,-1221704739252142592,0.0,14.517880117637105,14.205317216575395,9.514418639047582,76,10,0.0,15,43024363446705,4,45.5,-317.5010986328125,0.022600000724196434,0,0.0,0.0,,,,,0,,1,,
Raw,256925463,34285180000000,,,-1221704739252142592,0.0,14.517880117637105,14.205317216575395,9.514418639047582,76,12,0.0,15,43024358193565,4,42.8,12.851888656616211,0.04580000042915344,0,0.0,0.0,,,,,0,,1,,
Raw,256925464,34285180000000,,,-1221704739252142592,0.0,14.517880117637105,14.205317216575395,9.514418639047582,76,14,0.0,15,43024352929703,5,40.8,-261.13702392578125,0.03739999979734421,0,0.0,0.0,,,,,0,,1,,
Raw,256925465,34285180000000,,,-1221704739252142592,0.0,14.517880117637105,14.205317216575395,9.514418639047582,76,15,0.0,15,43024350399518,6,38.8,372.6645202636719,0.035100001841783524,0,0.0,0.0,,,,,0,,1,,
Raw,256925465,34285180000000,,,-1221704739252142592,0.0,14.517880117637105,14.205317216575395,9.514418639047582,76,20,0.0,15,43024365487512,5,48.0,87.42002868652344,0.025300001725554466,0,0.0,0.0,,,,,0,,1,,
Raw,256925466,34285180000000,,,-1221704739252142592,0.0,14.517880117637105,14.205317216575395,9.514418639047582,76,21,0.0,15,43024356150030,5,41.6,473.15374755859375,0.04310000315308571,0,0.0,0.0,,,,,0,,1,,
Raw,256925467,34285180000000,,,-1221704739252142592,0.0,14.517880117637105,14.205317216575395,9.514418639047582,76,24,0.0,15,43024354007636,5,40.6,617.6124877929688,0.040400002151727676,0,0.0,0.0,,,,,0,,1,,
Raw,256925467,34285180000000,,,-1221704739252142592,0.0,14.517880117637105,14.205317216575395,9.514418639047582,76,25,0.0,15,43024359384209,4,44.2,-403.206787109375,0.046800002455711365,0,0.0,0.0,,,,,0,,1,,
Raw,256925468,34285180000000,,,-1221704739252142592,0.0,14.517880117637105,14.205317216575395,9.514418639047582,76,31,0.0,15,43024355818199,5,41.7,-528.8677978515625,0.041600000113248825,0,0.0,0.0,,,,,0,,1,,
Raw,256925469,34285180000000,,,-1221704739252142592,0.0,14.517880117637105,14.205317216575395,9.514418639047582,76,32,0.0,15,43024357162421,4,42.8,-228.0698699951172,0.04430000111460686,0,0.0,0.0,,,,,0,,1,,
Raw,256926460,34286180000000,,,-1221704739252142592,0.0,14.517860108753666,13.246883023086966,9.514398757078178,76,10,0.0,15,43025363447767,5,47.5,-317.2392272949219,0.022300001233816147,0,0.0,0.0,,,,,0,,1,,
Raw,256926460,34286180000000,,,-1221704739252142592,0.0,14.517860108753666,13.246883023086966,9.514398757078178,76,12,0.0,15,43025358193526,4,44.7,13.142292976379395,0.04530000314116478,0,0.0,0.0,,,,,0,,1,,
Raw,256926461,34286180000000,,,-1221704739252142592,0.0,14.517860108753666,13.246883023086966,9.514398757078178,76,14,0.0,15,43025352930578,4,43.0,-260.96832275390625,0.03660000115633011,0,0.0,0.0,,,,,0,,1,,
Raw,256926462,34286180000000,,,-1221704739252142592,0.0,14.517860108753666,13.246883023086966,9.514398757078178,76,15,0.0,15,43025350398272,5,40.6,372.83746337890625,0.03440000116825104,0,0.0,0.0,,,,,0,,1,,
Raw,256926462,34286180000000,,,-1221704739252142592,0.0,14.517860108753666,13.246883023086966,9.514398757078178,76,20,0.0,15,43025365487223,4,49.9,87.71085357666016,0.025300001725554466,0,0.0,0.0,,,,,0,,1,,
Raw,256926463,34286180000000,,,-1221704739252142592,0.0,14.517860108753666,13.246883023086966,9.514398757078178,76,21,0.0,15,43025356148452,4,43.4,473.34979248046875,0.04260000213980675,0,0.0,0.0,,,,,0,,1,,
Raw,256926463,34286180000000,,,-1221704739252142592,0.0,14.517860108753666,13.246883023086966,9.514398757078178,76,24,0.0,15,43025354005585,4,42.5,617.7796020507812,0.0398000031709671,0,0.0,0.0,,,,,0,,1,,
Raw,256926464,34286180000000,,,-1221704739252142592,0.0,14.517860108753666,13.246883023086966,9.514398757078178,76,25,0.0,15,43025359385555,5,46.3,-402.9592590332031,0.04650000110268593,0,0.0,0.0,,,,,0,,1,,
Raw,256926464,34286180000000,,,-1221704739252142592,0.0,14.517860108753666,13.246883023086966,9.514398757078178,76,31,0.0,15,43025355819959,4,43.8,-528.630126953125,0.04110000282526016,0,0.0,0.0,,,,,0,,1,,
Raw,256926465,34286180000000,,,-1221704739252142592,0.0,14.517860108753666,13.246883023086966,9.514398757078178,76,32,0.0,15,43025357163185,4,45.4,-227.89732360839844,0.04360000044107437,0,0.0,0.0,,,,,0,,1,,
Raw,256927454,34287180000000,,,-1221704739252142592,0.0,14.517840099870227,13.77560741656558,9.51437967038755,76,10,0.0,15,43026363448816,5,46.8,-316.6968688964844,0.02250000089406967,0,0.0,0.0,,,,,0,,1,,
Raw,256927455,34287180000000,,,-1221704739252142592,0.0,14.517840099870227,13.77560741656558,9.51437967038755,76,12,0.0,15,43026358193467,4,43.6,13.630905151367188,0.04560000076889992,0,0.0,0.0,,,,,0,,1,,
Raw,256927455,34287180000000,,,-1221704739252142592,0.0,14.517840099870227,13.77560741656558,9.51437967038755,76,14,0.0,15,43026352931439,4,42.2,-260.5010070800781,0.03680000081658363,0,0.0,0.0,,,,,0,,1,,
Raw,256927456,34287180000000,,,-1221704739252142592,0.0,14.517840099870227,13.77560741656558,9.51437967038755,76,15,0.0,15,43026350397014,6,39.9,373.3087158203125,0.03460000082850456,0,0.0,0.0,,,,,0,,1,,
Raw,256927457,34287180000000,,,-1221704739252142592,0.0,14.517840099870227,13.77560741656558,9.51437967038755,76,20,0.0,15,43026365486920,4,49.3,88.28173065185547,0.025300001725554466,0,0.0,0.0,,,,,0,,1,,
Raw,256927458,34287180000000,,,-1221704739252142592,0.0,14.517840099870227,13.77560741656558,9.51437967038755,76,21,0.0,15,43026356146860,4,43.2,473.8455505371094,0.04260000213980675,0,0.0,0.0,,,,,0,,1,,
Raw,256927459,34287180000000,,,-1221704739252142592,0.0,14.517840099870227,13.77560741656558,9.51437967038755,76,24,0.0,15,43026354003511,4,42.0,618.265380859375,0.0398000031709671,0,0.0,0.0,,,,,0,,1,,
Raw,256927460,34287180000000,,,-1221704739252142592,0.0,14.517840099870227,13.77560741656558,9.51437967038755,76,25,0.0,15,43026359386885,4,45.5,-402.40582275390625,0.04660000279545784,0,0.0,0.0,,,,,0,,1,,
Raw,256927460,34287180000000,,,-1221704739252142592,0.0,14.517840099870227,13.77560741656558,9.51437967038755,76,31,0.0,15,43026355821718,4,42.8,-528.0953979492188,0.04130000248551369,0,0.0,0.0,,,,,0,,1,,
Raw,256927460,34287180000000,,,-1221704739252142592,0.0,14.517840099870227,13.77560741656558,9.51437967038755,76,32,0.0,15,43026357163936,4,44.6,-227.52088928222656,0.043800003826618195,0,0.0,0.0,,,,,0,,1,,
Raw,256928457,34288180000000,,,-1221704739252142592,0.0,14.51782100048149,15.310190067512858,9.514359788418146,76,10,0.0,15,43027363449881,5,47.4,-316.5832214355469,0.022300001233816147,0,0.0,0.0,,,,,0,,1,,
Raw,256928458,34288180000000,,,-1221704739252142592,0.0,14.51782100048149,15.310190067512858,9.514359788418146,76,12,0.0,15,43027358193440,4,44.0,13.888404846191406,0.04530000314116478,0,0.0,0.0,,,,,0,,1,,
Raw,256928458,34288180000000,,,-1221704739252142592,0.0,14.51782100048149,15.310190067512858,9.514359788418146,76,14,0.0,15,43027352932313,4,42.0,-260.46343994140625,0.03680000081658363,0,0.0,0.0,,,,,0,,1,,
Raw,256928459,34288180000000,,,-1221704739252142592,0.0,14.51782100048149,15.310190067512858,9.514359788418146,76,15,0.0,15,43027350395799,5,40.0,373.35009765625,0.03440000116825104,0,0.0,0.0,,,,,0,,1,,
Raw,256928459,34288180000000,,,-1221704739252142592,0.0,14.51782100048149,15.310190067512858,9.514359788418146,76,20,0.0,15,43027365486639,4,49.5,88.42998504638672,0.025300001725554466,0,0.0,0.0,,,,,0,,1,,
Raw,256928460,34288180000000,,,-1221704739252142592,0.0,14.51782100048149,15.310190067512858,9.514359788418146,76,21,0.0,15,43027356145290,4,42.9,473.91217041015625,0.04280000180006027,0,0.0,0.0,,,,,0,,1,,
Raw,256928460,34288180000000,,,-1221704739252142592,0.0,14.51782100048149,15.310190067512858,9.514359788418146,76,24,0.0,15,43027354001459,5,41.6,618.3013305664062,0.04010000079870224,0,0.0,0.0,,,,,0,,1,,
Raw,256928460,34288180000000,,,-1221704739252142592,0.0,14.51782100048149,15.310190067512858,9.514359788418146,76,25,0.0,15,43027359388239,4,45.3,-402.2828063964844,0.04660000279545784,0,0.0,0.0,,,,,0,,1,,
Raw,256928461,34288180000000,,,-1221704739252142592,0.0,14.51782100048149,15.310190067512858,9.514359788418146,76,31,0.0,15,43027355823492,4,42.9,-527.9873657226562,0.04130000248551369,0,0.0,0.0,,,,,0,,1,,
Raw,256928461,34288180000000,,,-1221704739252142592,0.0,14.51782100048149,15.310190067512858,9.514359788418146,76,32,0.0,15,43027357164707,4,44.7,-227.3934783935547,0.043800003826618195,0,0.0,0.0,,,,,0,,1,,
Raw,256929455,34289180000000,,,-1221704739252142336,0.0,14.517801901092753,15.47694253074146,9.514340701727518,76,10,0.0,15,43028363450933,5,46.2,-316.4934387207031,0.02250000089406967,0,0.0,0.0,,,,,0,,1,,
Raw,256929456,34289180000000,,,-1221704739252142336,0.0,14.517801901092753,15.47694253074146,9.514340701727518,76,12,0.0,15,43028358193386,4,42.5,14.008466720581055,0.04580000042915344,0,0.0,0.0,,,,,0,,1,,
Raw,256929456,34289180000000,,,-1221704739252142336,0.0,14.517801901092753,15.47694253074146,9.514340701727518,76,14,0.0,15,43028352933175,5,40.3,-260.4700927734375,0.03739999979734421,0,0.0,0.0,,,,,0,,1,,
Raw,256929457,34289180000000,,,-1221704739252142336,0.0,14.517801901092753,15.47694253074146,9.514340701727518,76,15,0.0,15,43028350394534,6,38.4,373.35919189453125,0.035100001841783524,0,0.0,0.0,,,,,0,,1,,
Raw,256929457,34289180000000,,,-1221704739252142336,0.0,14.517801901092753,15.47694253074146,9.514340701727518,76,20,0.0,15,43028365486331,5,47.8,88.54434204101562,0.025300001725554466,0,0.0,0.0,,,,,0,,1,,
Raw,256929458,34289180000000,,,-1221704739252142336,0.0,14.517801901092753,15.47694253074146,9.514340701727518,76,21,0.0,15,43028356143708,5,41.5,473.9360046386719,0.04310000315308571,0,0.0,0.0,,,,,0,,1,,
Raw,256929459,34289180000000,,,-1221704739252142336,0.0,14.517801901092753,15.47694253074146,9.514340701727518,76,24,0.0,15,43028353999393,5,40.2,618.3201293945312,0.03890000283718109,0,0.0,0.0,,,,,0,,1,,
Raw,256929459,34289180000000,,,-1221704739252142336,0.0,14.517801901092753,15.47694253074146,9.514340701727518,76,25,0.0,15,43028359389576,4,43.8,-402.195556640625,0.0471000038087368,0,0.0,0.0,,,,,0,,1,,
Raw,256929460,34289180000000,,,-1221704739252142336,0.0,14.517801901092753,15.47694253074146,9.514340701727518,76,31,0.0,15,43028355825243,5,40.8,-527.9110717773438,0.04190000146627426,0,0.0,0.0,,,,,0,,1,,
Raw,256929460,34289180000000,,,-1221704739252142336,0.0,14.517801901092753,15.47694253074146,9.514340701727518,76,32,0.0,15,43028357165458,4,42.9,-227.38819885253906,0.04430000111460686,0,0.0,0.0,,,,,0,,1,,
Raw,256930457,34290180000000,,,-1221704739252142336,0.0,14.517781892209314,15.477615336586096,9.514320819758114,76,10,0.0,15,43029363451978,5,48.6,-316.4977111816406,0.022300001233816147,0,0.0,0.0,,,,,0,,1,,
Raw,256930458,34290180000000,,,-1221704739252142336,0.0,14.517781892209314,15.477615336586096,9.514320819758114,76,12,0.0,15,43029358193323,4,45.2,14.04222297668457,0.045100003480911255,0,0.0,0.0,,,,,0,,1,,
Raw,256930459,34290180000000,,,-1221704739252142336,0.0,14.517781892209314,15.477615336586096,9.514320819758114,76,14,0.0,15,43029352934037,4,42.9,-260.56353759765625,0.03680000081658363,0,0.0,0.0,,,,,0,,1,,
Raw,256930459,34290180000000,,,-1221704739252142336,0.0,14.517781892209314,15.477615336586096,9.514320819758114,76,15,0.0,15,43029350393283,5,41.3,373.2806396484375,0.0340999998152256,0,0.0,0.0,,,,,0,,1,,
Raw,256930460,34290180000000,,,-1221704739252142336,0.0,14.517781892209314,15.477615336586096,9.514320819758114,76,20,0.0,15,43029365486026,4,50.1,88.56666564941406,0.025300001725554466,0,0.0,0.0,,,,,0,,1,,
Raw,256930460,34290180000000,,,-1221704739252142336,0.0,14.517781892209314,15.477615336586096,9.514320819758114,76,21,0.0,15,43029356142118,4,44.0,473.8848876953125,0.04230000078678131,0,0.0,0.0,,,,,0,,1,,
Raw,256930461,34290180000000,,,-1221704739252142336,0.0,14.517781892209314,15.477615336586096,9.514320819758114,76,24,0.0,15,43029353997316,4,42.6,618.2314453125,0.03830000013113022,0,0.0,0.0,,,,,0,,1,,
Raw,256930461,34290180000000,,,-1221704739252142336,0.0,14.517781892209314,15.477615336586096,9.514320819758114,76,25,0.0,15,43029359390914,5,46.8,-402.19927978515625,0.04650000110268593,0,0.0,0.0,,,,,0,,1,,
Raw,256930461,34290180000000,,,-1221704739252142336,0.0,14.517781892209314,15.477615336586096,9.514320819758114,76,31,0.0,15,43029355826996,4,44.1,-527.9349975585938,0.040800001472234726,0,0.0,0.0,,,,,0,,1,,
Raw,256930462,34290180000000,,,-1221704739252142336,0.0,14.517781892209314,15.477615336586096,9.514320819758114,76,32,0.0,15,43029357166208,4,45.6,-227.47947692871094,0.04360000044107437,0,0.0,0.0,,,,,0,,1,,
Raw,256931451,34291180000000,,,-1221704739252142336,0.0,14.517762792820577,15.177208322235302,9.514301733067486,76,10,0.0,15,43030363453040,5,46.7,-316.8186950683594,0.02250000089406967,0,0.0,0.0,,,,,0,,1,,
Raw,256931452,34291180000000,,,-1221704739252142336,0.0,14.517762792820577,15.177208322235302,9.514301733067486,76,12,0.0,15,43030358193279,4,44.3,13.773077964782715,0.04530000314116478,0,0.0,0.0,,,,,0,,1,,
Raw,256931452,34291180000000,,,-1221704739252142336,0.0,14.517762792820577,15.177208322235302,9.514301733067486,76,14,0.0,15,43030352934910,4,42.0,-260.95916748046875,0.03680000081658363,0,0.0,0.0,,,,,0,,1,,
Raw,256931452,34291180000000,,,-1221704739252142336,0.0,14.517762792820577,15.177208322235302,9.514301733067486,76,15,0.0,15,43030350392042,6,39.9,372.88677978515625,0.03460000082850456,0,0.0,0.0,,,,,0,,1,,
Raw,256931453,34291180000000,,,-1221704739252142336,0.0,14.517762792820577,15.177208322235302,9.514301733067486,76,20,0.0,15,43030365485740,4,49.2,88.28041076660156,0.025300001725554466,0,0.0,0.0,,,,,0,,1,,
Raw,256931453,34291180000000,,,-1221704739252142336,0.0,14.517762792820577,15.177208322235302,9.514301733067486,76,21,0.0,15,43030356140544,4,42.6,473.5245666503906,0.04280000180006027,0,0.0,0.0,,,,,0,,1,,
Raw,256931454,34291180000000,,,-1221704739252142336,0.0,14.517762792820577,15.177208322235302,9.514301733067486,76,24,0.0,15,43030353995262,5,41.3,617.8478393554688,0.038600001484155655,0,0.0,0.0,,,,,0,,1,,
Raw,256931455,34291180000000,,,-1221704739252142336,0.0,14.517762792820577,15.177208322235302,9.514301733067486,76,25,0.0,15,43030359392253,4,45.5,-402.50238037109375,0.04660000279545784,0,0.0,0.0,,,,,0,,1,,
Raw,256931455,34291180000000,,,-1221704739252142336,0.0,14.517762792820577,15.177208322235302,9.514301733067486,76,31,0.0,15,43030355828763,4,42.7,-528.259765625,0.04130000248551369,0,0.0,0.0,,,,,0,,1,,
Raw,256931456,34291180000000,,,-1221704739252142336,0.0,14.517762792820577,15.177208322235302,9.514301733067486,76,32,0.0,15,43030357166969,4,44.6,-227.86265563964844,0.043800003826618195,0,0.0,0.0,,,,,0,,1,,
Raw,256932452,34292180000000,,,-1221704739252142336,0.0,14.51774369343184,13.876276985167577,9.514281851098081,76,10,0.0,15,43031363454084,5,48.0,-316.7868957519531,0.022300001233816147,0,0.0,0.0,,,,,0,,1,,
Raw,256932453,34292180000000,,,-1221704739252142336,0.0,14.51774369343184,13.876276985167577,9.514281851098081,76,12,0.0,15,43031358193220,4,45.8,13.824552536010742,0.045100003480911255,0,0.0,0.0,,,,,0,,1,,
Raw,256932453,34292180000000,,,-1221704739252142336,0.0,14.51774369343184,13.876276985167577,9.514281851098081,76,14,0.0,15,43031352935772,4,43.5,-261.02178955078125,0.03660000115633011,0,0.0,0.0,,,,,0,,1,,
Raw,256932454,34292180000000,,,-1221704739252142336,0.0,14.51774369343184,13.876276985167577,9.514281851098081,76,15,0.0,15,43031350390785,5,41.2,372.8380126953125,0.0340999998152256,0,0.0,0.0,,,,,0,,1,,
Raw,256932455,34292180000000,,,-1221704739252142336,0.0,14.51774369343184,13.876276985167577,9.514281851098081,76,20,0.0,15,43031365485434,4,50.7,88.34032440185547,0.025300001725554466,0,0.0,0.0,,,,,0,,1,,
Raw,256932455,34292180000000,,,-1221704739252142336,0.0,14.51774369343184,13.876276985167577,9.514281851098081,76,21,0.0,15,43031356138953,4,44.3,473.4911193847656,0.04230000078678131,0,0.0,0.0,,,,,0,,1,,
Raw,256932456,34292180000000,,,-1221704739252142336,0.0,14.51774369343184,13.876276985167577,9.514281851098081,76,24,0.0,15,43031353993190,4,43.0,617.7879638671875,0.038100000470876694,0,0.0,0.0,,,,,0,,1,,
Raw,256932457,34292180000000,,,-1221704739252142336,0.0,14.51774369343184,13.876276985167577,9.514281851098081,76,25,0.0,15,43031359393590,5,47.0,-402.48480224609375,0.046300001442432404,0,0.0,0.0,,,,,0,,1,,
Raw,256932457,34292180000000,,,-1221704739252142336,0.0,14.51774369343184,13.876276985167577,9.514281851098081,76,31,0.0,15,43031355830516,4,44.7,-528.2573852539062,0.040800001472234726,0,0.0,0.0,,,,,0,,1,,
Raw,256932458,34292180000000,,,-1221704739252142336,0.0,14.51774369343184,13.876276985167577,9.514281851098081,76,32,0.0,15,43031357167717,5,46.2,-227.91610717773438,0.04350000247359276,0,0.0,0.0,,,,,0,,1,,
Raw,256933451,34293180000000,,,-1221704739252142336,0.0,14.5177236845484,13.646707041967298,9.514262764407453,76,10,0.0,15,43032363455143,5,46.3,-316.17156982421875,0.02250000089406967,0,0.0,0.0,,,,,0,,1,,
Raw,256933452,34293180000000,,,-1221704739252142336,0.0,14.5177236845484,13.646707041967298,9.514262764407453,76,12,0.0,15,43032358193178,4,43.0,14.47447395324707,0.04560000076889992,0,0.0,0.0,,,,,0,,1,,
Raw,256933453,34293180000000,,,-1221704739252142336,0.0,14.5177236845484,13.646707041967298,9.514262764407453,76,14,0.0,15,43032352936646,5,41.5,-260.48712158203125,0.03710000216960907,0,0.0,0.0,,,,,0,,1,,
Raw,256933454,34293180000000,,,-1221704739252142336,0.0,14.5177236845484,13.646707041967298,9.514262764407453,76,15,0.0,15,43032350389539,6,39.2,373.3755187988281,0.03460000082850456,0,0.0,0.0,,,,,0,,1,,
Raw,256933454,34293180000000,,,-1221704739252142336,0.0,14.5177236845484,13.646707041967298,9.514262764407453,76,20,0.0,15,43032365485141,5,48.6,88.98222351074219,0.025300001725554466,0,0.0,0.0,,,,,0,,1,,
Raw,256933455,34293180000000,,,-1221704739252142336,0.0,14.5177236845484,13.646707041967298,9.514262764407453,76,21,0.0,15,43032356137364,5,41.8,474.0431213378906,0.04310000315308571,0,0.0,0.0,,,,,0,,1,,
Raw,256933456,34293180000000,,,-1221704739252142336,0.0,14.5177236845484,13.646707041967298,9.514262764407453,76,24,0.0,15,43032353991130,5,41.5,618.3358764648438,0.038600001484155655,0,0.0,0.0,,,,,0,,1,,
Raw,256933456,34293180000000,,,-1221704739252142336,0.0,14.5177236845484,13.646707041967298,9.514262764407453,76,25,0.0,15,43032359394929,4,44.7,-401.8726806640625,0.046800002455711365,0,0.0,0.0,,,,,0,,1,,
Raw,256933457,34293180000000,,,-1221704739252142336,0.0,14.5177236845484,13.646707041967298,9.514262764407453,76,31,0.0,15,43032355832281,4,42.0,-527.6566162109375,0.04130000248551369,0,0.0,0.0,,,,,0,,1,,
Raw,256933458,34293180000000,,,-1221704739252142336,0.0,14.5177236845484,13.646707041967298,9.514262764407453,76,32,0.0,15,43032357168483,4,44.1,-227.39089965820312,0.043800003826618195,0,0.0,0.0,,,,,0,,1,,
Raw,256934457,34294180000000,,,-1221704739252142336,0.0,14.517703675664961,15.420791077471597,9.51424288243805,76,10,0.0,15,43033363456190,5,48.3,-315.80810546875,0.022300001233816147,0,0.0,0.0,,,,,0,,1,,
Raw,256934458,34294180000000,,,-1221704739252142336,0.0,14.517703675664961,15.420791077471597,9.51424288243805,76,12,0.0,15,43033358193124,4,44.7,14.883232116699219,0.04530000314116478,0,0.0,0.0,,,,,0,,1,,
Raw,256934458,34294180000000,,,-1221704739252142336,0.0,14.517703675664961,15.420791077471597,9.51424288243805,76,14,0.0,15,43033352937505,4,42.9,-260.1990966796875,0.03680000081658363,0,0.0,0.0,,,,,0,,1,,
Raw,256934459,34294180000000,,,-1221704739252142336,0.0,14.517703675664961,15.420791077471597,9.51424288243805,76,15,0.0,15,43033350388288,5,41.1,373.6584777832031,0.0340999998152256,0,0.0,0.0,,,,,0,,1,,
Raw,256934460,34294180000000,,,-1221704739252142336,0.0,14.517703675664961,15.420791077471597,9.51424288243805,76,20,0.0,15,43033365484835,4,49.6,89.37507629394531,0.025300001725554466,0,0.0,0.0,,,,,0,,1,,
Raw,256934460,34294180000000,,,-1221704739252142336,0.0,14.517703675664961,15.420791077471597,9.51424288243805,76,21,0.0,15,43033356135779,4,43.7,474.35662841796875,0.04260000213980675,0,0.0,0.0,,,,,0,,1,,
Raw,256934461,34294180000000,,,-1221704739252142336,0.0,14.517703675664961,15.420791077471597,9.51424288243805,76,24,0.0,15,43033353989064,4,42.6,618.6158447265625,0.03830000013113022,0,0.0,0.0,,,,,0,,1,,
Raw,256934462,34294180000000,,,-1221704739252142336,0.0,14.517703675664961,15.420791077471597,9.51424288243805,76,25,0.0,15,43033359396262,5,46.4,-401.4981384277344,0.04650000110268593,0,0.0,0.0,,,,,0,,1,,
Raw,256934462,34294180000000,,,-1221704739252142336,0.0,14.517703675664961,15.420791077471597,9.51424288243805,76,31,0.0,15,43033355834032,4,43.8,-527.2980346679688,0.04110000282526016,0,0.0,0.0,,,,,0,,1,,
Raw,256934463,34294180000000,,,-1221704739252142336,0.0,14.517703675664961,15.420791077471597,9.51424288243805,76,32,0.0,15,43033357169231,4,45.5,-227.1014404296875,0.04360000044107437,0,0.0,0.0,,,,,0,,1,,
Raw,256935454,34295180000000,,,-1221704739252142336,0.0,14.517684576276224,16.366465022996465,9.514223795747421,76,10,0.0,15,43034363457243,4,49.3,-315.8809509277344,0.022300001233816147,0,0.0,0.0,,,,,0,,1,,
Raw,256935455,34295180000000,,,-1221704739252142336,0.0,14.517684576276224,16.366465022996465,9.514223795747421,76,12,0.0,15,43034358193073,4,45.7,14.852877616882324,0.045100003480911255,0,0.0,0.0,,,,,0,,1,,
Raw,256935456,34295180000000,,,-1221704739252142336,0.0,14.517684576276224,16.366465022996465,9.514223795747421,76,14,0.0,15,43034352938371,4,43.6,-260.3526611328125,0.03660000115633011,0,0.0,0.0,,,,,0,,1,,
Raw,256935456,34295180000000,,,-1221704739252142336,0.0,14.517684576276224,16.366465022996465,9.514223795747421,76,15,0.0,15,43034350387037,5,41.5,373.5228576660156,0.0340999998152256,0,0.0,0.0,,,,,0,,1,,
Raw,256935457,34295180000000,,,-1221704739252142336,0.0,14.517684576276224,16.366465022996465,9.514223795747421,76,20,0.0,15,43034365484536,4,50.7,89.33167266845703,0.025300001725554466,0,0.0,0.0,,,,,0,,1,,
Raw,256935458,34295180000000,,,-1221704739252142336,0.0,14.517684576276224,16.366465022996465,9.514223795747421,76,21,0.0,15,43034356134195,4,44.5,474.2389221191406,0.04230000078678131,0,0.0,0.0,,,,,0,,1,,
Raw,256935460,34295180000000,,,-1221704739252142336,0.0,14.517684576276224,16.366465022996465,9.514223795747421,76,24,0.0,15,43034353986993,4,42.6,618.4828491210938,0.03830000013113022,0,0.0,0.0,,,,,0,,1,,
Raw,256935460,34295180000000,,,-1221704739252142336,0.0,14.517684576276224,16.366465022996465,9.514223795747421,76,25,0.0,15,43034359397600,5,47.0,-401.5647888183594,0.046300001442432404,0,0.0,0.0,,,,,0,,1,,
Raw,256935461,34295180000000,,,-1221704739252142336,0.0,14.517684576276224,16.366465022996465,9.514223795747421,76,31,0.0,15,43034355835785,4,44.5,-527.3829345703125,0.040800001472234726,0,0.0,0.0,,,,,0,,1,,
Raw,256935461,34295180000000,,,-1221704739252142336,0.0,14.517684576276224,16.366465022996465,9.514223795747421,76,32,0.0,15,43034357169989,5,46.0,-227.25144958496094,0.04350000247359276,0,0.0,0.0,,,,,0,,1,,
Raw,256935462,34295180000000,,,-1221704739252142336,0.0,14.517684576276224,16.366465022996465,9.514223795747421,76,3,0.0,7183,43034346855592,1052,13.9,-243.1191864013672,5.9185004234313965,0,0.0,0.0,,,,,0,,6,,
Raw,256936456,34296180000000,,,-1221704739252142336,0.0,14.517665476887487,15.89333777348073,9.514203913778017,76,10,0.0,15,43035363458293,5,47.4,-316.0102233886719,0.022300001233816147,0,0.0,0.0,,,,,0,,1,,
Raw,256936457,34296180000000,,,-1221704739252142336,0.0,14.517665476887487,15.89333777348073,9.514203913778017,76,12,0.0,15,43035358193032,4,44.6,14.763720512390137,0.04530000314116478,0,0.0,0.0,,,,,0,,1,,
Raw,256936458,34296180000000,,,-1221704739252142336,0.0,14.517665476887487,15.89333777348073,9.514203913778017,76,14,0.0,15,43035352939242,4,42.6,-260.570556640625,0.03680000081658363,0,0.0,0.0,,,,,0,,1,,
Raw,256936459,34296180000000,,,-1221704739252142336,0.0,14.517665476887487,15.89333777348073,9.514203913778017,76,15,0.0,15,43035350385790,5,40.5,373.3074951171875,0.03440000116825104,0,0.0,0.0,,,,,0,,1,,
Raw,256936460,34296180000000,,,-1221704739252142336,0.0,14.517665476887487,15.89333777348073,9.514203913778017,76,20,0.0,15,43035365484242,4,49.4,89.23287963867188,0.025300001725554466,0,0.0,0.0,,,,,0,,1,,
Raw,256936461,34296180000000,,,-1221704739252142336,0.0,14.517665476887487,15.89333777348073,9.514203913778017,76,21,0.0,15,43035356132619,4,43.2,474.05938720703125,0.04260000213980675,0,0.0,0.0,,,,,0,,1,,
Raw,256936461,34296180000000,,,-1221704739252142336,0.0,14.517665476887487,15.89333777348073,9.514203913778017,76,24,0.0,15,43035353984936,4,42.2,618.2686157226562,0.03830000013113022,0,0.0,0.0,,,,,0,,1,,
Raw,256936461,34296180000000,,,-1221704739252142336,0.0,14.517665476887487,15.89333777348073,9.514203913778017,76,25,0.0,15,43035359398943,5,46.1,-401.6956787109375,0.04650000110268593,0,0.0,0.0,,,,,0,,1,,
Raw,256936462,34296180000000,,,-1221704739252142336,0.0,14.517665476887487,15.89333777348073,9.514203913778017,76,31,0.0,15,43035355837550,4,43.3,-527.5316772460938,0.04110000282526016,0,0.0,0.0,,,,,0,,1,,
Raw,256936462,34296180000000,,,-1221704739252142336,0.0,14.517665476887487,15.89333777348073,9.514203913778017,76,32,0.0,15,43035357170749,4,45.2,-227.46762084960938,0.04360000044107437,0,0.0,0.0,,,,,0,,1,,
Raw,256936463,34296180000000,,,-1221704739252142336,0.0,14.517665476887487,15.89333777348073,9.514203913778017,76,3,0.0,7183,43035346856403,1092,13.9,-243.1191864013672,7.4185004234313965,0,0.0,0.0,,,,,0,,6,,
Raw,256937454,34297180000000,,,-1221704739252142336,0.0,14.517645468004048,15.153321328914426,9.514184031808613,76,10,0.0,15,43036363459356,4,44.1,-316.0500793457031,0.02280000038444996,0,0.0,0.0,,,,,0,,1,,
Raw,256937455,34297180000000,,,-1221704739252142336,0.0,14.517645468004048,15.153321328914426,9.514184031808613,76,12,0.0,15,43036358192981,5,40.3,14.767416954040527,0.046400003135204315,0,0.0,0.0,,,,,0,,1,,
Raw,256937455,34297180000000,,,-1221704739252142336,0.0,14.517645468004048,15.153321328914426,9.514184031808613,76,14,0.0,15,43036352940109,6,38.4,-260.6827087402344,0.038100000470876694,0,0.0,0.0,,,,,0,,1,,
Raw,256937456,34297180000000,,,-1221704739252142336,0.0,14.517645468004048,15.153321328914426,9.514184031808613,76,15,0.0,15,43036350384554,8,36.8,373.204345703125,0.03620000183582306,0,0.0,0.0,,,,,0,,1,,
Raw,256937457,34297180000000,,,-1221704739252142336,0.0,14.517645468004048,15.153321328914426,9.514184031808613,76,20,0.0,15,43036365483943,4,45.9,89.22462463378906,0.025600001215934753,0,0.0,0.0,,,,,0,,1,,
Raw,256937457,34297180000000,,,-1221704739252142336,0.0,14.517645468004048,15.153321328914426,9.514184031808613,76,21,0.0,15,43036356131043,6,39.4,473.9597473144531,0.04360000044107437,0,0.0,0.0,,,,,0,,1,,
Raw,256937458,34297180000000,,,-1221704739252142336,0.0,14.517645468004048,15.153321328914426,9.514184031808613,76,24,0.0,15,43036353982871,6,38.6,618.168212890625,0.03959999978542328,0,0.0,0.0,,,,,0,,1,,
Raw,256937458,34297180000000,,,-1221704739252142336,0.0,14.517645468004048,15.153321328914426,9.514184031808613,76,25,0.0,15,43036359400280,5,41.8,-401.7222595214844,0.047600001096725464,0,0.0,0.0,,,,,0,,1,,
Raw,256937459,34297180000000,,,-1221704739252142336,0.0,14.517645468004048,15.153321328914426,9.514184031808613,76,31,0.0,15,43036355839309,6,39.1,-527.5716552734375,0.042100001126527786,0,0.0,0.0,,,,,0,,1,,
Raw,256937460,34297180000000,,,-1221704739252142336,0.0,14.517645468004048,15.153321328914426,9.514184031808613,76,32,0.0,15,43036357171504,5,41.0,-227.57852172851562,0.044600002467632294,0,0.0,0.0,,,,,0,,1,,
Raw,256937460,34297180000000,,,-1221704739252142336,0.0,14.517645468004048,15.153321328914426,9.514184031808613,76,3,0.0,7183,43036346857214,1143,13.9,-243.1191864013672,8.918499946594238,0,0.0,0.0,,,,,0,,6,,
Raw,256938450,34298180000000,,,-1221704739252142336,0.0,14.517625459120609,14.793745573617,9.514164945117985,76,10,0.0,15,43037363460402,5,47.4,-315.5910339355469,0.022300001233816147,0,0.0,0.0,,,,,0,,1,,
Raw,256938450,34298180000000,,,-1221704739252142336,0.0,14.517625459120609,14.793745573617,9.514164945117985,76,12,0.0,15,43037358192925,4,44.5,15.251673698425293,0.04530000314116478,0,0.0,0.0,,,,,0,,1,,
Raw,256938451,34298180000000,,,-1221704739252142336,0.0,14.517625459120609,14.793745573617,9.514164945117985,76,14,0.0,15,43037352940970,4,43.0,-260.3188781738281,0.03660000115633011,0,0.0,0.0,,,,,0,,1,,
Raw,256938452,34298180000000,,,-1221704739252142336,0.0,14.517625459120609,14.793745573617,9.514164945117985,76,15,0.0,15,43037350383305,5,40.9,373.5749206542969,0.03440000116825104,0,0.0,0.0,,,,,0,,1,,
Raw,256938452,34298180000000,,,-1221704739252142336,0.0,14.517625459120609,14.793745573617,9.514164945117985,76,20,0.0,15,43037365483638,4,49.6,89.7098159790039,0.025300001725554466,0,0.0,0.0,,,,,0,,1,,
Raw,256938453,34298180000000,,,-1221704739252142336,0.0,14.517625459120609,14.793745573617,9.514164945117985,76,21,0.0,15,43037356129453,4,43.6,474.3595275878906,0.04260000213980675,0,0.0,0.0,,,,,0,,1,,
Raw,256938454,34298180000000,,,-1221704739252142336,0.0,14.517625459120609,14.793745573617,9.514164945117985,76,24,0.0,15,43037353980804,4,42.4,618.5361938476562,0.03830000013113022,0,0.0,0.0,,,,,0,,1,,
Raw,256938454,34298180000000,,,-1221704739252142336,0.0,14.517625459120609,14.793745573617,9.514164945117985,76,25,0.0,15,43037359401615,5,46.2,-401.2767639160156,0.04650000110268593,0,0.0,0.0,,,,,0,,1,,
Raw,256938455,34298180000000,,,-1221704739252142336,0.0,14.517625459120609,14.793745573617,9.514164945117985,76,31,0.0,15,43037355841062,4,43.8,-527.1414184570312,0.04110000282526016,0,0.0,0.0,,,,,0,,1,,
Raw,256938455,34298180000000,,,-1221704739252142336,0.0,14.517625459120609,14.793745573617,9.514164945117985,76,32,0.0,15,43037357172262,4,45.6,-227.20230102539062,0.04360000044107437,0,0.0,0.0,,,,,0,,1,,
Raw,256938456,34298180000000,,,-1221704739252142336,0.0,14.517625459120609,14.793745573617,9.514164945117985,76,3,0.0,7183,43037346858025,1203,13.9,-243.1191864013672,10.418500900268555,0,0.0,0.0,,,,,0,,6,,
Raw,256939453,34299180000000,,,-1221704739252142336,0.0,14.517606359731872,15.987931412232832,9.51414506314858,76,10,0.0,15,43038363461452,5,46.4,-315.9330749511719,0.02250000089406967,0,0.0,0.0,,,,,0,,1,,
Raw,256939455,34299180000000,,,-1221704739252142336,0.0,14.517606359731872,15.987931412232832,9.51414506314858,76,12,0.0,15,43038358192870,4,43.4,14.970346450805664,0.04560000076889992,0,0.0,0.0,,,,,0,,1,,
Raw,256939455,34299180000000,,,-1221704739252142336,0.0,14.517606359731872,15.987931412232832,9.51414506314858,76,14,0.0,15,43038352941843,5,41.7,-260.72271728515625,0.03710000216960907,0,0.0,0.0,,,,,0,,1,,
Raw,256939456,34299180000000,,,-1221704739252142336,0.0,14.517606359731872,15.987931412232832,9.51414506314858,76,15,0.0,15,43038350382057,6,39.5,373.16973876953125,0.03460000082850456,0,0.0,0.0,,,,,0,,1,,
Raw,256939457,34299180000000,,,-1221704739252142336,0.0,14.517606359731872,15.987931412232832,9.51414506314858,76,20,0.0,15,43038365483342,5,48.5,89.39762115478516,0.025300001725554466,0,0.0,0.0,,,,,0,,1,,
Raw,256939457,34299180000000,,,-1221704739252142336,0.0,14.517606359731872,15.987931412232832,9.51414506314858,76,21,0.0,15,43038356127863,4,42.3,473.9840393066406,0.04280000180006027,0,0.0,0.0,,,,,0,,1,,
Raw,256939458,34299180000000,,,-1221704739252142336,0.0,14.517606359731872,15.987931412232832,9.51414506314858,76,24,0.0,15,43038353978748,5,41.5,618.1423950195312,0.038600001484155655,0,0.0,0.0,,,,,0,,1,,
Raw,256939459,34299180000000,,,-1221704739252142336,0.0,14.517606359731872,15.987931412232832,9.51414506314858,76,25,0.0,15,43038359402959,4,45.3,-401.58868408203125,0.04660000279545784,0,0.0,0.0,,,,,0,,1,,
Raw,256939460,34299180000000,,,-1221704739252142336,0.0,14.517606359731872,15.987931412232832,9.51414506314858,76,31,0.0,15,43038355842822,4,42.6,-527.4730834960938,0.04130000248551369,0,0.0,0.0,,,,,0,,1,,
Raw,256939460,34299180000000,,,-1221704739252142336,0.0,14.517606359731872,15.987931412232832,9.51414506314858,76,32,0.0,15,43038357173022,4,43.9,-227.6038360595703,0.04410000145435333,0,0.0,0.0,,,,,0,,1,,
Raw,256939461,34299180000000,,,-1221704739252142336,0.0,14.517606359731872,15.987931412232832,9.51414506314858,76,3,0.0,7183,43038346858836,1274,13.9,-243.1191864013672,11.918500900268555,0,0.0,0.0,,,,,0,,6,,
Raw,256940456,34300180000000,,,-1221704739252142336,0.0,14.517587260343134,14.680101827060657,9.514125976457953,76,10,0.0,15,43039363462496,5,48.3,-315.721923828125,0.022300001233816147,0,0.0,0.0,,,,,0,,1,,
Raw,256940457,34300180000000,,,-1221704739252142336,0.0,14.517587260343134,14.680101827060657,9.514125976457953,76,12,0.0,15,43039358192815,4,45.5,15.194034576416016,0.045100003480911255,0,0.0,0.0,,,,,0,,1,,
Raw,256940458,34300180000000,,,-1221704739252142336,0.0,14.517587260343134,14.680101827060657,9.514125976457953,76,14,0.0,15,43039352942704,4,43.8,-260.61627197265625,0.03660000115633011,0,0.0,0.0,,,,,0,,1,,
Raw,256940458,34300180000000,,,-1221704739252142336,0.0,14.517587260343134,14.680101827060657,9.514125976457953,76,15,0.0,15,43039350380796,5,41.3,373.2941589355469,0.0340999998152256,0,0.0,0.0,,,,,0,,1,,
Raw,256940459,34300180000000,,,-1221704739252142336,0.0,14.517587260343134,14.680101827060657,9.514125976457953,76,20,0.0,15,43039365483031,4,50.4,89.63492584228516,0.025300001725554466,0,0.0,0.0,,,,,0,,1,,
Raw,256940460,34300180000000,,,-1221704739252142336,0.0,14.517587260343134,14.680101827060657,9.514125976457953,76,21,0.0,15,43039356126276,4,44.3,474.1204833984375,0.04230000078678131,0,0.0,0.0,,,,,0,,1,,
Raw,256940461,34300180000000,,,-1221704739252142336,0.0,14.517587260343134,14.680101827060657,9.514125976457953,76,24,0.0,15,43039353976669,4,43.2,618.2495727539062,0.038100000470876694,0,0.0,0.0,,,,,0,,1,,
Raw,256940465,34300180000000,,,-1221704739252142336,0.0,14.517587260343134,14.680101827060657,9.514125976457953,76,25,0.0,15,43039359404288,5,46.7,-401.409912109375,0.04650000110268593,0,0.0,0.0,,,,,0,,1,,
Raw,256940467,34300180000000,,,-1221704739252142336,0.0,14.517587260343134,14.680101827060657,9.514125976457953,76,31,0.0,15,43039355844570,4,44.5,-527.2968139648438,0.040800001472234726,0,0.0,0.0,,,,,0,,1,,
Raw,256940470,34300180000000,,,-1221704739252142336,0.0,14.517587260343134,14.680101827060657,9.514125976457953,76,32,0.0,15,43039357173772,4,45.9,-227.50198364257812,0.04360000044107437,0,0.0,0.0,,,,,0,,1,,
Raw,256940470,34300180000000,,,-1221704739252142336,0.0,14.517587260343134,14.680101827060657,9.514125976457953,76,3,0.0,7183,43039346859647,1354,13.9,-243.1191864013672,13.418500900268555,0,0.0,0.0,,,,,0,,6,,
Raw,256941454,34301180000000,,,-1221704739252142336,0.0,14.517567251459695,15.002892757845375,9.514106094488548,76,10,0.0,15,43040363463547,5,46.9,-314.95556640625,0.02250000089406967,0,0.0,0.0,,,,,0,,1,,
Raw,256941455,34301180000000,,,-1221704739252142336,0.0,14.517567251459695,15.002892757845375,9.514106094488548,76,12,0.0,15,43040358192761,4,43.8,16.00463104248047,0.04560000076889992,0,0.0,0.0,,,,,0,,1,,
Raw,256941455,34301180000000,,,-1221704739252142336,0.0,14.517567251459695,15.002892757845375,9.514106094488548,76,14,0.0,15,43040352943572,4,42.0,-259.93072509765625,0.03680000081658363,0,0.0,0.0,,,,,0,,1,,
Raw,256941456,34301180000000,,,-1221704739252142336,0.0,14.517567251459695,15.002892757845375,9.514106094488548,76,15,0.0,15,43040350379554,5,40.0,373.97601318359375,0.03440000116825104,0,0.0,0.0,,,,,0,,1,,
Raw,256941457,34301180000000,,,-1221704739252142336,0.0,14.517567251459695,15.002892757845375,9.514106094488548,76,20,0.0,15,43040365482730,4,49.0,90.43294525146484,0.025300001725554466,0,0.0,0.0,,,,,0,,1,,
Raw,256941457,34301180000000,,,-1221704739252142336,0.0,14.517567251459695,15.002892757845375,9.514106094488548,76,21,0.0,15,43040356124697,4,43.0,474.83642578125,0.04260000213980675,0,0.0,0.0,,,,,0,,1,,
Raw,256941458,34301180000000,,,-1221704739252142336,0.0,14.517567251459695,15.002892757845375,9.514106094488548,76,24,0.0,15,43040353974611,4,42.3,618.955322265625,0.03830000013113022,0,0.0,0.0,,,,,0,,1,,
Raw,256941459,34301180000000,,,-1221704739252142336,0.0,14.517567251459695,15.002892757845375,9.514106094488548,76,25,0.0,15,43040359405621,4,45.6,-400.6326599121094,0.04660000279545784,0,0.0,0.0,,,,,0,,1,,
Raw,256941459,34301180000000,,,-1221704739252142336,0.0,14.517567251459695,15.002892757845375,9.514106094488548,76,31,0.0,15,43040355846336,4,42.7,-526.544189453125,0.04130000248551369,0,0.0,0.0,,,,,0,,1,,
Raw,256941462,34301180000000,,,-1221704739252142336,0.0,14.517567251459695,15.002892757845375,9.514106094488548,76,32,0.0,15,43040357174529,4,44.5,-226.8138427734375,0.043800003826618195,0,0.0,0.0,,,,,0,,1,,
Raw,256941462,34301180000000,,,-1221704739252142336,0.0,14.517567251459695,15.002892757845375,9.514106094488548,76,3,0.0,7183,43040346860458,1444,13.9,-243.1191864013672,14.918500900268555,0,0.0,0.0,,,,,0,,6,,
Raw,256942453,34302180000000,,,-1221704739252142336,0.0,14.517547242576256,17.28620969930327,9.514086212519144,76,10,0.0,15,43041363464594,5,46.3,-315.2404479980469,0.02250000089406967,0,0.0,0.0,,,,,0,,1,,
Raw,256942454,34302180000000,,,-1221704739252142336,0.0,14.517547242576256,17.28620969930327,9.514086212519144,76,12,0.0,15,43041358192692,4,43.4,15.800453186035156,0.04560000076889992,0,0.0,0.0,,,,,0,,1,,
Raw,256942455,34302180000000,,,-1221704739252142336,0.0,14.517547242576256,17.28620969930327,9.514086212519144,76,14,0.0,15,43041352944432,5,41.6,-260.256103515625,0.03710000216960907,0,0.0,0.0,,,,,0,,1,,
Raw,256942455,34302180000000,,,-1221704739252142336,0.0,14.517547242576256,17.28620969930327,9.514086212519144,76,15,0.0,15,43041350378302,6,39.4,373.6430358886719,0.03460000082850456,0,0.0,0.0,,,,,0,,1,,
Raw,256942456,34302180000000,,,-1221704739252142336,0.0,14.517547242576256,17.28620969930327,9.514086212519144,76,20,0.0,15,43041365482424,5,48.6,90.18042755126953,0.025300001725554466,0,0.0,0.0,,,,,0,,1,,
Raw,256942457,34302180000000,,,-1221704739252142336,0.0,14.517547242576256,17.28620969930327,9.514086212519144,76,21,0.0,15,43041356123110,4,42.2,474.5301513671875,0.04280000180006027,0,0.0,0.0,,,,,0,,1,,
Raw,256942457,34302180000000,,,-1221704739252142336,0.0,14.517547242576256,17.28620969930327,9.514086212519144,76,24,0.0,15,43041353972537,5,41.7,618.6163940429688,0.038600001484155655,0,0.0,0.0,,,,,0,,1,,
Raw,256942458,34302180000000,,,-1221704739252142336,0.0,14.517547242576256,17.28620969930327,9.514086212519144,76,25,0.0,15,43041359406953,4,44.8,-400.8707580566406,0.046800002455711365,0,0.0,0.0,,,,,0,,1,,
Raw,256942459,34302180000000,,,-1221704739252142336,0.0,14.517547242576256,17.28620969930327,9.514086212519144,76,31,0.0,15,43041355848075,4,42.2,-526.7976684570312,0.04130000248551369,0,0.0,0.0,,,,,0,,1,,
Raw,256942460,34302180000000,,,-1221704739252142336,0.0,14.517547242576256,17.28620969930327,9.514086212519144,76,32,0.0,15,43041357175278,4,43.7,-227.13473510742188,0.04410000145435333,0,0.0,0.0,,,,,0,,1,,
Raw,256942460,34302180000000,,,-1221704739252142336,0.0,14.517547242576256,17.28620969930327,9.514086212519144,76,3,0.0,7183,43041346861269,1545,13.9,-243.1191864013672,16.418500900268555,0,0.0,0.0,,,,,0,,6,,
Raw,256943454,34303180000000,,,-1221704739252142080,0.0,14.51752814318752,16.246885315654833,9.514067125828516,76,10,0.0,15,43042363465648,5,47.3,-315.7403564453125,0.022300001233816147,0,0.0,0.0,,,,,0,,1,,
Raw,256943455,34303180000000,,,-1221704739252142080,0.0,14.51752814318752,16.246885315654833,9.514067125828516,76,12,0.0,15,43042358192641,4,45.1,15.311918258666992,0.045100003480911255,0,0.0,0.0,,,,,0,,1,,
Raw,256943455,34303180000000,,,-1221704739252142080,0.0,14.51752814318752,16.246885315654833,9.514067125828516,76,14,0.0,15,43042352945301,4,43.4,-260.8701477050781,0.03660000115633011,0,0.0,0.0,,,,,0,,1,,
Raw,256943456,34303180000000,,,-1221704739252142080,0.0,14.51752814318752,16.246885315654833,9.514067125828516,76,15,0.0,15,43042350377066,5,41.4,373.053466796875,0.0340999998152256,0,0.0,0.0,,,,,0,,1,,
Raw,256943456,34303180000000,,,-1221704739252142080,0.0,14.51752814318752,16.246885315654833,9.514067125828516,76,20,0.0,15,43042365482127,4,50.1,89.71012878417969,0.025300001725554466,0,0.0,0.0,,,,,0,,1,,
Raw,256943457,34303180000000,,,-1221704739252142080,0.0,14.51752814318752,16.246885315654833,9.514067125828516,76,21,0.0,15,43042356121527,4,43.8,473.9552917480469,0.04260000213980675,0,0.0,0.0,,,,,0,,1,,
Raw,256943458,34303180000000,,,-1221704739252142080,0.0,14.51752814318752,16.246885315654833,9.514067125828516,76,24,0.0,15,43042353970478,4,43.2,618.0283813476562,0.038100000470876694,0,0.0,0.0,,,,,0,,1,,
Raw,256943458,34303180000000,,,-1221704739252142080,0.0,14.51752814318752,16.246885315654833,9.514067125828516,76,25,0.0,15,43042359408296,5,46.3,-401.3958740234375,0.04650000110268593,0,0.0,0.0,,,,,0,,1,,
Raw,256943459,34303180000000,,,-1221704739252142080,0.0,14.51752814318752,16.246885315654833,9.514067125828516,76,31,0.0,15,43042355849836,4,43.8,-527.3408203125,0.04110000282526016,0,0.0,0.0,,,,,0,,1,,
Raw,256943460,34303180000000,,,-1221704739252142080,0.0,14.51752814318752,16.246885315654833,9.514067125828516,76,32,0.0,15,43042357176035,4,45.3,-227.7500457763672,0.04360000044107437,0,0.0,0.0,,,,,0,,1,,
Raw,256943460,34303180000000,,,-1221704739252142080,0.0,14.51752814318752,16.246885315654833,9.514067125828516,76,3,0.0,7183,43042346862080,1655,13.9,-243.1191864013672,17.918500900268555,0,0.0,0.0,,,,,0,,6,,
Raw,256944455,34304180000000,,,-1221704739252142080,0.0,14.517509043798782,14.184487274870097,9.514047243859112,76,10,0.0,15,43043363466699,5,48.4,-315.1475524902344,0.022300001233816147,0,0.0,0.0,,,,,0,,1,,
Raw,256944456,34304180000000,,,-1221704739252142080,0.0,14.517509043798782,14.184487274870097,9.514047243859112,76,12,0.0,15,43043358192595,4,45.7,15.918328285217285,0.045100003480911255,0,0.0,0.0,,,,,0,,1,,
Raw,256944457,34304180000000,,,-1221704739252142080,0.0,14.517509043798782,14.184487274870097,9.514047243859112,76,14,0.0,15,43043352946174,4,43.7,-260.3709411621094,0.03660000115633011,0,0.0,0.0,,,,,0,,1,,
Raw,256944457,34304180000000,,,-1221704739252142080,0.0,14.517509043798782,14.184487274870097,9.514047243859112,76,15,0.0,15,43043350375802,4,42.1,373.5612487792969,0.03380000218749046,0,0.0,0.0,,,,,0,,1,,
Raw,256944458,34304180000000,,,-1221704739252142080,0.0,14.517509043798782,14.184487274870097,9.514047243859112,76,20,0.0,15,43043365481822,4,50.2,90.32649230957031,0.025300001725554466,0,0.0,0.0,,,,,0,,1,,
Raw,256944458,34304180000000,,,-1221704739252142080,0.0,14.517509043798782,14.184487274870097,9.514047243859112,76,21,0.0,15,43043356119940,4,43.7,474.4750671386719,0.04260000213980675,0,0.0,0.0,,,,,0,,1,,
Raw,256944459,34304180000000,,,-1221704739252142080,0.0,14.517509043798782,14.184487274870097,9.514047243859112,76,24,0.0,15,43043353968407,4,43.5,618.5236206054688,0.038100000470876694,0,0.0,0.0,,,,,0,,1,,
Raw,256944460,34304180000000,,,-1221704739252142080,0.0,14.517509043798782,14.184487274870097,9.514047243859112,76,25,0.0,15,43043359409629,5,47.2,-400.82421875,0.046300001442432404,0,0.0,0.0,,,,,0,,1,,
Raw,256944460,34304180000000,,,-1221704739252142080,0.0,14.517509043798782,14.184487274870097,9.514047243859112,76,31,0.0,15,43043355851590,4,45.3,-526.7798461914062,0.0406000018119812,0,0.0,0.0,,,,,0,,1,,
Raw,256944461,34304180000000,,,-1221704739252142080,0.0,14.517509043798782,14.184487274870097,9.514047243859112,76,32,0.0,15,43043357176796,4,45.7,-227.2440948486328,0.04360000044107437,0,0.0,0.0,,,,,0,,1,,
Raw,256944462,34304180000000,,,-1221704739252142080,0.0,14.517509043798782,14.184487274870097,9.514047243859112,76,3,0.0,7183,43043346862891,1775,13.9,-243.1191864013672,19.418500900268555,0,0.0,0.0,,,,,0,,6,,
Raw,256945454,34305180000000,,,-1221704739252142080,0.0,14.517489034915343,15.809854179231648,9.514028157168484,76,10,0.0,15,43044363467735,5,47.5,-314.8460998535156,0.022300001233816147,0,0.0,0.0,,,,,0,,1,,
Raw,256945455,34305180000000,,,-1221704739252142080,0.0,14.517489034915343,15.809854179231648,9.514028157168484,76,12,0.0,15,43044358192533,4,44.9,16.281444549560547,0.04530000314116478,0,0.0,0.0,,,,,0,,1,,
Raw,256945456,34305180000000,,,-1221704739252142080,0.0,14.517489034915343,15.809854179231648,9.514028157168484,76,14,0.0,15,43044352947028,4,42.7,-260.1366882324219,0.03680000081658363,0,0.0,0.0,,,,,0,,1,,
Raw,256945457,34305180000000,,,-1221704739252142080,0.0,14.517489034915343,15.809854179231648,9.514028157168484,76,15,0.0,15,43044350374556,5,40.8,373.79876708984375,0.03440000116825104,0,0.0,0.0,,,,,0,,1,,
Raw,256945457,34305180000000,,,-1221704739252142080,0.0,14.517489034915343,15.809854179231648,9.514028157168484,76,20,0.0,15,43044365481509,4,50.2,90.65813446044922,0.025300001725554466,0,0.0,0.0,,,,,0,,1,,
Raw,256945458,34305180000000,,,-1221704739252142080,0.0,14.517489034915343,15.809854179231648,9.514028157168484,76,21,0.0,15,43044356118344,4,43.1,474.7414855957031,0.04260000213980675,0,0.0,0.0,,,,,0,,1,,
Raw,256945458,34305180000000,,,-1221704739252142080,0.0,14.517489034915343,15.809854179231648,9.514028157168484,76,24,0.0,15,43044353966337,4,42.6,618.7723999023438,0.03830000013113022,0,0.0,0.0,,,,,0,,1,,
Raw,256945459,34305180000000,,,-1221704739252142080,0.0,14.517489034915343,15.809854179231648,9.514028157168484,76,25,0.0,15,43044359410955,5,46.1,-400.4968566894531,0.04650000110268593,0,0.0,0.0,,,,,0,,1,,
Raw,256945460,34305180000000,,,-1221704739252142080,0.0,14.517489034915343,15.809854179231648,9.514028157168484,76,31,0.0,15,43044355853339,4,43.6,-526.4718627929688,0.04110000282526016,0,0.0,0.0,,,,,0,,1,,
Raw,256945460,34305180000000,,,-1221704739252142080,0.0,14.517489034915343,15.809854179231648,9.514028157168484,76,32,0.0,15,43044357177540,4,45.3,-227.00216674804688,0.04360000044107437,0,0.0,0.0,,,,,0,,1,,
Raw,256945461,34305180000000,,,-1221704739252142080,0.0,14.517489034915343,15.809854179231648,9.514028157168484,76,3,0.0,7183,43044346863702,1906,13.9,-243.1191864013672,20.918500900268555,0,0.0,0.0,,,,,0,,6,,
Raw,256946445,34306180000000,,,-1221704739252142080,0.0,14.517469026031904,16.635239028746547,9.51400827519908,76,10,0.0,15,43045363468786,4,44.1,-315.44464111328125,0.02280000038444996,0,0.0,0.0,,,,,0,,1,,
Raw,256946445,34306180000000,,,-1221704739252142080,0.0,14.517469026031904,16.635239028746547,9.51400827519908,76,12,0.0,15,43045358192482,5,40.7,15.64722728729248,0.046400003135204315,0,0.0,0.0,,,,,0,,1,,
Raw,256946446,34306180000000,,,-1221704739252142080,0.0,14.517469026031904,16.635239028746547,9.51400827519908,76,14,0.0,15,43045352947908,6,38.9,-260.8030700683594,0.038100000470876694,0,0.0,0.0,,,,,0,,1,,
Raw,256946446,34306180000000,,,-1221704739252142080,0.0,14.517469026031904,16.635239028746547,9.51400827519908,76,15,0.0,15,43045350373299,7,37.0,373.1202697753906,0.035600002855062485,0,0.0,0.0,,,,,0,,1,,
Raw,256946447,34306180000000,,,-1221704739252142080,0.0,14.517469026031904,16.635239028746547,9.51400827519908,76,20,0.0,15,43045365481211,4,45.9,90.0982894897461,0.025600001215934753,0,0.0,0.0,,,,,0,,1,,
Raw,256946447,34306180000000,,,-1221704739252142080,0.0,14.517469026031904,16.635239028746547,9.51400827519908,76,21,0.0,15,43045356116768,6,39.7,474.1245422363281,0.04360000044107437,0,0.0,0.0,,,,,0,,1,,
Raw,256946447,34306180000000,,,-1221704739252142080,0.0,14.517469026031904,16.635239028746547,9.51400827519908,76,24,0.0,15,43045353964273,6,38.5,618.1104736328125,0.03959999978542328,0,0.0,0.0,,,,,0,,1,,
Raw,256946448,34306180000000,,,-1221704739252142080,0.0,14.517469026031904,16.635239028746547,9.51400827519908,76,25,0.0,15,43045359412293,4,42.4,-401.0653381347656,0.047300003468990326,0,0.0,0.0,,,,,0,,1,,
Raw,256946448,34306180000000,,,-1221704739252142080,0.0,14.517469026031904,16.635239028746547,9.51400827519908,76,31,0.0,15,43045355855091,6,39.6,-527.0636596679688,0.042100001126527786,0,0.0,0.0,,,,,0,,1,,
Raw,256946448,34306180000000,,,-1221704739252142080,0.0,14.517469026031904,16.635239028746547,9.51400827519908,76,32,0.0,15,43045357178298,5,41.4,-227.6531982421875,0.044600002467632294,0,0.0,0.0,,,,,0,,1,,
Raw,256946449,34306180000000,,,-1221704739252142080,0.0,14.517469026031904,16.635239028746547,9.51400827519908,76,3,0.0,7183,43045346864513,2046,13.9,-243.1191864013672,22.418500900268555,0,0.0,0.0,,,,,0,,6,,
Raw,256947453,34307180000000,,,-1221704739252142080,0.0,14.517449017148465,14.412282155841975,9.513988393229676,76,10,0.0,15,43046363469837,5,46.3,-315.18603515625,0.02250000089406967,0,0.0,0.0,,,,,0,,1,,
Raw,256947453,34307180000000,,,-1221704739252142080,0.0,14.517449017148465,14.412282155841975,9.513988393229676,76,12,0.0,15,43046358192426,4,42.2,16.000720977783203,0.04580000042915344,0,0.0,0.0,,,,,0,,1,,
Raw,256947454,34307180000000,,,-1221704739252142080,0.0,14.517449017148465,14.412282155841975,9.513988393229676,76,14,0.0,15,43046352948758,5,40.3,-260.66876220703125,0.03739999979734421,0,0.0,0.0,,,,,0,,1,,
Raw,256947454,34307180000000,,,-1221704739252142080,0.0,14.517449017148465,14.412282155841975,9.513988393229676,76,15,0.0,15,43046350372066,6,38.7,373.2957458496094,0.035100001841783524,0,0.0,0.0,,,,,0,,1,,
