# 
# Header Description:
# 
# Version: v2.0.0.1 Platform: 8.0.0 Manufacturer: Xiaomi Model: MIX 2
# 
# Raw,ElapsedRealtimeMillis,TimeNanos,LeapSecond,TimeUncertaintyNanos,FullBiasNanos,BiasNanos,BiasUncertaintyNanos,DriftNanosPerSecond,DriftUncertaintyNanosPerSecond,HardwareClockDiscontinuityCount,Svid,TimeOffsetNanos,State,ReceivedSvTimeNanos,ReceivedSvTimeUncertaintyNanos,Cn0DbHz,PseudorangeRateMetersPerSecond,PseudorangeRateUncertaintyMetersPerSecond,AccumulatedDeltaRangeState,AccumulatedDeltaRangeMeters,AccumulatedDeltaRangeUncertaintyMeters,CarrierFrequencyHz,CarrierCycles,CarrierPhase,CarrierPhaseUncertainty,MultipathIndicator,SnrInDb,ConstellationType,AgcDb,CarrierFrequencyHz
# 
# Fix,Provider,Latitude,Longitude,Altitude,Speed,Accuracy,(UTC)TimeInMs
# 
# Nav,Svid,Type,Status,MessageId,Sub-messageId,Data(Bytes)
# 
Raw,257531687,34746680000000,,,-1221704242751671296,0.0,14.518556781695224,-2.0704444726222735,9.515096216564874,84,10,0.0,15,42989362937677,4,45.6,-324.14239501953125,0.02110000140964985,0,0.0,0.0,,,,,0,,1,,
Raw,257531687,34746680000000,,,-1221704242751671296,0.0,14.518556781695224,-2.0704444726222735,9.515096216564874,84,12,0.0,15,42989357723032,4,42.5,4.841626167297363,0.04430000111460686,0,0.0,0.0,,,,,0,,1,,
Raw,257531687,34746680000000,,,-1221704242751671296,0.0,14.518556781695224,-2.0704444726222735,9.515096216564874,84,14,0.0,15,42989352427427,5,40.8,-264.9065856933594,0.03739999979734421,0,0.0,0.0,,,,,0,,1,,
Raw,257531688,34746680000000,,,-1221704242751671296,0.0,14.518556781695224,-2.0704444726222735,9.515096216564874,84,15,0.0,15,42989349971222,6,38.9,368.6774597167969,0.03360000252723694,0,0.0,0.0,,,,,0,,1,,
Raw,257531688,34746680000000,,,-1221704242751671296,0.0,14.518556781695224,-2.0704444726222735,9.515096216564874,84,20,0.0,15,42989365025705,5,47.7,79.75037384033203,0.025300001725554466,0,0.0,0.0,,,,,0,,1,,
Raw,257531688,34746680000000,,,-1221704242751671296,0.0,14.518556781695224,-2.0704444726222735,9.515096216564874,84,21,0.0,15,42989355733422,5,41.9,468.3453369140625,0.041600000113248825,0,0.0,0.0,,,,,0,,1,,
Raw,257531689,34746680000000,,,-1221704242751671296,0.0,14.518556781695224,-2.0704444726222735,9.515096216564874,84,24,0.0,15,42989353607937,5,41.0,613.5565795898438,0.038600001484155655,0,0.0,0.0,,,,,0,,1,,
Raw,257531689,34746680000000,,,-1221704242751671296,0.0,14.518556781695224,-2.0704444726222735,9.515096216564874,84,25,0.0,15,42989358865171,4,44.4,-409.94012451171875,0.04530000314116478,0,0.0,0.0,,,,,0,,1,,
Raw,257531689,34746680000000,,,-1221704242751671296,0.0,14.518556781695224,-2.0704444726222735,9.515096216564874,84,31,0.0,15,42989355284515,5,41.8,-535.0599365234375,0.041600000113248825,0,0.0,0.0,,,,,0,,1,,
Raw,257531690,34746680000000,,,-1221704242751671296,0.0,14.518556781695224,-2.0704444726222735,9.515096216564874,84,32,0.0,15,42989356664001,4,43.5,-231.93922424316406,0.04260000213980675,0,0.0,0.0,,,,,0,,1,,
Raw,257532711,34747680000000,,,-1221704242751671296,0.0,14.518537682306487,0.6087639832825935,9.515077129874246,84,10,0.0,15,42990362938760,4,45.6,-325.5913391113281,0.02110000140964985,0,0.0,0.0,,,,,0,,1,,
Raw,257532712,34747680000000,,,-1221704242751671296,0.0,14.518537682306487,0.6087639832825935,9.515077129874246,84,12,0.0,15,42990357723012,4,42.6,3.473646402359009,0.04430000111460686,0,0.0,0.0,,,,,0,,1,,
Raw,257532713,34747680000000,,,-1221704242751671296,0.0,14.518537682306487,0.6087639832825935,9.515077129874246,84,14,0.0,15,42990352428310,5,40.7,-266.4085693359375,0.03739999979734421,0,0.0,0.0,,,,,0,,1,,
Raw,257532713,34747680000000,,,-1221704242751671296,0.0,14.518537682306487,0.6087639832825935,9.515077129874246,84,15,0.0,15,42990349969983,6,38.2,367.1685485839844,0.03360000252723694,0,0.0,0.0,,,,,0,,1,,
Raw,257532714,34747680000000,,,-1221704242751671296,0.0,14.518537682306487,0.6087639832825935,9.515077129874246,84,20,0.0,15,42990365025432,5,47.9,78.33946228027344,0.025300001725554466,0,0.0,0.0,,,,,0,,1,,
Raw,257532715,34747680000000,,,-1221704242751671296,0.0,14.518537682306487,0.6087639832825935,9.515077129874246,84,21,0.0,15,42990355731853,5,41.4,466.878173828125,0.041600000113248825,0,0.0,0.0,,,,,0,,1,,
Raw,257532715,34747680000000,,,-1221704242751671296,0.0,14.518537682306487,0.6087639832825935,9.515077129874246,84,24,0.0,15,42990353605886,5,40.2,612.0621337890625,0.03890000283718109,0,0.0,0.0,,,,,0,,1,,
Raw,257532716,34747680000000,,,-1221704242751671296,0.0,14.518537682306487,0.6087639832825935,9.515077129874246,84,25,0.0,15,42990358866539,4,43.7,-411.34429931640625,0.04560000076889992,0,0.0,0.0,,,,,0,,1,,
Raw,257532717,34747680000000,,,-1221704242751671296,0.0,14.518537682306487,0.6087639832825935,9.515077129874246,84,31,0.0,15,42990355286308,5,41.4,-536.486572265625,0.041600000113248825,0,0.0,0.0,,,,,0,,1,,
Raw,257532717,34747680000000,,,-1221704242751671296,0.0,14.518537682306487,0.6087639832825935,9.515077129874246,84,32,0.0,15,42990356664775,4,43.2,-233.4305877685547,0.04260000213980675,0,0.0,0.0,,,,,0,,1,,
Raw,257533709,34748680000000,,,-1221704242751671296,0.0,14.51851858291775,-4.349187964658143,9.515057247904842,84,10,0.0,15,42991362939857,5,46.6,-325.68048095703125,0.021000001579523087,0,0.0,0.0,,,,,0,,1,,
Raw,257533710,34748680000000,,,-1221704242751671296,0.0,14.51851858291775,-4.349187964658143,9.515057247904842,84,12,0.0,15,42991357723011,4,44.8,3.3676986694335938,0.043800003826618195,0,0.0,0.0,,,,,0,,1,,
Raw,257533711,34748680000000,,,-1221704242751671296,0.0,14.51851858291775,-4.349187964658143,9.515057247904842,84,14,0.0,15,42991352429207,4,43.0,-266.6151428222656,0.03660000115633011,0,0.0,0.0,,,,,0,,1,,
Raw,257533712,34748680000000,,,-1221704242751671296,0.0,14.51851858291775,-4.349187964658143,9.515057247904842,84,15,0.0,15,42991349968776,5,41.4,366.9694519042969,0.032600000500679016,0,0.0,0.0,,,,,0,,1,,
Raw,257533712,34748680000000,,,-1221704242751671296,0.0,14.51851858291775,-4.349187964658143,9.515057247904842,84,20,0.0,15,42991365025180,4,49.6,78.27022552490234,0.025300001725554466,0,0.0,0.0,,,,,0,,1,,
Raw,257533713,34748680000000,,,-1221704242751671296,0.0,14.51851858291775,-4.349187964658143,9.515057247904842,84,21,0.0,15,42991355730306,4,43.9,466.6894226074219,0.04110000282526016,0,0.0,0.0,,,,,0,,1,,
Raw,257533714,34748680000000,,,-1221704242751671296,0.0,14.51851858291775,-4.349187964658143,9.515057247904842,84,24,0.0,15,42991353603857,4,42.0,611.8630981445312,0.03830000013113022,0,0.0,0.0,,,,,0,,1,,
Raw,257533714,34748680000000,,,-1221704242751671296,0.0,14.51851858291775,-4.349187964658143,9.515057247904842,84,25,0.0,15,42991358867914,5,46.2,-411.48809814453125,0.04500000178813934,0,0.0,0.0,,,,,0,,1,,
Raw,257533715,34748680000000,,,-1221704242751671296,0.0,14.51851858291775,-4.349187964658143,9.515057247904842,84,31,0.0,15,42991355288104,4,44.2,-536.6356811523438,0.040800001472234726,0,0.0,0.0,,,,,0,,1,,
Raw,257533716,34748680000000,,,-1221704242751671296,0.0,14.51851858291775,-4.349187964658143,9.515057247904842,84,32,0.0,15,42991356665555,4,45.5,-233.6549530029297,0.042100001126527786,0,0.0,0.0,,,,,0,,1,,
Raw,257534684,34749680000000,,,-1221704242751671296,0.0,14.51849857403431,-5.131355377279326,9.515038161214214,84,10,0.0,15,42992362940940,5,47.0,-324.1885070800781,0.020800000056624413,0,0.0,0.0,,,,,0,,1,,
Raw,257534684,34749680000000,,,-1221704242751671296,0.0,14.51849857403431,-5.131355377279326,9.515038161214214,84,12,0.0,15,42992357722997,4,45.6,4.903570175170898,0.04360000044107437,0,0.0,0.0,,,,,0,,1,,
Raw,257534684,34749680000000,,,-1221704242751671296,0.0,14.51849857403431,-5.131355377279326,9.515038161214214,84,14,0.0,15,42992352430088,4,43.5,-265.20355224609375,0.03660000115633011,0,0.0,0.0,,,,,0,,1,,
Raw,257534685,34749680000000,,,-1221704242751671296,0.0,14.51849857403431,-5.131355377279326,9.515038161214214,84,15,0.0,15,42992349967552,5,40.6,368.3954772949219,0.03290000185370445,0,0.0,0.0,,,,,0,,1,,
Raw,257534685,34749680000000,,,-1221704242751671296,0.0,14.51849857403431,-5.131355377279326,9.515038161214214,84,20,0.0,15,42992365024919,4,49.7,79.78866577148438,0.025300001725554466,0,0.0,0.0,,,,,0,,1,,
Raw,257534686,34749680000000,,,-1221704242751671296,0.0,14.51849857403431,-5.131355377279326,9.515038161214214,84,21,0.0,15,42992355728745,4,44.0,468.134521484375,0.040800001472234726,0,0.0,0.0,,,,,0,,1,,
Raw,257534686,34749680000000,,,-1221704242751671296,0.0,14.51849857403431,-5.131355377279326,9.515038161214214,84,24,0.0,15,42992353601816,4,43.0,613.2769775390625,0.038100000470876694,0,0.0,0.0,,,,,0,,1,,
Raw,257534687,34749680000000,,,-1221704242751671296,0.0,14.51849857403431,-5.131355377279326,9.515038161214214,84,25,0.0,15,42992358869288,5,46.6,-409.99090576171875,0.04500000178813934,0,0.0,0.0,,,,,0,,1,,
Raw,257534687,34749680000000,,,-1221704242751671296,0.0,14.51849857403431,-5.131355377279326,9.515038161214214,84,31,0.0,15,42992355289886,4,44.4,-535.1567993164062,0.040800001472234726,0,0.0,0.0,,,,,0,,1,,
Raw,257534687,34749680000000,,,-1221704242751671296,0.0,14.51849857403431,-5.131355377279326,9.515038161214214,84,32,0.0,15,42992356666335,5,46.1,-232.2377166748047,0.04200000315904617,0,0.0,0.0,,,,,0,,1,,
Raw,257535692,34750680000000,,,-1221704242751671296,0.0,14.518480384140275,-0.4094863080762655,9.515019074523586,84,10,0.0,15,42993362942016,4,45.6,-324.33758544921875,0.02110000140964985,0,0.0,0.0,,,,,0,,1,,
Raw,257535693,34750680000000,,,-1221704242751671296,0.0,14.518480384140275,-0.4094863080762655,9.515019074523586,84,12,0.0,15,42993357722975,4,43.8,4.824686050415039,0.04410000145435333,0,0.0,0.0,,,,,0,,1,,
Raw,257535694,34750680000000,,,-1221704242751671296,0.0,14.518480384140275,-0.4094863080762655,9.515019074523586,84,14,0.0,15,42993352430971,5,41.7,-265.4171447753906,0.03710000216960907,0,0.0,0.0,,,,,0,,1,,
Raw,257535695,34750680000000,,,-1221704242751671296,0.0,14.518480384140275,-0.4094863080762655,9.515019074523586,84,15,0.0,15,42993349966311,5,40.3,368.1778564453125,0.03290000185370445,0,0.0,0.0,,,,,0,,1,,
Raw,257535696,34750680000000,,,-1221704242751671296,0.0,14.518480384140275,-0.4094863080762655,9.515019074523586,84,20,0.0,15,42993365024644,5,48.3,79.67256164550781,0.025300001725554466,0,0.0,0.0,,,,,0,,1,,
Raw,257535697,34750680000000,,,-1221704242751671296,0.0,14.518480384140275,-0.4094863080762655,9.515019074523586,84,21,0.0,15,42993355727173,4,43.0,467.9547119140625,0.04110000282526016,0,0.0,0.0,,,,,0,,1,,
Raw,257535698,34750680000000,,,-1221704242751671296,0.0,14.518480384140275,-0.4094863080762655,9.515019074523586,84,24,0.0,15,42993353599758,5,41.2,613.0789794921875,0.038600001484155655,0,0.0,0.0,,,,,0,,1,,
Raw,257535699,34750680000000,,,-1221704242751671296,0.0,14.518480384140275,-0.4094863080762655,9.515019074523586,84,25,0.0,15,42993358870649,4,45.3,-410.1065979003906,0.045100003480911255,0,0.0,0.0,,,,,0,,1,,
Raw,257535699,34750680000000,,,-1221704242751671296,0.0,14.518480384140275,-0.4094863080762655,9.515019074523586,84,31,0.0,15,42993355291672,4,42.9,-535.2955932617188,0.04130000248551369,0,0.0,0.0,,,,,0,,1,,
Raw,257535700,34750680000000,,,-1221704242751671296,0.0,14.518480384140275,-0.4094863080762655,9.515019074523586,84,32,0.0,15,42993356667102,4,44.5,-232.4405517578125,0.04230000078678131,0,0.0,0.0,,,,,0,,1,,
Raw,257536711,34751680000000,,,-1221704242751671296,0.0,14.518460375256836,-1.079341221107481,9.514999987832958,84,10,0.0,15,42994362943092,4,44.9,-324.8572692871094,0.021300001069903374,0,0.0,0.0,,,,,0,,1,,
Raw,257536712,34751680000000,,,-1221704242751671296,0.0,14.518460375256836,-1.079341221107481,9.514999987832958,84,12,0.0,15,42994357722951,5,41.9,4.332586288452148,0.044600002467632294,0,0.0,0.0,,,,,0,,1,,
Raw,257536712,34751680000000,,,-1221704242751671296,0.0,14.518460375256836,-1.079341221107481,9.514999987832958,84,14,0.0,15,42994352431850,5,40.4,-266.0225524902344,0.03739999979734421,0,0.0,0.0,,,,,0,,1,,
Raw,257536713,34751680000000,,,-1221704242751671296,0.0,14.518460375256836,-1.079341221107481,9.514999987832958,84,15,0.0,15,42994349965078,6,38.2,367.5827941894531,0.03360000252723694,0,0.0,0.0,,,,,0,,1,,
Raw,257536714,34751680000000,,,-1221704242751671296,0.0,14.518460375256836,-1.079341221107481,9.514999987832958,84,20,0.0,15,42994365024374,5,47.4,79.18290710449219,0.025300001725554466,0,0.0,0.0,,,,,0,,1,,
Raw,257536714,34751680000000,,,-1221704242751671296,0.0,14.518460375256836,-1.079341221107481,9.514999987832958,84,21,0.0,15,42994355725614,5,41.1,467.37481689453125,0.041600000113248825,0,0.0,0.0,,,,,0,,1,,
Raw,257536715,34751680000000,,,-1221704242751671296,0.0,14.518460375256836,-1.079341221107481,9.514999987832958,84,24,0.0,15,42994353597711,6,39.4,612.4713134765625,0.039100002497434616,0,0.0,0.0,,,,,0,,1,,
Raw,257536716,34751680000000,,,-1221704242751671296,0.0,14.518460375256836,-1.079341221107481,9.514999987832958,84,25,0.0,15,42994358872019,4,43.9,-410.6374816894531,0.04560000076889992,0,0.0,0.0,,,,,0,,1,,
Raw,257536716,34751680000000,,,-1221704242751671296,0.0,14.518460375256836,-1.079341221107481,9.514999987832958,84,31,0.0,15,42994355293461,5,40.7,-535.8295288085938,0.04190000146627426,0,0.0,0.0,,,,,0,,1,,
Raw,257536717,34751680000000,,,-1221704242751671296,0.0,14.518460375256836,-1.079341221107481,9.514999987832958,84,32,0.0,15,42994356667879,4,42.3,-233.04708862304688,0.04280000180006027,0,0.0,0.0,,,,,0,,1,,
Raw,257537683,34752680000000,,,-1221704242751671296,0.0,14.5184412758681,-3.111307323063204,9.514980105863554,84,10,0.0,15,42995362944177,5,46.2,-324.37127685546875,0.021000001579523087,0,0.0,0.0,,,,,0,,1,,
Raw,257537684,34752680000000,,,-1221704242751671296,0.0,14.5184412758681,-3.111307323063204,9.514980105863554,84,12,0.0,15,42995357722930,4,43.9,4.851706504821777,0.04410000145435333,0,0.0,0.0,,,,,0,,1,,
Raw,257537684,34752680000000,,,-1221704242751671296,0.0,14.5184412758681,-3.111307323063204,9.514980105863554,84,14,0.0,15,42995352432735,5,41.9,-265.6267395019531,0.03710000216960907,0,0.0,0.0,,,,,0,,1,,
Raw,257537684,34752680000000,,,-1221704242751671296,0.0,14.5184412758681,-3.111307323063204,9.514980105863554,84,15,0.0,15,42995349963861,5,40.1,367.98876953125,0.03290000185370445,0,0.0,0.0,,,,,0,,1,,
Raw,257537685,34752680000000,,,-1221704242751671296,0.0,14.5184412758681,-3.111307323063204,9.514980105863554,84,20,0.0,15,42995365024110,4,49.0,79.70037078857422,0.025300001725554466,0,0.0,0.0,,,,,0,,1,,
Raw,257537685,34752680000000,,,-1221704242751671296,0.0,14.5184412758681,-3.111307323063204,9.514980105863554,84,21,0.0,15,42995355724060,4,42.4,467.8032531738281,0.04130000248551369,0,0.0,0.0,,,,,0,,1,,
Raw,257537686,34752680000000,,,-1221704242751671296,0.0,14.5184412758681,-3.111307323063204,9.514980105863554,84,24,0.0,15,42995353595676,5,41.1,612.8873901367188,0.038600001484155655,0,0.0,0.0,,,,,0,,1,,
Raw,257537687,34752680000000,,,-1221704242751671296,0.0,14.5184412758681,-3.111307323063204,9.514980105863554,84,25,0.0,15,42995358873382,4,45.4,-410.1524963378906,0.045100003480911255,0,0.0,0.0,,,,,0,,1,,
Raw,257537688,34752680000000,,,-1221704242751671296,0.0,14.5184412758681,-3.111307323063204,9.514980105863554,84,31,0.0,15,42995355295237,4,43.5,-535.3632202148438,0.04110000282526016,0,0.0,0.0,,,,,0,,1,,
Raw,257537689,34752680000000,,,-1221704242751671296,0.0,14.5184412758681,-3.111307323063204,9.514980105863554,84,32,0.0,15,42995356668652,4,44.6,-232.6392364501953,0.04230000078678131,0,0.0,0.0,,,,,0,,1,,
Raw,257538710,34753680000000,,,-1221704242751671296,0.0,14.518422176479362,-1.790217259577263,9.514961019172926,84,10,0.0,15,42996362945258,4,45.4,-324.0425109863281,0.02110000140964985,0,0.0,0.0,,,,,0,,1,,
Raw,257538710,34753680000000,,,-1221704242751671296,0.0,14.518422176479362,-1.790217259577263,9.514961019172926,84,12,0.0,15,42996357722914,4,43.0,5.22018575668335,0.04410000145435333,0,0.0,0.0,,,,,0,,1,,
Raw,257538711,34753680000000,,,-1221704242751671296,0.0,14.518422176479362,-1.790217259577263,9.514961019172926,84,14,0.0,15,42996352433623,5,41.4,-265.374755859375,0.03710000216960907,0,0.0,0.0,,,,,0,,1,,
Raw,257538712,34753680000000,,,-1221704242751671296,0.0,14.518422176479362,-1.790217259577263,9.514961019172926,84,15,0.0,15,42996349962629,6,39.6,368.24102783203125,0.03310000151395798,0,0.0,0.0,,,,,0,,1,,
Raw,257538712,34753680000000,,,-1221704242751671296,0.0,14.518422176479362,-1.790217259577263,9.514961019172926,84,20,0.0,15,42996365023843,5,48.2,80.05919647216797,0.025300001725554466,0,0.0,0.0,,,,,0,,1,,
Raw,257538713,34753680000000,,,-1221704242751671296,0.0,14.518422176479362,-1.790217259577263,9.514961019172926,84,21,0.0,15,42996355722493,4,42.1,468.082763671875,0.04130000248551369,0,0.0,0.0,,,,,0,,1,,
Raw,257538714,34753680000000,,,-1221704242751671296,0.0,14.518422176479362,-1.790217259577263,9.514961019172926,84,24,0.0,15,42996353593626,5,40.7,613.1400756835938,0.03890000283718109,0,0.0,0.0,,,,,0,,1,,
Raw,257538715,34753680000000,,,-1221704242751671296,0.0,14.518422176479362,-1.790217259577263,9.514961019172926,84,25,0.0,15,42996358874744,4,44.9,-409.8241882324219,0.04530000314116478,0,0.0,0.0,,,,,0,,1,,
Raw,257538716,34753680000000,,,-1221704242751671296,0.0,14.518422176479362,-1.790217259577263,9.514961019172926,84,31,0.0,15,42996355297024,4,42.4,-535.0518798828125,0.04130000248551369,0,0.0,0.0,,,,,0,,1,,
Raw,257538716,34753680000000,,,-1221704242751671296,0.0,14.518422176479362,-1.790217259577263,9.514961019172926,84,32,0.0,15,42996356669431,4,43.7,-232.3936309814453,0.04260000213980675,0,0.0,0.0,,,,,0,,1,,
Raw,257539688,34754680000000,,,-1221704242751671296,0.0,14.518402167595923,-0.9662806127137608,9.514941932482298,84,10,0.0,15,42997362946341,5,46.1,-324.0045471191406,0.021000001579523087,0,0.0,0.0,,,,,0,,1,,
Raw,257539689,34754680000000,,,-1221704242751671296,0.0,14.518402167595923,-0.9662806127137608,9.514941932482298,84,12,0.0,15,42997357722903,4,43.7,5.313492298126221,0.04410000145435333,0,0.0,0.0,,,,,0,,1,,
Raw,257539689,34754680000000,,,-1221704242751671296,0.0,14.518402167595923,-0.9662806127137608,9.514941932482298,84,14,0.0,15,42997352434513,4,42.0,-265.4078674316406,0.03680000081658363,0,0.0,0.0,,,,,0,,1,,
Raw,257539690,34754680000000,,,-1221704242751671296,0.0,14.518402167595923,-0.9662806127137608,9.514941932482298,84,15,0.0,15,42997349961395,5,40.3,368.2178649902344,0.03290000185370445,0,0.0,0.0,,,,,0,,1,,
Raw,257539690,34754680000000,,,-1221704242751671296,0.0,14.518402167595923,-0.9662806127137608,9.514941932482298,84,20,0.0,15,42997365023579,4,49.5,80.12637329101562,0.025300001725554466,0,0.0,0.0,,,,,0,,1,,
Raw,257539691,34754680000000,,,-1221704242751671296,0.0,14.518402167595923,-0.9662806127137608,9.514941932482298,84,21,0.0,15,42997355720937,4,42.9,468.0828857421875,0.04130000248551369,0,0.0,0.0,,,,,0,,1,,
Raw,257539691,34754680000000,,,-1221704242751671296,0.0,14.518402167595923,-0.9662806127137608,9.514941932482298,84,24,0.0,15,42997353591584,5,41.3,613.1229858398438,0.038600001484155655,0,0.0,0.0,,,,,0,,1,,
Raw,257539692,34754680000000,,,-1221704242751671296,0.0,14.518402167595923,-0.9662806127137608,9.514941932482298,84,25,0.0,15,42997358876119,4,45.6,-409.7621154785156,0.045100003480911255,0,0.0,0.0,,,,,0,,1,,
Raw,257539692,34754680000000,,,-1221704242751671296,0.0,14.518402167595923,-0.9662806127137608,9.514941932482298,84,31,0.0,15,42997355298812,4,42.7,-535.0073852539062,0.04130000248551369,0,0.0,0.0,,,,,0,,1,,
Raw,257539693,34754680000000,,,-1221704242751671296,0.0,14.518402167595923,-0.9662806127137608,9.514941932482298,84,32,0.0,15,42997356670206,4,44.7,-232.42080688476562,0.04230000078678131,0,0.0,0.0,,,,,0,,1,,
Raw,257540684,34755680000000,,,-1221704242751671296,0.0,14.518383977701887,-1.0267998364321675,9.51492284579167,84,10,0.0,15,42998362947422,5,46.9,-325.8706970214844,0.021000001579523087,0,0.0,0.0,,,,,0,,1,,
Raw,257540684,34755680000000,,,-1221704242751671296,0.0,14.518383977701887,-1.0267998364321675,9.51492284579167,84,12,0.0,15,42998357722886,4,44.9,3.498936176300049,0.043800003826618195,0,0.0,0.0,,,,,0,,1,,
Raw,257540685,34755680000000,,,-1221704242751671296,0.0,14.518383977701887,-1.0267998364321675,9.51492284579167,84,14,0.0,15,42998352435396,4,42.9,-267.3631286621094,0.03680000081658363,0,0.0,0.0,,,,,0,,1,,
Raw,257540685,34755680000000,,,-1221704242751671296,0.0,14.518383977701887,-1.0267998364321675,9.51492284579167,84,15,0.0,15,42998349960175,5,40.4,366.2673034667969,0.03290000185370445,0,0.0,0.0,,,,,0,,1,,
Raw,257540685,34755680000000,,,-1221704242751671296,0.0,14.518383977701887,-1.0267998364321675,9.51492284579167,84,20,0.0,15,42998365023313,4,49.6,78.2913818359375,0.025300001725554466,0,0.0,0.0,,,,,0,,1,,
Raw,257540686,34755680000000,,,-1221704242751671296,0.0,14.518383977701887,-1.0267998364321675,9.51492284579167,84,21,0.0,15,42998355719376,4,43.2,466.177734375,0.04110000282526016,0,0.0,0.0,,,,,0,,1,,
Raw,257540686,34755680000000,,,-1221704242751671296,0.0,14.518383977701887,-1.0267998364321675,9.51492284579167,84,24,0.0,15,42998353589540,5,41.2,611.1842651367188,0.038600001484155655,0,0.0,0.0,,,,,0,,1,,
Raw,257540686,34755680000000,,,-1221704242751671296,0.0,14.518383977701887,-1.0267998364321675,9.51492284579167,84,25,0.0,15,42998358877484,4,45.6,-411.613525390625,0.045100003480911255,0,0.0,0.0,,,,,0,,1,,
Raw,257540687,34755680000000,,,-1221704242751671296,0.0,14.518383977701887,-1.0267998364321675,9.51492284579167,84,31,0.0,15,42998355300591,4,42.9,-536.8759765625,0.04130000248551369,0,0.0,0.0,,,,,0,,1,,
Raw,257540687,34755680000000,,,-1221704242751671296,0.0,14.518383977701887,-1.0267998364321675,9.51492284579167,84,32,0.0,15,42998356670983,4,45.2,-234.3580780029297,0.042100001126527786,0,0.0,0.0,,,,,0,,1,,
Raw,257541680,34756680000000,,,-1221704242751671296,0.0,15.494926628889516,-7.516116091227817,10.491465537013362,84,10,0.0,15,42999362948515,5,46.5,-326.68182373046875,0.021000001579523087,0,0.0,0.0,,,,,0,,1,,
Raw,257541681,34756680000000,,,-1221704242751671296,0.0,15.494926628889516,-7.516116091227817,10.491465537013362,84,12,0.0,15,42999357722876,4,44.6,2.701472043991089,0.043800003826618195,0,0.0,0.0,,,,,0,,1,,
Raw,257541681,34756680000000,,,-1221704242751671296,0.0,15.494926628889516,-7.516116091227817,10.491465537013362,84,14,0.0,15,42999352436294,4,42.7,-268.2689514160156,0.03680000081658363,0,0.0,0.0,,,,,0,,1,,
Raw,257541681,34756680000000,,,-1221704242751671296,0.0,15.494926628889516,-7.516116091227817,10.491465537013362,84,15,0.0,15,42999349958956,5,40.7,365.38470458984375,0.03290000185370445,0,0.0,0.0,,,,,0,,1,,
Raw,257541682,34756680000000,,,-1221704242751671296,0.0,15.494926628889516,-7.516116091227817,10.491465537013362,84,20,0.0,15,42999365023059,4,49.7,77.50721740722656,0.025300001725554466,0,0.0,0.0,,,,,0,,1,,
Raw,257541682,34756680000000,,,-1221704242751671296,0.0,15.494926628889516,-7.516116091227817,10.491465537013362,84,21,0.0,15,42999355717822,4,43.4,465.2906494140625,0.04110000282526016,0,0.0,0.0,,,,,0,,1,,
Raw,257541682,34756680000000,,,-1221704242751671296,0.0,15.494926628889516,-7.516116091227817,10.491465537013362,84,24,0.0,15,42999353587501,5,41.3,610.2861328125,0.038600001484155655,0,0.0,0.0,,,,,0,,1,,
Raw,257541682,34756680000000,,,-1221704242751671296,0.0,15.494926628889516,-7.516116091227817,10.491465537013362,84,25,0.0,15,42999358878861,4,45.6,-412.447021484375,0.045100003480911255,0,0.0,0.0,,,,,0,,1,,
Raw,257541683,34756680000000,,,-1221704242751671296,0.0,15.494926628889516,-7.516116091227817,10.491465537013362,84,31,0.0,15,42999355302392,4,42.9,-537.7236328125,0.04130000248551369,0,0.0,0.0,,,,,0,,1,,
Raw,257541683,34756680000000,,,-1221704242751671296,0.0,15.494926628889516,-7.516116091227817,10.491465537013362,84,32,0.0,15,42999356671768,4,44.9,-235.27296447753906,0.04230000078678131,0,0.0,0.0,,,,,0,,1,,
Raw,257542713,34757680000000,,,-1221704242751671296,0.0,15.49490843899548,-10.56343031346848,10.491446450322734,84,10,0.0,15,43000362949593,5,47.7,-326.0976867675781,0.020800000056624413,0,0.0,0.0,,,,,0,,1,,
Raw,257542713,34757680000000,,,-1221704242751671296,0.0,15.49490843899548,-10.56343031346848,10.491446450322734,84,12,0.0,15,43000357722858,4,45.9,3.307164430618286,0.04360000044107437,0,0.0,0.0,,,,,0,,1,,
Raw,257542714,34757680000000,,,-1221704242751671296,0.0,15.49490843899548,-10.56343031346848,10.491446450322734,84,14,0.0,15,43000352437180,4,43.6,-267.78253173828125,0.03660000115633011,0,0.0,0.0,,,,,0,,1,,
Raw,257542715,34757680000000,,,-1221704242751671296,0.0,15.49490843899548,-10.56343031346848,10.491446450322734,84,15,0.0,15,43000349957731,5,41.7,365.8794860839844,0.032600000500679016,0,0.0,0.0,,,,,0,,1,,
Raw,257542715,34757680000000,,,-1221704242751671296,0.0,15.49490843899548,-10.56343031346848,10.491446450322734,84,20,0.0,15,43000365022789,4,50.3,78.118408203125,0.025300001725554466,0,0.0,0.0,,,,,0,,1,,
Raw,257542717,34757680000000,,,-1221704242751671296,0.0,15.49490843899548,-10.56343031346848,10.491446450322734,84,21,0.0,15,43000355716262,4,43.6,465.80706787109375,0.04110000282526016,0,0.0,0.0,,,,,0,,1,,
Raw,257542717,34757680000000,,,-1221704242751671296,0.0,15.49490843899548,-10.56343031346848,10.491446450322734,84,24,0.0,15,43000353585463,4,43.5,610.7788696289062,0.038100000470876694,0,0.0,0.0,,,,,0,,1,,
Raw,257542718,34757680000000,,,-1221704242751671296,0.0,15.49490843899548,-10.56343031346848,10.491446450322734,84,25,0.0,15,43000358880233,5,46.6,-411.8822021484375,0.04500000178813934,0,0.0,0.0,,,,,0,,1,,
Raw,257542719,34757680000000,,,-1221704242751671296,0.0,15.49490843899548,-10.56343031346848,10.491446450322734,84,31,0.0,15,43000355304179,4,43.6,-537.1673583984375,0.04110000282526016,0,0.0,0.0,,,,,0,,1,,
Raw,257542719,34757680000000,,,-1221704242751671296,0.0,15.49490843899548,-10.56343031346848,10.491446450322734,84,32,0.0,15,43000356672546,4,45.8,-234.7796630859375,0.042100001126527786,0,0.0,0.0,,,,,0,,1,,
Raw,257543713,34758680000000,,,-1221704242751671296,0.0,15.494888430112042,-8.969736976925228,10.491427363632106,84,10,0.0,15,43001362950677,5,47.7,-324.8929748535156,0.020800000056624413,0,0.0,0.0,,,,,0,,1,,
Raw,257543713,34758680000000,,,-1221704242751671296,0.0,15.494888430112042,-8.969736976925228,10.491427363632106,84,12,0.0,15,43001357722844,5,46.0,4.578747749328613,0.04350000247359276,0,0.0,0.0,,,,,0,,1,,
Raw,257543714,34758680000000,,,-1221704242751671296,0.0,15.494888430112042,-8.969736976925228,10.491427363632106,84,14,0.0,15,43001352438069,4,43.9,-266.6383056640625,0.03660000115633011,0,0.0,0.0,,,,,0,,1,,
Raw,257543715,34758680000000,,,-1221704242751671296,0.0,15.494888430112042,-8.969736976925228,10.491427363632106,84,15,0.0,15,43001349956505,5,41.9,367.01922607421875,0.032600000500679016,0,0.0,0.0,,,,,0,,1,,
Raw,257543715,34758680000000,,,-1221704242751671296,0.0,15.494888430112042,-8.969736976925228,10.491427363632106,84,20,0.0,15,43001365022522,4,50.3,79.35734558105469,0.025300001725554466,0,0.0,0.0,,,,,0,,1,,
Raw,257543716,34758680000000,,,-1221704242751671296,0.0,15.494888430112042,-8.969736976925228,10.491427363632106,84,21,0.0,15,43001355714705,4,43.5,466.9807434082031,0.04110000282526016,0,0.0,0.0,,,,,0,,1,,
Raw,257543716,34758680000000,,,-1221704242751671296,0.0,15.494888430112042,-8.969736976925228,10.491427363632106,84,24,0.0,15,43001353583418,4,42.2,611.9344482421875,0.03830000013113022,0,0.0,0.0,,,,,0,,1,,
Raw,257543717,34758680000000,,,-1221704242751671296,0.0,15.494888430112042,-8.969736976925228,10.491427363632106,84,25,0.0,15,43001358881600,5,46.6,-410.6470947265625,0.04500000178813934,0,0.0,0.0,,,,,0,,1,,
Raw,257543718,34758680000000,,,-1221704242751671296,0.0,15.494888430112042,-8.969736976925228,10.491427363632106,84,31,0.0,15,43001355305959,4,44.0,-535.94873046875,0.040800001472234726,0,0.0,0.0,,,,,0,,1,,
Raw,257543718,34758680000000,,,-1221704242751671296,0.0,15.494888430112042,-8.969736976925228,10.491427363632106,84,32,0.0,15,43001356673325,5,46.4,-233.62051391601562,0.04200000315904617,0,0.0,0.0,,,,,0,,1,,
Raw,257544683,34759680000000,,,-1221704242751671296,0.0,15.494868421228603,-5.116254226238128,10.491407481662701,84,10,0.0,15,43002362951760,5,47.4,-325.6822204589844,0.020800000056624413,0,0.0,0.0,,,,,0,,1,,
Raw,257544684,34759680000000,,,-1221704242751671296,0.0,15.494868421228603,-5.116254226238128,10.491407481662701,84,12,0.0,15,43002357722824,5,46.1,3.802783250808716,0.04350000247359276,0,0.0,0.0,,,,,0,,1,,
Raw,257544684,34759680000000,,,-1221704242751671296,0.0,15.494868421228603,-5.116254226238128,10.491407481662701,84,14,0.0,15,43002352438954,4,44.1,-267.5297546386719,0.03629999980330467,0,0.0,0.0,,,,,0,,1,,
Raw,257544684,34759680000000,,,-1221704242751671296,0.0,15.494868421228603,-5.116254226238128,10.491407481662701,84,15,0.0,15,43002349955279,5,41.4,366.14654541015625,0.032600000500679016,0,0.0,0.0,,,,,0,,1,,
Raw,257544685,34759680000000,,,-1221704242751671296,0.0,15.494868421228603,-5.116254226238128,10.491407481662701,84,20,0.0,15,43002365022260,4,50.4,78.5936508178711,0.025300001725554466,0,0.0,0.0,,,,,0,,1,,
Raw,257544685,34759680000000,,,-1221704242751671296,0.0,15.494868421228603,-5.116254226238128,10.491407481662701,84,21,0.0,15,43002355713144,4,43.7,466.1168518066406,0.04110000282526016,0,0.0,0.0,,,,,0,,1,,
Raw,257544685,34759680000000,,,-1221704242751671296,0.0,15.494868421228603,-5.116254226238128,10.491407481662701,84,24,0.0,15,43002353581373,4,42.3,611.0458374023438,0.03830000013113022,0,0.0,0.0,,,,,0,,1,,
Raw,257544686,34759680000000,,,-1221704242751671296,0.0,15.494868421228603,-5.116254226238128,10.491407481662701,84,25,0.0,15,43002358882967,5,46.5,-411.45849609375,0.04500000178813934,0,0.0,0.0,,,,,0,,1,,
Raw,257544686,34759680000000,,,-1221704242751671296,0.0,15.494868421228603,-5.116254226238128,10.491407481662701,84,31,0.0,15,43002355307746,4,44.1,-536.7779541015625,0.040800001472234726,0,0.0,0.0,,,,,0,,1,,
Raw,257544686,34759680000000,,,-1221704242751671296,0.0,15.494868421228603,-5.116254226238128,10.491407481662701,84,32,0.0,15,43002356674102,5,46.1,-234.5169677734375,0.04200000315904617,0,0.0,0.0,,,,,0,,1,,
Raw,257545711,34760680000000,,,-1221704242751671296,0.0,14.5182875712635,-8.120821418981178,9.514825821780978,84,10,0.0,15,43003362952834,5,47.9,-324.3518981933594,0.020800000056624413,0,0.0,0.0,,,,,0,,1,,
Raw,257545711,34760680000000,,,-1221704242751671296,0.0,14.5182875712635,-8.120821418981178,9.514825821780978,84,12,0.0,15,43003357722802,4,45.7,5.178062438964844,0.04360000044107437,0,0.0,0.0,,,,,0,,1,,
Raw,257545712,34760680000000,,,-1221704242751671296,0.0,14.5182875712635,-8.120821418981178,9.514825821780978,84,14,0.0,15,43003352439839,4,43.8,-266.2719421386719,0.03660000115633011,0,0.0,0.0,,,,,0,,1,,
Raw,257545713,34760680000000,,,-1221704242751671296,0.0,14.5182875712635,-8.120821418981178,9.514825821780978,84,15,0.0,15,43003349954049,5,40.9,367.396484375,0.03290000185370445,0,0.0,0.0,,,,,0,,1,,
Raw,257545713,34760680000000,,,-1221704242751671296,0.0,14.5182875712635,-8.120821418981178,9.514825821780978,84,20,0.0,15,43003365021985,4,50.4,79.95467376708984,0.025300001725554466,0,0.0,0.0,,,,,0,,1,,
Raw,257545714,34760680000000,,,-1221704242751671296,0.0,14.5182875712635,-8.120821418981178,9.514825821780978,84,21,0.0,15,43003355711579,4,43.6,467.4048767089844,0.04110000282526016,0,0.0,0.0,,,,,0,,1,,
Raw,257545714,34760680000000,,,-1221704242751671296,0.0,14.5182875712635,-8.120821418981178,9.514825821780978,84,24,0.0,15,43003353579325,4,42.5,612.3140258789062,0.03830000013113022,0,0.0,0.0,,,,,0,,1,,
Raw,257545715,34760680000000,,,-1221704242751671296,0.0,14.5182875712635,-8.120821418981178,9.514825821780978,84,25,0.0,15,43003358884324,5,46.5,-410.1195068359375,0.04500000178813934,0,0.0,0.0,,,,,0,,1,,
Raw,257545716,34760680000000,,,-1221704242751671296,0.0,14.5182875712635,-8.120821418981178,9.514825821780978,84,31,0.0,15,43003355309533,4,44.1,-535.4515991210938,0.040800001472234726,0,0.0,0.0,,,,,0,,1,,
Raw,257545717,34760680000000,,,-1221704242751671296,0.0,14.5182875712635,-8.120821418981178,9.514825821780978,84,32,0.0,15,43003356674872,5,46.1,-233.26161193847656,0.04200000315904617,0,0.0,0.0,,,,,0,,1,,
Raw,257546683,34761680000000,,,-1221704242751671296,0.0,14.51826756238006,-3.929058490425393,9.51480673509035,84,10,0.0,15,43004362953914,5,47.0,-323.9627685546875,0.020800000056624413,0,0.0,0.0,,,,,0,,1,,
Raw,257546683,34761680000000,,,-1221704242751671296,0.0,14.51826756238006,-3.929058490425393,9.51480673509035,84,12,0.0,15,43004357722782,4,44.4,5.612212657928467,0.043800003826618195,0,0.0,0.0,,,,,0,,1,,
Raw,257546683,34761680000000,,,-1221704242751671296,0.0,14.51826756238006,-3.929058490425393,9.51480673509035,84,14,0.0,15,43004352440724,4,42.4,-265.96051025390625,0.03680000081658363,0,0.0,0.0,,,,,0,,1,,
Raw,257546684,34761680000000,,,-1221704242751671296,0.0,14.51826756238006,-3.929058490425393,9.51480673509035,84,15,0.0,15,43004349952815,5,40.6,367.71875,0.03290000185370445,0,0.0,0.0,,,,,0,,1,,
Raw,257546684,34761680000000,,,-1221704242751671296,0.0,14.51826756238006,-3.929058490425393,9.51480673509035,84,20,0.0,15,43004365021711,4,49.0,80.37435913085938,0.025300001725554466,0,0.0,0.0,,,,,0,,1,,
Raw,257546685,34761680000000,,,-1221704242751671296,0.0,14.51826756238006,-3.929058490425393,9.51480673509035,84,21,0.0,15,43004355710014,4,43.2,467.7508850097656,0.04110000282526016,0,0.0,0.0,,,,,0,,1,,
Raw,257546685,34761680000000,,,-1221704242751671296,0.0,14.51826756238006,-3.929058490425393,9.51480673509035,84,24,0.0,15,43004353577279,5,41.4,612.633056640625,0.038600001484155655,0,0.0,0.0,,,,,0,,1,,
Raw,257546685,34761680000000,,,-1221704242751671296,0.0,14.51826756238006,-3.929058490425393,9.51480673509035,84,25,0.0,15,43004358885694,4,45.6,-409.7186584472656,0.045100003480911255,0,0.0,0.0,,,,,0,,1,,
Raw,257546685,34761680000000,,,-1221704242751671296,0.0,14.51826756238006,-3.929058490425393,9.51480673509035,84,31,0.0,15,43004355311312,4,42.6,-535.0671997070312,0.04130000248551369,0,0.0,0.0,,,,,0,,1,,
Raw,257546686,34761680000000,,,-1221704242751671296,0.0,14.51826756238006,-3.929058490425393,9.51480673509035,84,32,0.0,15,43004356675648,4,44.9,-232.9467010498047,0.04230000078678131,0,0.0,0.0,,,,,0,,1,,
Raw,257547680,34762680000000,,,-1221704242751671296,0.0,14.518248462991323,-2.865079868256774,9.514787648399722,84,10,0.0,15,43005362954985,5,46.9,-323.4674377441406,0.021000001579523087,0,0.0,0.0,,,,,0,,1,,
Raw,257547681,34762680000000,,,-1221704242751671296,0.0,14.518248462991323,-2.865079868256774,9.514787648399722,84,12,0.0,15,43005357722761,4,44.6,6.159372329711914,0.043800003826618195,0,0.0,0.0,,,,,0,,1,,
Raw,257547681,34762680000000,,,-1221704242751671296,0.0,14.518248462991323,-2.865079868256774,9.514787648399722,84,14,0.0,15,43005352441605,4,42.4,-265.5414733886719,0.03680000081658363,0,0.0,0.0,,,,,0,,1,,
Raw,257547681,34762680000000,,,-1221704242751671296,0.0,14.518248462991323,-2.865079868256774,9.514787648399722,84,15,0.0,15,43005349951584,5,40.7,368.1422119140625,0.03290000185370445,0,0.0,0.0,,,,,0,,1,,
Raw,257547681,34762680000000,,,-1221704242751671296,0.0,14.518248462991323,-2.865079868256774,9.514787648399722,84,20,0.0,15,43005365021440,4,49.0,80.89837646484375,0.025300001725554466,0,0.0,0.0,,,,,0,,1,,
Raw,257547682,34762680000000,,,-1221704242751671296,0.0,14.518248462991323,-2.865079868256774,9.514787648399722,84,21,0.0,15,43005355708446,4,43.2,468.20074462890625,0.04110000282526016,0,0.0,0.0,,,,,0,,1,,
Raw,257547682,34762680000000,,,-1221704242751671296,0.0,14.518248462991323,-2.865079868256774,9.514787648399722,84,24,0.0,15,43005353575226,5,41.5,613.0602416992188,0.038600001484155655,0,0.0,0.0,,,,,0,,1,,
Raw,257547682,34762680000000,,,-1221704242751671296,0.0,14.518248462991323,-2.865079868256774,9.514787648399722,84,25,0.0,15,43005358887050,4,45.8,-409.20977783203125,0.045100003480911255,0,0.0,0.0,,,,,0,,1,,
Raw,257547683,34762680000000,,,-1221704242751671296,0.0,14.518248462991323,-2.865079868256774,9.514787648399722,84,31,0.0,15,43005355313088,4,42.9,-534.5759887695312,0.04130000248551369,0,0.0,0.0,,,,,0,,1,,
Raw,257547683,34762680000000,,,-1221704242751671296,0.0,14.518248462991323,-2.865079868256774,9.514787648399722,84,32,0.0,15,43005356676422,4,45.1,-232.52272033691406,0.042100001126527786,0,0.0,0.0,,,,,0,,1,,
Raw,257548680,34763680000000,,,-1221704242751671296,0.0,14.518229363602586,-1.4497379370727896,9.514767766430317,84,10,0.0,15,43006362956067,5,47.4,-324.53765869140625,0.020800000056624413,0,0.0,0.0,,,,,0,,1,,
Raw,257548681,34763680000000,,,-1221704242751671296,0.0,14.518229363602586,-1.4497379370727896,9.514767766430317,84,12,0.0,15,43006357722741,4,45.4,5.142777919769287,0.04360000044107437,0,0.0,0.0,,,,,0,,1,,
Raw,257548681,34763680000000,,,-1221704242751671296,0.0,14.518229363602586,-1.4497379370727896,9.514767766430317,84,14,0.0,15,43006352442488,4,43.5,-266.68255615234375,0.03660000115633011,0,0.0,0.0,,,,,0,,1,,
Raw,257548681,34763680000000,,,-1221704242751671296,0.0,14.518229363602586,-1.4497379370727896,9.514767766430317,84,15,0.0,15,43006349950358,5,41.0,367.0069885253906,0.032600000500679016,0,0.0,0.0,,,,,0,,1,,
Raw,257548682,34763680000000,,,-1221704242751671296,0.0,14.518229363602586,-1.4497379370727896,9.514767766430317,84,20,0.0,15,43006365021170,4,50.2,79.85758209228516,0.025300001725554466,0,0.0,0.0,,,,,0,,1,,
Raw,257548682,34763680000000,,,-1221704242751671296,0.0,14.518229363602586,-1.4497379370727896,9.514767766430317,84,21,0.0,15,43006355706890,4,42.9,467.0909729003906,0.04130000248551369,0,0.0,0.0,,,,,0,,1,,
Raw,257548682,34763680000000,,,-1221704242751671296,0.0,14.518229363602586,-1.4497379370727896,9.514767766430317,84,24,0.0,15,43006353573189,4,42.2,611.93115234375,0.03830000013113022,0,0.0,0.0,,,,,0,,1,,
Raw,257548682,34763680000000,,,-1221704242751671296,0.0,14.518229363602586,-1.4497379370727896,9.514767766430317,84,25,0.0,15,43006358888420,5,46.4,-410.2592468261719,0.04500000178813934,0,0.0,0.0,,,,,0,,1,,
Raw,257548683,34763680000000,,,-1221704242751671296,0.0,14.518229363602586,-1.4497379370727896,9.514767766430317,84,31,0.0,15,43006355314875,4,43.3,-535.6503295898438,0.04110000282526016,0,0.0,0.0,,,,,0,,1,,
Raw,257548683,34763680000000,,,-1221704242751671296,0.0,14.518229363602586,-1.4497379370727896,9.514767766430317,84,32,0.0,15,43006356677190,4,45.8,-233.6536865234375,0.042100001126527786,0,0.0,0.0,,,,,0,,1,,
Raw,257549680,34764680000000,,,-1221704242751671296,0.0,14.518209354719147,-5.223478482513272,9.51474867973969,84,10,0.0,15,43007362957147,5,46.6,-325.5469970703125,0.021000001579523087,0,0.0,0.0,,,,,0,,1,,
Raw,257549681,34764680000000,,,-1221704242751671296,0.0,14.518209354719147,-5.223478482513272,9.51474867973969,84,12,0.0,15,43007357722725,4,45.0,4.145559310913086,0.04360000044107437,0,0.0,0.0,,,,,0,,1,,
Raw,257549681,34764680000000,,,-1221704242751671296,0.0,14.518209354719147,-5.223478482513272,9.51474867973969,84,14,0.0,15,43007352443381,4,43.4,-267.79193115234375,0.03660000115633011,0,0.0,0.0,,,,,0,,1,,
Raw,257549681,34764680000000,,,-1221704242751671296,0.0,14.518209354719147,-5.223478482513272,9.51474867973969,84,15,0.0,15,43007349949131,5,40.5,365.90472412109375,0.03290000185370445,0,0.0,0.0,,,,,0,,1,,
Raw,257549682,34764680000000,,,-1221704242751671296,0.0,14.518209354719147,-5.223478482513272,9.51474867973969,84,20,0.0,15,43007365020902,4,49.8,78.87299346923828,0.025300001725554466,0,0.0,0.0,,,,,0,,1,,
Raw,257549682,34764680000000,,,-1221704242751671296,0.0,14.518209354719147,-5.223478482513272,9.51474867973969,84,21,0.0,15,43007355705327,4,42.7,466.00469970703125,0.04130000248551369,0,0.0,0.0,,,,,0,,1,,
Raw,257549682,34764680000000,,,-1221704242751671296,0.0,14.518209354719147,-5.223478482513272,9.51474867973969,84,24,0.0,15,43007353571138,4,42.1,610.8224487304688,0.03830000013113022,0,0.0,0.0,,,,,0,,1,,
Raw,257549682,34764680000000,,,-1221704242751671296,0.0,14.518209354719147,-5.223478482513272,9.51474867973969,84,25,0.0,15,43007358889784,5,46.0,-411.29705810546875,0.04500000178813934,0,0.0,0.0,,,,,0,,1,,
Raw,257549683,34764680000000,,,-1221704242751671296,0.0,14.518209354719147,-5.223478482513272,9.51474867973969,84,31,0.0,15,43007355316660,4,43.0,-536.6925048828125,0.04110000282526016,0,0.0,0.0,,,,,0,,1,,
Raw,257549683,34764680000000,,,-1221704242751671296,0.0,14.518209354719147,-5.223478482513272,9.51474867973969,84,32,0.0,15,43007356677974,4,45.6,-234.75990295410156,0.042100001126527786,0,0.0,0.0,,,,,0,,1,,
Raw,257550702,34765680000000,,,-1221704242751671296,0.0,14.51819025533041,-8.967981001387457,9.514728797770285,84,10,0.0,15,43008362958229,4,45.6,-325.178955078125,0.02110000140964985,0,0.0,0.0,,,,,0,,1,,
Raw,257550703,34765680000000,,,-1221704242751671296,0.0,14.51819025533041,-8.967981001387457,9.514728797770285,84,12,0.0,15,43008357722707,4,43.4,4.5401153564453125,0.04410000145435333,0,0.0,0.0,,,,,0,,1,,
Raw,257550703,34765680000000,,,-1221704242751671296,0.0,14.51819025533041,-8.967981001387457,9.514728797770285,84,14,0.0,15,43008352444267,5,41.7,-267.51373291015625,0.03710000216960907,0,0.0,0.0,,,,,0,,1,,
Raw,257550703,34765680000000,,,-1221704242751671296,0.0,14.51819025533041,-8.967981001387457,9.514728797770285,84,15,0.0,15,43008349947900,6,39.7,366.18902587890625,0.03310000151395798,0,0.0,0.0,,,,,0,,1,,
Raw,257550704,34765680000000,,,-1221704242751671296,0.0,14.51819025533041,-8.967981001387457,9.514728797770285,84,20,0.0,15,43008365020634,5,48.3,79.27436065673828,0.025300001725554466,0,0.0,0.0,,,,,0,,1,,
Raw,257550704,34765680000000,,,-1221704242751671296,0.0,14.51819025533041,-8.967981001387457,9.514728797770285,84,21,0.0,15,43008355703770,4,42.4,466.3095703125,0.04130000248551369,0,0.0,0.0,,,,,0,,1,,
Raw,257550705,34765680000000,,,-1221704242751671296,0.0,14.51819025533041,-8.967981001387457,9.514728797770285,84,24,0.0,15,43008353569108,5,41.1,611.1118774414062,0.038600001484155655,0,0.0,0.0,,,,,0,,1,,
Raw,257550705,34765680000000,,,-1221704242751671296,0.0,14.51819025533041,-8.967981001387457,9.514728797770285,84,25,0.0,15,43008358891154,4,45.0,-410.93963623046875,0.045100003480911255,0,0.0,0.0,,,,,0,,1,,
Raw,257550705,34765680000000,,,-1221704242751671296,0.0,14.51819025533041,-8.967981001387457,9.514728797770285,84,31,0.0,15,43008355318450,4,42.2,-536.34814453125,0.04130000248551369,0,0.0,0.0,,,,,0,,1,,
Raw,257550705,34765680000000,,,-1221704242751671296,0.0,14.51819025533041,-8.967981001387457,9.514728797770285,84,32,0.0,15,43008356678750,4,43.8,-234.4868927001953,0.04260000213980675,0,0.0,0.0,,,,,0,,1,,
Raw,257551680,34766680000000,,,-1221704242751671296,0.0,14.518171155941673,-8.068515933872845,9.514709711079657,84,10,0.0,15,43009362959310,4,44.8,-323.78302001953125,0.021300001069903374,0,0.0,0.0,,,,,0,,1,,
Raw,257551680,34766680000000,,,-1221704242751671296,0.0,14.518171155941673,-8.068515933872845,9.514709711079657,84,12,0.0,15,43009357722690,5,41.3,5.970221519470215,0.044600002467632294,0,0.0,0.0,,,,,0,,1,,
Raw,257551681,34766680000000,,,-1221704242751671296,0.0,14.518171155941673,-8.068515933872845,9.514709711079657,84,14,0.0,15,43009352445155,6,39.4,-266.2046203613281,0.03760000318288803,0,0.0,0.0,,,,,0,,1,,
Raw,257551681,34766680000000,,,-1221704242751671296,0.0,14.518171155941673,-8.068515933872845,9.514709711079657,84,15,0.0,15,43009349946667,7,37.5,367.5136413574219,0.0340999998152256,0,0.0,0.0,,,,,0,,1,,
Raw,257551681,34766680000000,,,-1221704242751671296,0.0,14.518171155941673,-8.068515933872845,9.514709711079657,84,20,0.0,15,43009365020367,5,46.5,80.69664764404297,0.02550000138580799,0,0.0,0.0,,,,,0,,1,,
Raw,257551682,34766680000000,,,-1221704242751671296,0.0,14.518171155941673,-8.068515933872845,9.514709711079657,84,21,0.0,15,43009355702200,6,39.9,467.65228271484375,0.042100001126527786,0,0.0,0.0,,,,,0,,1,,
Raw,257551682,34766680000000,,,-1221704242751671296,0.0,14.518171155941673,-8.068515933872845,9.514709711079657,84,24,0.0,15,43009353567058,6,38.9,612.4298706054688,0.03959999978542328,0,0.0,0.0,,,,,0,,1,,
Raw,257551682,34766680000000,,,-1221704242751671296,0.0,14.518171155941673,-8.068515933872845,9.514709711079657,84,25,0.0,15,43009358892517,4,43.0,-409.5440368652344,0.04560000076889992,0,0.0,0.0,,,,,0,,1,,
Raw,257551683,34766680000000,,,-1221704242751671296,0.0,14.518171155941673,-8.068515933872845,9.514709711079657,84,31,0.0,15,43009355320227,5,40.1,-534.96923828125,0.04190000146627426,0,0.0,0.0,,,,,0,,1,,
Raw,257551683,34766680000000,,,-1221704242751671296,0.0,14.518171155941673,-8.068515933872845,9.514709711079657,84,32,0.0,15,43009356679528,5,41.9,-233.17645263671875,0.04310000315308571,0,0.0,0.0,,,,,0,,1,,
Raw,257552680,34767680000000,,,-1221704242751671296,0.0,14.518151147058234,-3.6912506520222164,9.51469062438903,84,10,0.0,15,43010362960386,4,45.5,-323.7955627441406,0.02110000140964985,0,0.0,0.0,,,,,0,,1,,
Raw,257552680,34767680000000,,,-1221704242751671296,0.0,14.518151147058234,-3.6912506520222164,9.51469062438903,84,12,0.0,15,43010357722664,5,41.9,6.0356645584106445,0.044600002467632294,0,0.0,0.0,,,,,0,,1,,
Raw,257552681,34767680000000,,,-1221704242751671296,0.0,14.518151147058234,-3.6912506520222164,9.51469062438903,84,14,0.0,15,43010352446035,6,39.9,-266.27728271484375,0.03760000318288803,0,0.0,0.0,,,,,0,,1,,
Raw,257552681,34767680000000,,,-1221704242751671296,0.0,14.518151147058234,-3.6912506520222164,9.51469062438903,84,15,0.0,15,43010349945447,7,37.8,367.44024658203125,0.0340999998152256,0,0.0,0.0,,,,,0,,1,,
Raw,257552681,34767680000000,,,-1221704242751671296,0.0,14.518151147058234,-3.6912506520222164,9.51469062438903,84,20,0.0,15,43010365020093,5,47.3,80.72020721435547,0.025300001725554466,0,0.0,0.0,,,,,0,,1,,
Raw,257552682,34767680000000,,,-1221704242751671296,0.0,14.518151147058234,-3.6912506520222164,9.51469062438903,84,21,0.0,15,43010355700645,5,40.6,467.6170654296875,0.04190000146627426,0,0.0,0.0,,,,,0,,1,,
Raw,257552682,34767680000000,,,-1221704242751671296,0.0,14.518151147058234,-3.6912506520222164,9.51469062438903,84,24,0.0,15,43010353565022,6,39.7,612.3763427734375,0.039100002497434616,0,0.0,0.0,,,,,0,,1,,
Raw,257552682,34767680000000,,,-1221704242751671296,0.0,14.518151147058234,-3.6912506520222164,9.51469062438903,84,25,0.0,15,43010358893884,4,43.0,-409.51751708984375,0.04560000076889992,0,0.0,0.0,,,,,0,,1,,
Raw,257552682,34767680000000,,,-1221704242751671296,0.0,14.518151147058234,-3.6912506520222164,9.51469062438903,84,31,0.0,15,43010355322011,5,40.8,-534.9641723632812,0.04190000146627426,0,0.0,0.0,,,,,0,,1,,
Raw,257552683,34767680000000,,,-1221704242751671296,0.0,14.518151147058234,-3.6912506520222164,9.51469062438903,84,32,0.0,15,43010356680303,4,42.2,-233.2389678955078,0.04280000180006027,0,0.0,0.0,,,,,0,,1,,
Raw,257553682,34768680000000,,,-1221704242751671296,0.0,14.518132047669496,-3.8719896830872225,9.514670742419625,84,10,0.0,15,43011362961462,4,45.4,-324.5673522949219,0.02110000140964985,0,0.0,0.0,,,,,0,,1,,
Raw,257553682,34768680000000,,,-1221704242751671296,0.0,14.518132047669496,-3.8719896830872225,9.514670742419625,84,12,0.0,15,43011357722644,4,42.9,5.2932915687561035,0.04430000111460686,0,0.0,0.0,,,,,0,,1,,
Raw,257553682,34768680000000,,,-1221704242751671296,0.0,14.518132047669496,-3.8719896830872225,9.514670742419625,84,14,0.0,15,43011352446929,5,41.0,-267.1332092285156,0.03710000216960907,0,0.0,0.0,,,,,0,,1,,
Raw,257553683,34768680000000,,,-1221704242751671296,0.0,14.518132047669496,-3.8719896830872225,9.514670742419625,84,15,0.0,15,43011349944225,6,39.0,366.58441162109375,0.03310000151395798,0,0.0,0.0,,,,,0,,1,,
Raw,257553683,34768680000000,,,-1221704242751671296,0.0,14.518132047669496,-3.8719896830872225,9.514670742419625,84,20,0.0,15,43011365019818,5,47.8,79.97817993164062,0.025300001725554466,0,0.0,0.0,,,,,0,,1,,
Raw,257553683,34768680000000,,,-1221704242751671296,0.0,14.518132047669496,-3.8719896830872225,9.514670742419625,84,21,0.0,15,43011355699086,4,42.1,466.78265380859375,0.04130000248551369,0,0.0,0.0,,,,,0,,1,,
Raw,257553683,34768680000000,,,-1221704242751671296,0.0,14.518132047669496,-3.8719896830872225,9.514670742419625,84,24,0.0,15,43011353562971,5,41.0,611.5162963867188,0.038600001484155655,0,0.0,0.0,,,,,0,,1,,
Raw,257553684,34768680000000,,,-1221704242751671296,0.0,14.518132047669496,-3.8719896830872225,9.514670742419625,84,25,0.0,15,43011358895248,4,44.3,-410.2918701171875,0.04530000314116478,0,0.0,0.0,,,,,0,,1,,
Raw,257553684,34768680000000,,,-1221704242751671296,0.0,14.518132047669496,-3.8719896830872225,9.514670742419625,84,31,0.0,15,43011355323788,5,41.6,-535.75439453125,0.041600000113248825,0,0.0,0.0,,,,,0,,1,,
Raw,257553684,34768680000000,,,-1221704242751671296,0.0,14.518132047669496,-3.8719896830872225,9.514670742419625,84,32,0.0,15,43011356681072,4,43.2,-234.10293579101562,0.04260000213980675,0,0.0,0.0,,,,,0,,1,,
Raw,257554707,34769680000000,,,-1221704242751671296,0.0,14.51811294828076,-6.761954023069875,9.514651655728997,84,10,0.0,15,43012362962536,4,44.0,-324.6685485839844,0.021300001069903374,0,0.0,0.0,,,,,0,,1,,
Raw,257554707,34769680000000,,,-1221704242751671296,0.0,14.51811294828076,-6.761954023069875,9.514651655728997,84,12,0.0,15,43012357722615,5,40.9,5.212276935577393,0.04490000009536743,0,0.0,0.0,,,,,0,,1,,
Raw,257554708,34769680000000,,,-1221704242751671296,0.0,14.51811294828076,-6.761954023069875,9.514651655728997,84,14,0.0,15,43012352447811,6,38.8,-267.32470703125,0.038100000470876694,0,0.0,0.0,,,,,0,,1,,
Raw,257554709,34769680000000,,,-1221704242751671296,0.0,14.51811294828076,-6.761954023069875,9.514651655728997,84,15,0.0,15,43012349942996,8,36.8,366.40155029296875,0.034700002521276474,0,0.0,0.0,,,,,0,,1,,
Raw,257554711,34769680000000,,,-1221704242751671296,0.0,14.51811294828076,-6.761954023069875,9.514651655728997,84,20,0.0,15,43012365019546,5,46.3,79.89928436279297,0.02550000138580799,0,0.0,0.0,,,,,0,,1,,
Raw,257554711,34769680000000,,,-1221704242751671296,0.0,14.51811294828076,-6.761954023069875,9.514651655728997,84,21,0.0,15,43012355697521,6,39.4,466.6190185546875,0.042100001126527786,0,0.0,0.0,,,,,0,,1,,
Raw,257554712,34769680000000,,,-1221704242751671296,0.0,14.51811294828076,-6.761954023069875,9.514651655728997,84,24,0.0,15,43012353560923,6,38.2,611.3312377929688,0.03959999978542328,0,0.0,0.0,,,,,0,,1,,
Raw,257554713,34769680000000,,,-1221704242751671296,0.0,14.51811294828076,-6.761954023069875,9.514651655728997,84,25,0.0,15,43012358896609,4,42.2,-410.41290283203125,0.04580000042915344,0,0.0,0.0,,,,,0,,1,,
Raw,257554713,34769680000000,,,-1221704242751671296,0.0,14.51811294828076,-6.761954023069875,9.514651655728997,84,31,0.0,15,43012355325578,6,39.4,-535.8850708007812,0.042100001126527786,0,0.0,0.0,,,,,0,,1,,
Raw,257554714,34769680000000,,,-1221704242751671296,0.0,14.51811294828076,-6.761954023069875,9.514651655728997,84,32,0.0,15,43012356681859,5,40.9,-234.2903289794922,0.04340000078082085,0,0.0,0.0,,,,,0,,1,,
Raw,257555714,34770680000000,,,-1221704242751671296,0.0,14.51809293939732,-7.41716750589744,9.514632569038369,84,10,0.0,15,43013362963623,5,40.5,-323.2795104980469,0.02240000106394291,0,0.0,0.0,,,,,0,,1,,
Raw,257555715,34770680000000,,,-1221704242751671296,0.0,14.51809293939732,-7.41716750589744,9.514632569038369,84,12,0.0,15,43013357722588,7,37.0,6.621962547302246,0.04610000178217888,0,0.0,0.0,,,,,0,,1,,
Raw,257555716,34770680000000,,,-1221704242751671296,0.0,14.51809293939732,-7.41716750589744,9.514632569038369,84,14,0.0,15,43013352448696,10,34.7,-266.0330505371094,0.04010000079870224,0,0.0,0.0,,,,,0,,1,,
Raw,257555716,34770680000000,,,-1221704242751671296,0.0,14.51809293939732,-7.41716750589744,9.514632569038369,84,15,0.0,15,43013349941766,12,32.9,367.70574951171875,0.03739999979734421,0,0.0,0.0,,,,,0,,1,,
Raw,257555718,34770680000000,,,-1221704242751671296,0.0,14.51809293939732,-7.41716750589744,9.514632569038369,84,20,0.0,15,43013365019286,4,42.1,81.31769561767578,0.02630000188946724,0,0.0,0.0,,,,,0,,1,,
Raw,257555719,34770680000000,,,-1221704242751671296,0.0,14.51809293939732,-7.41716750589744,9.514632569038369,84,21,0.0,15,43013355695981,9,35.9,467.9385986328125,0.04410000145435333,0,0.0,0.0,,,,,0,,1,,
Raw,257555719,34770680000000,,,-1221704242751671296,0.0,14.51809293939732,-7.41716750589744,9.514632569038369,84,24,0.0,15,43013353558877,10,34.6,612.6331176757812,0.041600000113248825,0,0.0,0.0,,,,,0,,1,,
Raw,257555720,34770680000000,,,-1221704242751671296,0.0,14.51809293939732,-7.41716750589744,9.514632569038369,84,25,0.0,15,43013358897977,6,38.3,-409.03839111328125,0.0471000038087368,0,0.0,0.0,,,,,0,,1,,
Raw,257555720,34770680000000,,,-1221704242751671296,0.0,14.51809293939732,-7.41716750589744,9.514632569038369,84,31,0.0,15,43013355327361,9,35.8,-534.5269165039062,0.04410000145435333,0,0.0,0.0,,,,,0,,1,,
Raw,257555720,34770680000000,,,-1221704242751671296,0.0,14.51809293939732,-7.41716750589744,9.514632569038369,84,32,0.0,15,43013356682631,7,37.2,-232.9934539794922,0.044600002467632294,0,0.0,0.0,,,,,0,,1,,
Raw,257556680,34771680000000,,,-1221704242751671296,0.0,14.518074749503285,-3.1358796478694377,9.514612687068965,84,10,0.0,15,43014362964705,4,44.9,-322.57000732421875,0.021300001069903374,0,0.0,0.0,,,,,0,,1,,
Raw,257556681,34771680000000,,,-1221704242751671296,0.0,14.518074749503285,-3.1358796478694377,9.514612687068965,84,12,0.0,15,43014357722580,5,41.9,7.396768569946289,0.044600002467632294,0,0.0,0.0,,,,,0,,1,,
Raw,257556681,34771680000000,,,-1221704242751671296,0.0,14.518074749503285,-3.1358796478694377,9.514612687068965,84,14,0.0,15,43014352449592,5,40.1,-265.3775939941406,0.03739999979734421,0,0.0,0.0,,,,,0,,1,,
Raw,257556681,34771680000000,,,-1221704242751671296,0.0,14.518074749503285,-3.1358796478694377,9.514612687068965,84,15,0.0,15,43014349940550,6,38.0,368.3612365722656,0.03360000252723694,0,0.0,0.0,,,,,0,,1,,
Raw,257556682,34771680000000,,,-1221704242751671296,0.0,14.518074749503285,-3.1358796478694377,9.514612687068965,84,20,0.0,15,43014365019014,5,47.1,82.06360626220703,0.025300001725554466,0,0.0,0.0,,,,,0,,1,,
Raw,257556682,34771680000000,,,-1221704242751671296,0.0,14.518074749503285,-3.1358796478694377,9.514612687068965,84,21,0.0,15,43014355694413,5,40.8,468.6163635253906,0.04190000146627426,0,0.0,0.0,,,,,0,,1,,
Raw,257556682,34771680000000,,,-1221704242751671296,0.0,14.518074749503285,-3.1358796478694377,9.514612687068965,84,24,0.0,15,43014353556843,5,40.0,613.2885131835938,0.03890000283718109,0,0.0,0.0,,,,,0,,1,,
Raw,257556683,34771680000000,,,-1221704242751671296,0.0,14.518074749503285,-3.1358796478694377,9.514612687068965,84,25,0.0,15,43014358899343,4,43.6,-408.30029296875,0.04560000076889992,0,0.0,0.0,,,,,0,,1,,
Raw,257556683,34771680000000,,,-1221704242751671296,0.0,14.518074749503285,-3.1358796478694377,9.514612687068965,84,31,0.0,15,43014355329151,5,40.9,-533.8018188476562,0.04190000146627426,0,0.0,0.0,,,,,0,,1,,
Raw,257556683,34771680000000,,,-1221704242751671296,0.0,14.518074749503285,-3.1358796478694377,9.514612687068965,84,32,0.0,15,43014356683418,4,42.6,-232.34097290039062,0.04280000180006027,0,0.0,0.0,,,,,0,,1,,
Raw,257557695,34772680000000,,,-1221704242751671296,0.0,14.518054740619846,-0.9186265143475186,9.514593600378337,84,10,0.0,15,43015362965777,5,46.2,-323.6524963378906,0.021000001579523087,0,0.0,0.0,,,,,0,,1,,
Raw,257557695,34772680000000,,,-1221704242751671296,0.0,14.518054740619846,-0.9186265143475186,9.514593600378337,84,12,0.0,15,43015357722543,4,43.6,6.383163928985596,0.04410000145435333,0,0.0,0.0,,,,,0,,1,,
Raw,257557696,34772680000000,,,-1221704242751671296,0.0,14.518054740619846,-0.9186265143475186,9.514593600378337,84,14,0.0,15,43015352450470,5,41.8,-266.5283508300781,0.03710000216960907,0,0.0,0.0,,,,,0,,1,,
Raw,257557696,34772680000000,,,-1221704242751671296,0.0,14.518054740619846,-0.9186265143475186,9.514593600378337,84,15,0.0,15,43015349939320,6,39.5,367.2109069824219,0.03310000151395798,0,0.0,0.0,,,,,0,,1,,
Raw,257557697,34772680000000,,,-1221704242751671296,0.0,14.518054740619846,-0.9186265143475186,9.514593600378337,84,20,0.0,15,43015365018736,5,48.4,81.01543426513672,0.025300001725554466,0,0.0,0.0,,,,,0,,1,,
Raw,257557697,34772680000000,,,-1221704242751671296,0.0,14.518054740619846,-0.9186265143475186,9.514593600378337,84,21,0.0,15,43015355692835,4,42.0,467.5086975097656,0.04130000248551369,0,0.0,0.0,,,,,0,,1,,
Raw,257557698,34772680000000,,,-1221704242751671296,0.0,14.518054740619846,-0.9186265143475186,9.514593600378337,84,24,0.0,15,43015353554791,5,40.8,612.15283203125,0.03890000283718109,0,0.0,0.0,,,,,0,,1,,
Raw,257557699,34772680000000,,,-1221704242751671296,0.0,14.518054740619846,-0.9186265143475186,9.514593600378337,84,25,0.0,15,43015358900702,4,45.0,-409.349609375,0.045100003480911255,0,0.0,0.0,,,,,0,,1,,
Raw,257557699,34772680000000,,,-1221704242751671296,0.0,14.518054740619846,-0.9186265143475186,9.514593600378337,84,31,0.0,15,43015355330922,4,42.2,-534.8736572265625,0.04130000248551369,0,0.0,0.0,,,,,0,,1,,
Raw,257557700,34772680000000,,,-1221704242751671296,0.0,14.518054740619846,-0.9186265143475186,9.514593600378337,84,32,0.0,15,43015356684190,4,44.2,-233.47535705566406,0.04230000078678131,0,0.0,0.0,,,,,0,,1,,
Raw,257558680,34773680000000,,,-1221704242751671296,0.0,14.518034731736407,-4.703618663913176,9.514573718408933,84,10,0.0,15,43016362966852,5,46.7,-324.7649230957031,0.021000001579523087,0,0.0,0.0,,,,,0,,1,,
Raw,257558681,34773680000000,,,-1221704242751671296,0.0,14.518034731736407,-4.703618663913176,9.514573718408933,84,12,0.0,15,43016357722522,4,45.1,5.279216766357422,0.04360000044107437,0,0.0,0.0,,,,,0,,1,,
Raw,257558681,34773680000000,,,-1221704242751671296,0.0,14.518034731736407,-4.703618663913176,9.514573718408933,84,14,0.0,15,43016352451361,4,43.2,-267.74481201171875,0.03660000115633011,0,0.0,0.0,,,,,0,,1,,
Raw,257558681,34773680000000,,,-1221704242751671296,0.0,14.518034731736407,-4.703618663913176,9.514573718408933,84,15,0.0,15,43016349938086,6,39.7,366.00347900390625,0.03310000151395798,0,0.0,0.0,,,,,0,,1,,
Raw,257558682,34773680000000,,,-1221704242751671296,0.0,14.518034731736407,-4.703618663913176,9.514573718408933,84,20,0.0,15,43016365018467,4,49.6,79.92510986328125,0.025300001725554466,0,0.0,0.0,,,,,0,,1,,
Raw,257558682,34773680000000,,,-1221704242751671296,0.0,14.518034731736407,-4.703618663913176,9.514573718408933,84,21,0.0,15,43016355691277,4,42.9,466.3148193359375,0.04130000248551369,0,0.0,0.0,,,,,0,,1,,
Raw,257558682,34773680000000,,,-1221704242751671296,0.0,14.518034731736407,-4.703618663913176,9.514573718408933,84,24,0.0,15,43016353552745,4,42.2,610.942626953125,0.03830000013113022,0,0.0,0.0,,,,,0,,1,,
Raw,257558683,34773680000000,,,-1221704242751671296,0.0,14.518034731736407,-4.703618663913176,9.514573718408933,84,25,0.0,15,43016358902065,5,46.3,-410.4909973144531,0.04500000178813934,0,0.0,0.0,,,,,0,,1,,
Raw,257558683,34773680000000,,,-1221704242751671296,0.0,14.518034731736407,-4.703618663913176,9.514573718408933,84,31,0.0,15,43016355332701,4,43.8,-536.0248413085938,0.04110000282526016,0,0.0,0.0,,,,,0,,1,,
Raw,257558683,34773680000000,,,-1221704242751671296,0.0,14.518034731736407,-4.703618663913176,9.514573718408933,84,32,0.0,15,43016356684969,4,45.1,-234.70159912109375,0.042100001126527786,0,0.0,0.0,,,,,0,,1,,
Raw,257559681,34774680000000,,,-1221704242751671296,0.0,14.51801563234767,-8.808153825741694,9.514554631718305,84,10,0.0,15,43017362967937,5,47.4,-324.72607421875,0.020800000056624413,0,0.0,0.0,,,,,0,,1,,
Raw,257559681,34774680000000,,,-1221704242751671296,0.0,14.51801563234767,-8.808153825741694,9.514554631718305,84,12,0.0,15,43017357722504,4,45.8,5.3491644859313965,0.04360000044107437,0,0.0,0.0,,,,,0,,1,,
Raw,257559682,34774680000000,,,-1221704242751671296,0.0,14.51801563234767,-8.808153825741694,9.514554631718305,84,14,0.0,15,43017352452254,4,43.6,-267.7929382324219,0.03660000115633011,0,0.0,0.0,,,,,0,,1,,
Raw,257559682,34774680000000,,,-1221704242751671296,0.0,14.51801563234767,-8.808153825741694,9.514554631718305,84,15,0.0,15,43017349936860,5,41.0,365.9624328613281,0.032600000500679016,0,0.0,0.0,,,,,0,,1,,
Raw,257559682,34774680000000,,,-1221704242751671296,0.0,14.51801563234767,-8.808153825741694,9.514554631718305,84,20,0.0,15,43017365018190,4,49.5,79.99141693115234,0.025300001725554466,0,0.0,0.0,,,,,0,,1,,
Raw,257559683,34774680000000,,,-1221704242751671296,0.0,14.51801563234767,-8.808153825741694,9.514554631718305,84,21,0.0,15,43017355689718,4,43.5,466.2970275878906,0.04110000282526016,0,0.0,0.0,,,,,0,,1,,
