# 
# Header Description:
# 
# Version: v2.0.0.1 Platform: 8.1.0 Manufacturer: Xiaomi Model: MI 8
# 
# Raw,ElapsedRealtimeMillis,TimeNanos,LeapSecond,TimeUncertaintyNanos,FullBiasNanos,BiasNanos,BiasUncertaintyNanos,DriftNanosPerSecond,DriftUncertaintyNanosPerSecond,HardwareClockDiscontinuityCount,Svid,TimeOffsetNanos,State,ReceivedSvTimeNanos,ReceivedSvTimeUncertaintyNanos,Cn0DbHz,PseudorangeRateMetersPerSecond,PseudorangeRateUncertaintyMetersPerSecond,AccumulatedDeltaRangeState,AccumulatedDeltaRangeMeters,AccumulatedDeltaRangeUncertaintyMeters,CarrierFrequencyHz,CarrierCycles,CarrierPhase,CarrierPhaseUncertainty,MultipathIndicator,SnrInDb,ConstellationType,AgcDb,CarrierFrequencyHz
# 
# Fix,Provider,Latitude,Longitude,Altitude,Speed,Accuracy,(UTC)TimeInMs
# 
# Nav,Svid,Type,Status,MessageId,Sub-messageId,Data(Bytes)
# 
NMEA,$GPGGA,133839.00,3045.145077,N,10356.108186,E,1,33,0.4,526.8,M,-32.4,M,,*4F
,1535895517980
Fix,gps,30.752418,103.935136,494.450463,0.032172,4.000000,1535895519000
Raw,19651495,94612000000,,,-1219930642388468167,0.0,4.703746703796137,,,0,10,0.0,16431,49136933330428,11,43.179779052734375,39.79419908164209,0.15229404539816105,1,5298.55206202231,6.641336949542165E-4,1.57542003E9,,,,0,,1,,1.57542003E9
Raw,19651495,94612000000,,,-1219930642388468167,0.0,4.703746703796137,,,0,12,0.0,16431,49136924423335,13,41.068138122558594,107.79825145308934,0.15069187038874843,1,15439.753918936567,8.46910523250699E-4,1.57542003E9,,,,0,,1,,1.57542003E9
Raw,19651495,94612000000,,,-1219930642388468167,0.0,4.703746703796137,,,0,14,0.0,16431,49136925429633,15,36.92826461791992,-155.19939069158465,0.28900528546452287,1,-23633.21291017026,0.001294054207392037,1.57542003E9,,,,0,,1,,1.57542003E9
Raw,19651495,94612000000,,,-1219930642388468167,0.0,4.703746703796137,,,0,15,0.0,16431,49136914762939,70,18.385086059570312,589.3299804728713,1.1245499872971498,4,23337.46601659311,3.4028234663852886E38,1.57542003E9,,,,1,,1,,1.57542003E9
Raw,19651496,94612000000,,,-1219930642388468167,0.0,4.703746703796137,,,0,18,0.0,16431,49136920480669,40,25.199508666992188,-197.23013169393835,0.819141554405205,1,-13575.047979215862,0.09985459331710612,1.57542003E9,,,,0,,1,,1.57542003E9
Raw,19651496,94612000000,,,-1219930642388468167,0.0,4.703746703796137,,,0,20,0.0,16431,49136931808692,16,36.6222038269043,446.38236379859563,0.30391596078946503,1,67010.45869796356,0.0013404650380834937,1.57542003E9,,,,0,,1,,1.57542003E9
Raw,19651496,94612000000,,,-1219930642388468167,0.0,4.703746703796137,,,0,21,0.0,16431,49136920904078,12,42.286922454833984,692.6652620535106,0.1536563617914295,1,105143.1702536981,7.360349991358817E-4,1.57542003E9,,,,0,,1,,1.57542003E9
Raw,19651497,94612000000,,,-1219930642388468167,0.0,4.703746703796137,,,0,24,0.0,16431,49136920507313,18,34.767669677734375,766.3914776948714,0.3888769347383396,1,67111.2620113647,0.0016595189226791263,1.57542003E9,,,,0,,1,,1.57542003E9
Raw,19651497,94612000000,,,-1219930642388468167,0.0,4.703746703796137,,,0,25,0.0,16431,49136925813677,14,40.648651123046875,-306.72455624018426,0.15094196372694413,1,-47165.86611180508,8.888160809874535E-4,1.57542003E9,,,,0,,1,,1.57542003E9
Raw,19651497,94612000000,,,-1219930642388468167,0.0,4.703746703796137,,,0,31,0.0,16431,49136926409140,13,40.99779510498047,-443.3128295992383,0.15104907050925898,1,-45336.72282138063,8.537971298210323E-4,1.57542003E9,,,,0,,1,,1.57542003E9
Raw,19651497,94612000000,,,-1219930642388468167,0.0,4.703746703796137,,,0,32,0.0,16431,49136929093981,12,42.6424560546875,-44.33909039865179,0.15153201625549528,1,-6889.304083930066,7.065155659802258E-4,1.57542003E9,,,,0,,1,,1.57542003E9
Raw,19651498,94612000000,,,-1219930642388468167,0.0,4.703746703796137,,,0,10,0.0,16401,49136933330462,11,34.75084686279297,39.775287578579,0.38834249918718067,1,8683.040190391046,0.0022266204468905926,1.17645005E9,,,,0,,1,,1.17645005E9
Raw,19651498,94612000000,,,-1219930642388468167,0.0,4.703746703796137,,,0,24,0.0,16401,49136920507292,9,31.27460289001465,766.4928389205702,0.5459562202712362,1,-379582.99357426196,0.0031324359588325024,1.17645005E9,,,,0,,1,,1.17645005E9
Raw,19651498,94612000000,,,-1219930642388468167,0.0,4.703746703796137,,,0,25,0.0,16401,49136925813672,8,33.62242126464844,-306.7144678330535,0.43773443571662884,1,-77839.34131005147,0.0025355226825922728,1.17645005E9,,,,0,,1,,1.17645005E9
Raw,19651498,94612000000,,,-1219930642388468167,0.0,4.703746703796137,,,0,32,0.0,16401,49136929093980,10,36.87624740600586,-44.30487161230289,0.29200354312906174,1,-11042.47255532807,0.0017433165339753032,1.17645005E9,,,,0,,1,,1.17645005E9
NMEA,$GPGSV,4,1,14,10,83,024,44,20,61,136,40,32,53,322,44,14,37,294,37*7E
,1535895517986
NMEA,$GPGSV,4,2,14,25,36,124,41,31,34,223,43,12,27,073,42,24,17,044,37*7B
,1535895517986
NMEA,$GPGSV,4,3,14,21,15,185,43,18,14,311,27*7D
,1535895517986
NMEA,$GPGSV,4,4,14,10,,,37,32,,,38,25,,,36,24,,,35,8*65
,1535895517986
NMEA,$GLGSV,1,1,04,79,70,076,37,69,49,357,41,68,43,079,40,80,31,192,38*63
,1535895517986
NMEA,$QZGSV,2,1,04,01,58,119,40,02,57,079,37*69
,1535895517986
NMEA,$QZGSV,2,2,04,01,,,36,02,,,30,8*70
,1535895517986
NMEA,$BDGSV,1,1,04,206,60,041,39,203,52,168,34,202,48,215,29,213,19,201,40*61
,1535895517986
NMEA,$GAGSV,3,1,10,107,62,003,41,130,59,101,41,127,37,178,40,108,36,084,40*6A
,1535895517986
NMEA,$GAGSV,3,2,10,102,24,044,38,126,22,249,40*68
,1535895517986
NMEA,$GAGSV,3,3,10,107,,,36,130,,,37,108,,,32,102,,,35,1*7C
,1535895517986
NMEA,$GPGSA,A,3,10,12,14,18,20,21,24,25,31,32,,,1.4,0.7,1.2*3E
,1535895517986
NMEA,$GNGSA,A,3,10,12,14,18,20,21,24,25,31,32,,,1.4,0.7,1.2*20
,1535895517986
NMEA,$GNGSA,A,3,68,69,79,80,,,,,,,,,1.4,0.7,1.2*2A
,1535895517986
NMEA,$QZGSA,A,3,01,02,,,,,,,,,,,1.4,0.7,1.2*2C
,1535895517986
NMEA,$IMGSA,A,3,,,,,,,,,,,,,1.4,0.7,1.2*20
,1535895517986
NMEA,$BDGSA,A,3,202,203,206,213,,,,,,,,,1.4,0.7,1.2*27
,1535895517986
NMEA,$GAGSA,A,3,102,107,108,126,127,130,,,,,,,1.4,0.7,1.2*2D
,1535895517986
NMEA,$GPRMC,133839.00,A,3045.145077,N,10356.108186,E,000.1,289.4,020918,,,A*5C
,1535895517986
Nav,99,769,1,3,5,43,-49,0,0,0,3,24,0,1,68,56
Nav,100,769,1,3,5,43,-49,0,0,0,3,24,0,1,68,56
Nav,101,769,1,3,5,43,-49,0,0,0,4,24,0,1,85,40
Nav,102,769,1,-1,5,43,-49,0,0,0,3,24,0,1,68,56
Nav,104,769,1,-1,5,43,-49,0,0,0,4,24,0,1,85,40
Nav,106,769,1,3,5,43,-49,0,0,0,3,24,0,1,116,32
NMEA,$GPGGA,133840.00,3045.145053,N,10356.108250,E,1,30,0.4,526.8,M,-32.4,M,,*4C
,1535895518971
NMEA,$GPGSV,4,1,14,10,83,024,44,20,61,136,40,32,53,322,44,14,37,294,37*7E
,1535895518978
NMEA,$GPGSV,4,2,14,25,36,124,41,31,34,223,43,12,27,073,42,24,17,044,36*7A
,1535895518978
NMEA,$GPGSV,4,3,14,21,15,185,43,18,14,311,27*7D
,1535895518978
NMEA,$GPGSV,4,4,14,10,,,37,32,,,38,25,,,36,24,,,35,8*65
,1535895518978
Fix,gps,30.752418,103.935138,494.400288,0.047484,4.000000,1535895520000
NMEA,$GLGSV,1,1,04,79,70,076,37,69,49,357,41,68,43,079,40,80,31,192,38*63
,1535895518978
NMEA,$QZGSV,2,1,04,01,58,119,40,02,57,079,36*68
,1535895518978
NMEA,$QZGSV,2,2,04,01,,,37,02,,,30,8*71
,1535895518979
Raw,19652467,95612000000,,,-1219930642388467791,0.0,4.7361368177917615,,,0,10,0.0,16431,49137933330306,12,42.55935287475586,39.846634941002435,0.1522940121145121,1,5338.345847668085,7.133076433092356E-4,1.57542003E9,,,,0,,1,,1.57542003E9
Raw,19652468,95612000000,,,-1219930642388467791,0.0,4.7361368177917615,,,0,12,0.0,16431,49137924423008,13,38.576881408691406,107.82459719198147,0.21468780670173138,1,15547.499740248306,0.001070339698344469,1.57542003E9,,,,0,,1,,1.57542003E9
Raw,19652468,95612000000,,,-1219930642388467791,0.0,4.7361368177917615,,,0,14,0.0,16431,49137925430142,15,37.247222900390625,-155.1223643398431,0.274662129637794,1,-23788.422825044432,0.0012473964598029852,1.57542003E9,,,,0,,1,,1.57542003E9
Raw,19652468,95612000000,,,-1219930642388467791,0.0,4.7361368177917615,,,0,15,0.0,16431,49137914761001,71,18.21399688720703,589.6362454271853,1.1322433030495995,4,23927.095185381582,3.4028234663852886E38,1.57542003E9,,,,1,,1,,1.57542003E9
Raw,19652468,95612000000,,,-1219930642388467791,0.0,4.7361368177917615,,,0,18,0.0,16431,49137920481344,39,25.455265045166016,-196.93243847743986,0.8076406557803955,1,-13772.145437473086,0.09971799437244212,1.57542003E9,,,,0,,1,,1.57542003E9
Raw,19652468,95612000000,,,-1219930642388467791,0.0,4.7361368177917615,,,0,20,0.0,16431,49137931807198,16,36.20128631591797,446.45605006959795,0.3228438394078419,1,67456.8355405936,0.0014070237521082163,1.57542003E9,,,,0,,1,,1.57542003E9
Raw,19652469,95612000000,,,-1219930642388467791,0.0,4.7361368177917615,,,0,21,0.0,16431,49137920901791,12,42.05323028564453,692.5800559122035,0.15365594574581765,1,105835.7948420649,7.561063393950462E-4,1.57542003E9,,,,0,,1,,1.57542003E9
Raw,19652469,95612000000,,,-1219930642388467791,0.0,4.7361368177917615,,,0,24,0.0,16431,49137920504753,18,34.8676643371582,766.3085891606079,0.38437984779437184,1,67877.56791880664,0.0016405237838625908,1.57542003E9,,,,0,,1,,1.57542003E9
Raw,19652469,95612000000,,,-1219930642388467791,0.0,4.7361368177917615,,,0,25,0.0,16431,49137925814696,13,40.99940490722656,-306.7833484776861,0.15094214678701334,1,-47472.646333953635,8.53639212436974E-4,1.57542003E9,,,,0,,1,,1.57542003E9
Raw,19652469,95612000000,,,-1219930642388467791,0.0,4.7361368177917615,,,0,31,0.0,16431,49137926410615,12,42.023929595947266,-443.1569705255595,0.15104933677845056,1,-45779.96967465892,7.58661306463182E-4,1.57542003E9,,,,0,,1,,1.57542003E9
Raw,19652469,95612000000,,,-1219930642388467791,0.0,4.7361368177917615,,,0,32,0.0,16431,49137929094119,11,42.920379638671875,-44.34479921011936,0.15153203289731976,1,-6933.6894300602025,6.842668517492712E-4,1.57542003E9,,,,0,,1,,1.57542003E9
Raw,19652469,95612000000,,,-1219930642388467791,0.0,4.7361368177917615,,,0,10,0.0,16401,49137933330329,10,34.27143478393555,39.81780970339827,0.409901084134763,1,8722.816970479387,0.0023529722820967436,1.17645005E9,,,,0,,1,,1.17645005E9
Raw,19652470,95612000000,,,-1219930642388467791,0.0,4.7361368177917615,,,0,24,0.0,16401,49137920504749,14,30.0440673828125,766.3157464764777,0.6012915514260411,1,-378816.68814242585,0.0036091837100684643,1.17645005E9,,,,1,,1,,1.17645005E9
Raw,19652470,95612000000,,,-1219930642388467791,0.0,4.7361368177917615,,,0,25,0.0,16401,49137925814695,9,33.08604049682617,-306.73365625607585,0.4618550628256368,1,-78146.09329732935,0.0026970349717885256,1.17645005E9,,,,0,,1,,1.17645005E9
Raw,19652470,95612000000,,,-1219930642388467791,0.0,4.7361368177917615,,,0,32,0.0,16401,49137929094127,10,36.232757568359375,-44.3005175784821,0.32094058051004515,1,-11086.845205957217,0.0018773735500872135,1.17645005E9,,,,0,,1,,1.17645005E9
NMEA,$BDGSV,1,1,04,206,60,041,38,203,52,168,34,202,48,215,29,213,19,201,40*60
,1535895518979
NMEA,$GAGSV,3,1,10,107,62,003,41,130,59,101,41,127,37,178,40,108,36,084,40*6A
,1535895518979
NMEA,$GAGSV,3,2,10,102,24,044,38,126,22,249,40*68
,1535895518979
NMEA,$GAGSV,3,3,10,107,,,36,130,,,37,108,,,32,102,,,34,1*7D
,1535895518979
NMEA,$GPGSA,A,3,10,12,14,18,20,21,24,25,31,32,,,1.4,0.7,1.2*3E
,1535895518979
NMEA,$GNGSA,A,3,10,12,14,18,20,21,24,25,31,32,,,1.4,0.7,1.2*20
,1535895518979
NMEA,$GNGSA,A,3,68,69,79,80,,,,,,,,,1.4,0.7,1.2*2A
,1535895518979
NMEA,$QZGSA,A,3,01,02,,,,,,,,,,,1.4,0.7,1.2*2C
,1535895518979
NMEA,$IMGSA,A,3,,,,,,,,,,,,,1.4,0.7,1.2*20
,1535895518979
NMEA,$BDGSA,A,3,202,203,206,213,,,,,,,,,1.4,0.7,1.2*27
,1535895518979
NMEA,$GAGSA,A,3,102,107,108,126,127,130,,,,,,,1.4,0.7,1.2*2D
,1535895518979
NMEA,$GPRMC,133840.00,A,3045.145053,N,10356.108250,E,000.1,065.6,020918,,,A*5E
,1535895518979
NMEA,$GPGGA,133841.00,3045.145112,N,10356.108212,E,1,31,0.4,526.7,M,-32.4,M,,*41
,1535895519912
Raw,19653403,96612000000,,,-1219930642388467414,0.0,4.690441292231519,,,0,10,0.0,16431,49138933330188,11,42.98576354980469,39.96104974754951,0.15229399547268763,1,5378.23986469088,6.791352643631399E-4,1.57542003E9,,,,0,,1,,1.57542003E9
Raw,19653403,96612000000,,,-1219930642388467414,0.0,4.690441292231519,,,0,12,0.0,16431,49138924422613,14,38.01068878173828,108.01067036336775,0.24014879963752656,1,15655.301548545747,0.0011424345429986715,1.57542003E9,,,,0,,1,,1.57542003E9
Raw,19653403,96612000000,,,-1219930642388467414,0.0,4.690441292231519,,,0,14,0.0,16431,49138925430689,15,37.42897415161133,-155.17871968170357,0.266489096653056,1,-23943.60991560394,0.0012215659953653812,1.57542003E9,,,,0,,1,,1.57542003E9
Raw,19653404,96612000000,,,-1219930642388467414,0.0,4.690441292231519,,,0,15,0.0,16431,49138914759025,54,21.47232437133789,589.4265019897439,0.9857196272277386,4,24516.183483800618,3.4028234663852886E38,1.57542003E9,,,,0,,1,,1.57542003E9
Raw,19653404,96612000000,,,-1219930642388467414,0.0,4.690441292231519,,,0,18,0.0,16431,49138920482042,33,27.484590530395508,-196.79464310571814,0.7163842127675917,1,-13969.172498931526,0.09876559736494696,1.57542003E9,,,,0,,1,,1.57542003E9
Raw,19653404,96612000000,,,-1219930642388467414,0.0,4.690441292231519,,,0,20,0.0,16431,49138931805705,14,38.15028762817383,446.6234290135815,0.23519923812793442,1,67903.36774103693,0.0011242202017456293,1.57542003E9,,,,0,,1,,1.57542003E9
Raw,19653404,96612000000,,,-1219930642388467414,0.0,4.690441292231519,,,0,21,0.0,16431,49138920899477,14,40.8037223815918,693.0180836434347,0.1536555297002058,1,106528.61913118363,8.730886620469391E-4,1.57542003E9,,,,0,,1,,1.57542003E9
Raw,19653404,96612000000,,,-1219930642388467414,0.0,4.690441292231519,,,0,24,0.0,16431,49138920502212,19,34.03940963745117,766.2387882896492,0.42162508305847135,1,68643.77513766718,0.0018046594923362136,1.57542003E9,,,,0,,1,,1.57542003E9
Raw,19653404,96612000000,,,-1219930642388467414,0.0,4.690441292231519,,,0,25,0.0,16431,49138925815706,14,40.26234436035156,-306.4837296023941,0.15094232984708256,1,-47779.281773382456,9.292383911088109E-4,1.57542003E9,,,,0,,1,,1.57542003E9
Raw,19653404,96612000000,,,-1219930642388467414,0.0,4.690441292231519,,,0,31,0.0,16431,49138926412096,12,42.522613525390625,-442.9526461987052,0.15104960304764214,1,-46223.0122302811,7.163312402553856E-4,1.57542003E9,,,,0,,1,,1.57542003E9
Raw,19653404,96612000000,,,-1219930642388467414,0.0,4.690441292231519,,,0,32,0.0,16431,49138929094279,12,42.764610290527344,-44.34565127153243,0.1515320661809687,1,-6978.076405267036,6.966488435864449E-4,1.57542003E9,,,,0,,1,,1.57542003E9
Raw,19653405,96612000000,,,-1219930642388467414,0.0,4.690441292231519,,,0,10,0.0,16401,49138933330188,10,35.76588439941406,39.994101209762505,0.34269736958711317,1,8762.740766244446,0.001981045352295041,1.17645005E9,,,,0,,1,,1.17645005E9
Raw,19653405,96612000000,,,-1219930642388467414,0.0,4.690441292231519,,,0,24,0.0,16401,49138920502195,13,29.195323944091797,766.2792782479983,0.6394581113766717,1,-378050.47179008275,0.003979661967605352,1.17645005E9,,,,0,,1,,1.17645005E9
Raw,19653405,96612000000,,,-1219930642388467414,0.0,4.690441292231519,,,0,25,0.0,16401,49138925815723,10,33.11626434326172,-306.5544166172224,0.4604960581554387,1,-78452.75847633604,0.002687666332349181,1.17645005E9,,,,0,,1,,1.17645005E9
Raw,19653405,96612000000,,,-1219930642388467414,0.0,4.690441292231519,,,0,32,0.0,16401,49138929094274,8,36.43618392944336,-44.36340397107375,0.3117928025822143,1,-11131.268773110278,0.0018339159432798624,1.17645005E9,,,,0,,1,,1.17645005E9
NMEA,$GPGSV,4,1,14,10,83,024,44,20,61,136,40,32,53,322,44,14,37,294,37*7E
,1535895519914
NMEA,$GPGSV,4,2,14,25,36,124,41,31,34,223,43,12,27,073,41,24,17,044,36*79
,1535895519914
NMEA,$GPGSV,4,3,14,21,15,185,43,18,14,311,27*7D
,1535895519914
NMEA,$GPGSV,4,4,14,10,,,37,32,,,37,25,,,36,24,,,34,8*6B
,1535895519914
NMEA,$GLGSV,1,1,04,79,70,076,37,69,49,357,41,68,43,079,42,80,31,192,38*61
,1535895519914
NMEA,$QZGSV,2,1,04,01,58,119,40,02,57,079,36*68
,1535895519914
NMEA,$QZGSV,2,2,04,01,,,37,02,,,30,8*71
,1535895519914
NMEA,$BDGSV,1,1,04,206,60,041,38,203,52,168,36,202,48,215,29,213,19,201,40*62
,1535895519915
NMEA,$GAGSV,3,1,10,107,62,003,41,130,59,101,42,127,37,178,41,108,36,084,40*68
,1535895519915
NMEA,$GAGSV,3,2,10,102,24,044,38,126,22,249,38*67
,1535895519915
NMEA,$GAGSV,3,3,10,107,,,36,130,,,38,108,,,31,102,,,34,1*71
,1535895519915
NMEA,$GPGSA,A,3,10,12,14,18,20,21,24,25,31,32,,,1.4,0.8,1.2*31
,1535895519916
NMEA,$GNGSA,A,3,10,12,14,18,20,21,24,25,31,32,,,1.4,0.8,1.2*2F
,1535895519916
NMEA,$GNGSA,A,3,68,69,79,80,,,,,,,,,1.4,0.8,1.2*25
,1535895519916
NMEA,$QZGSA,A,3,01,02,,,,,,,,,,,1.4,0.8,1.2*23
,1535895519916
NMEA,$IMGSA,A,3,,,,,,,,,,,,,1.4,0.8,1.2*2F
,1535895519916
NMEA,$BDGSA,A,3,202,203,206,213,,,,,,,,,1.4,0.8,1.2*28
,1535895519916
NMEA,$GAGSA,A,3,102,107,108,126,127,130,,,,,,,1.4,0.8,1.2*22
,1535895519916
NMEA,$GPRMC,133841.00,A,3045.145112,N,10356.108212,E,000.3,029.4,020918,,,A*55
,1535895519916
Fix,gps,30.752419,103.935137,494.325207,0.133705,4.000000,1535895521000
Nav,99,769,1,3,6,53,88,21,16,57,-64,127,80,42,49,120
Nav,100,769,1,3,6,53,88,21,16,57,-64,127,80,42,49,120
Nav,101,769,1,3,6,53,88,21,16,57,-64,127,80,42,49,120
Nav,106,769,1,3,6,53,88,21,16,57,-64,127,80,42,49,120
NMEA,$GPGGA,133842.00,3045.145252,N,10356.108129,E,1,31,0.4,526.7,M,-32.4,M,,*4E
,1535895520965
Fix,gps,30.752421,103.935135,494.345055,0.247471,4.000000,1535895522000
NMEA,$GPGSV,4,1,14,10,83,024,44,20,61,136,40,32,53,322,44,14,37,294,40*7E
,1535895520969
NMEA,$GPGSV,4,2,14,25,36,123,41,31,34,223,43,12,27,073,42,24,17,044,36*7D
,1535895520969
NMEA,$GPGSV,4,3,14,21,15,185,43,18,14,311,28*72
,1535895520969
NMEA,$GPGSV,4,4,14,10,,,37,32,,,38,25,,,35,24,,,33,8*60
,1535895520969
NMEA,$GLGSV,1,1,04,79,70,076,39,69,49,357,41,68,43,079,43,80,31,192,37*61
,1535895520969
NMEA,$QZGSV,2,1,04,01,58,119,40,02,57,079,36*68
,1535895520969
Raw,19654451,97612000000,,,-1219930642388467033,0.0,4.688472181981735,,,0,10,0.0,16431,49139933330047,11,43.8661003112793,39.98841369983026,0.15229397883086315,1,5418.152106845316,6.136764422990382E-4,1.57542003E9,,,,0,,1,,1.57542003E9
Raw,19654451,97612000000,,,-1219930642388467033,0.0,4.688472181981735,,,0,12,0.0,16431,49139924422253,13,41.711639404296875,108.17303066562829,0.1506916873286792,1,15763.32522327053,7.864343351684511E-4,1.57542003E9,,,,0,,1,,1.57542003E9
Raw,19654451,97612000000,,,-1219930642388467033,0.0,4.688472181981735,,,0,14,0.0,16431,49139925431173,11,40.31814193725586,-155.4631889050712,0.1508731664245685,1,-24099.05571939388,8.759083575569093E-4,1.57542003E9,,,,0,,1,,1.57542003E9
Raw,19654451,97612000000,,,-1219930642388467033,0.0,4.688472181981735,,,0,15,0.0,16431,49139914757164,51,22.16412353515625,589.1251449091692,0.954609866527075,4,25105.253891190307,3.4028234663852886E38,1.57542003E9,,,,0,,1,,1.57542003E9
Raw,19654451,97612000000,,,-1219930642388467033,0.0,4.688472181981735,,,0,18,0.0,16431,49139920482692,31,28.497041702270508,-197.2201284929489,0.6708555093715445,1,-14166.414357497455,0.09836744043332314,1.57542003E9,,,,0,,1,,1.57542003E9
Raw,19654451,97612000000,,,-1219930642388467033,0.0,4.688472181981735,,,0,20,0.0,16431,49139931804194,12,40.2885627746582,446.8471121757407,0.152019505219813,1,68350.06328343244,8.788962149992585E-4,1.57542003E9,,,,0,,1,,1.57542003E9
Raw,19654451,97612000000,,,-1219930642388467033,0.0,4.688472181981735,,,0,21,0.0,16431,49139920897159,12,39.51531982421875,693.1567310765695,0.17545061161538855,1,107221.49539895201,9.60726581979543E-4,1.57542003E9,,,,0,,1,,1.57542003E9
Raw,19654452,97612000000,,,-1219930642388467033,0.0,4.688472181981735,,,0,24,0.0,16431,49139920499631,19,34.43933868408203,766.3422626276524,0.4036402300657398,1,69410.00758865493,0.0017234503757208586,1.57542003E9,,,,0,,1,,1.57542003E9
Raw,19654452,97612000000,,,-1219930642388467033,0.0,4.688472181981735,,,0,25,0.0,16431,49139925816752,12,40.13367462158203,-306.17170471292775,0.15094251290715177,1,-48085.67478698057,8.947091992013156E-4,1.57542003E9,,,,0,,1,,1.57542003E9
Raw,19654452,97612000000,,,-1219930642388467033,0.0,4.688472181981735,,,0,31,0.0,16431,49139926413532,11,43.376373291015625,-442.93488923885684,0.15104985267500926,1,-46666.09491826613,6.492706597782671E-4,1.57542003E9,,,,0,,1,,1.57542003E9
Raw,19654452,97612000000,,,-1219930642388467033,0.0,4.688472181981735,,,0,32,0.0,16431,49139929094414,12,42.62220764160156,-44.60813305013579,0.15153208282279318,1,-7022.655867596925,7.081642979755998E-4,1.57542003E9,,,,0,,1,,1.57542003E9
Raw,19654452,97612000000,,,-1219930642388467033,0.0,4.688472181981735,,,0,10,0.0,16401,49139933330056,8,37.1218376159668,39.983735882672505,0.2817215915796769,1,8802.635740128206,0.0016947152325883508,1.17645005E9,,,,0,,1,,1.17645005E9
Raw,19654452,97612000000,,,-1219930642388467033,0.0,4.688472181981735,,,0,24,0.0,16401,49139920499629,13,28.36518096923828,766.2282227281271,0.6767882532292377,1,-377284.2590318236,0.004378782119601965,1.17645005E9,,,,0,,1,,1.17645005E9
Raw,19654452,97612000000,,,-1219930642388467033,0.0,4.688472181981735,,,0,25,0.0,16401,49139925816743,8,34.02549743652344,-306.2823704492573,0.4196090591580386,1,-78759.1662175736,0.002420548116788268,1.17645005E9,,,,0,,1,,1.17645005E9
Raw,19654452,97612000000,,,-1219930642388467033,0.0,4.688472181981735,,,0,32,0.0,16401,49139929094427,8,38.458885192871094,-44.58473544373288,0.22083416501837327,1,-11175.85726253365,0.0014529286418110132,1.17645005E9,,,,0,,1,,1.17645005E9
NMEA,$QZGSV,2,2,04,01,,,37,02,,,30,8*71
,1535895520969
NMEA,$BDGSV,1,1,04,206,60,041,38,203,52,168,36,202,48,215,31,213,19,201,40*6B
,1535895520969
NMEA,$GAGSV,3,1,10,107,62,003,41,130,59,101,42,127,37,178,41,108,36,084,41*69
,1535895520969
NMEA,$GAGSV,3,2,10,102,24,044,38,126,22,249,39*66
,1535895520969
NMEA,$GAGSV,3,3,10,107,,,35,130,,,38,108,,,31,102,,,33,1*75
,1535895520969
NMEA,$GPGSA,A,3,10,12,14,18,20,21,24,25,31,32,,,1.4,0.7,1.2*3E
,1535895520969
NMEA,$GNGSA,A,3,10,12,14,18,20,21,24,25,31,32,,,1.4,0.7,1.2*20
,1535895520969
NMEA,$GNGSA,A,3,68,69,79,80,,,,,,,,,1.4,0.7,1.2*2A
,1535895520969
NMEA,$QZGSA,A,3,01,02,,,,,,,,,,,1.4,0.7,1.2*2C
,1535895520969
NMEA,$IMGSA,A,3,,,,,,,,,,,,,1.4,0.7,1.2*20
,1535895520969
NMEA,$BDGSA,A,3,202,203,206,213,,,,,,,,,1.4,0.7,1.2*27
,1535895520969
NMEA,$GAGSA,A,3,102,107,108,126,127,130,,,,,,,1.4,0.7,1.2*2D
,1535895520969
NMEA,$GPRMC,133842.00,A,3045.145252,N,10356.108129,E,000.5,336.9,020918,,,A*5C
,1535895520969
Nav,10,257,1,13,5,34,-61,-31,45,3,-1,-51,39,19,70,-35,106,9,4,52,-128,63,85,0,9,40,67,57,99,40,-90,-125,-3,15,19,-46,3,36,-68,-96,56,61,0,2,24
Nav,12,257,1,13,5,34,-61,-31,45,3,-1,-51,39,19,70,-35,106,9,4,52,-128,63,85,0,9,40,67,57,99,40,-90,-125,-3,15,19,-46,3,36,-68,-96,56,61,0,2,24
Nav,14,257,1,13,5,34,-61,-31,45,3,-1,-51,39,19,70,-35,-49,14,68,52,86,63,83,-64,52,40,67,55,105,40,-92,-72,15,15,15,-85,8,36,-116,76,-24,61,0,2,75
Nav,20,257,1,13,5,34,-61,-31,45,3,-1,-51,39,19,70,-35,-49,14,68,52,86,63,83,-64,52,40,67,55,105,40,-92,-72,15,15,15,-85,8,36,-116,76,-24,61,0,2,75
Nav,21,257,1,13,5,34,-61,-31,45,3,-1,-51,39,19,70,-35,-49,14,68,52,86,63,83,-64,52,40,67,55,105,40,-92,-72,15,15,15,-85,8,36,-116,76,-24,61,0,2,75
Nav,24,257,1,13,5,34,-61,-31,45,3,-1,-51,39,19,70,-35,106,9,4,52,-128,63,85,0,9,40,67,57,99,40,-90,-125,-3,15,19,-46,3,36,-68,-96,56,61,0,2,24
Nav,25,257,1,13,5,34,-61,-31,45,3,-1,-51,39,19,70,-35,-49,14,68,52,86,63,83,-64,52,40,67,55,105,40,-92,-72,15,15,15,-85,8,36,-116,76,-24,61,0,2,75
Nav,31,257,1,13,5,34,-61,-31,45,3,-1,-51,39,19,70,-35,-49,14,68,52,86,63,83,-64,52,40,67,55,105,40,-92,-72,15,15,15,-85,8,36,-116,76,-24,61,0,2,75
Nav,32,257,1,13,5,34,-61,-31,45,3,-1,-51,39,19,70,-35,106,9,4,52,-128,63,85,0,9,40,67,57,99,40,-90,-125,-3,15,19,-46,3,36,-68,-96,56,61,0,2,24
NMEA,$GPGGA,133843.00,3045.145321,N,10356.108017,E,1,29,0.4,526.7,M,-32.4,M,,*4F
,1535895521965
NMEA,$GPGSV,4,1,14,10,83,024,44,20,61,136,40,32,53,322,44,14,37,294,40*7E
,1535895521967
NMEA,$GPGSV,4,2,14,25,36,123,41,31,34,223,45,12,27,073,46,24,17,044,36*7F
,1535895521967
NMEA,$GPGSV,4,3,14,21,15,185,42,18,14,311,29*72
,1535895521968
NMEA,$GPGSV,4,4,14,10,,,37,32,,,38,25,,,37,24,,,33,8*62
,1535895521968
NMEA,$GLGSV,1,1,04,79,70,076,39,69,49,357,41,68,43,079,43,80,31,192,37*61
,1535895521968
NMEA,$QZGSV,2,1,04,01,58,119,40,02,57,079,36*68
,1535895521968
NMEA,$QZGSV,2,2,04,01,,,37,02,,,30,8*71
,1535895521968
NMEA,$BDGSV,1,1,04,206,60,041,38,203,52,168,36,202,48,215,30,213,19,201,39*64
,1535895521968
NMEA,$GAGSV,3,1,10,107,62,003,40,130,59,101,42,127,37,178,41,108,36,084,43*6A
,1535895521968
NMEA,$GAGSV,3,2,10,102,24,044,37,126,22,249,41*66
,1535895521968
NMEA,$GAGSV,3,3,10,107,,,35,130,,,39,108,,,30,102,,,32,1*74
,1535895521968
NMEA,$GPGSA,A,3,10,12,14,18,20,21,24,25,31,32,,,1.4,0.8,1.2*31
,1535895521968
NMEA,$GNGSA,A,3,10,12,14,18,20,21,24,25,31,32,,,1.4,0.8,1.2*2F
,1535895521968
NMEA,$GNGSA,A,3,68,69,79,80,,,,,,,,,1.4,0.8,1.2*25
,1535895521968
NMEA,$QZGSA,A,3,01,02,,,,,,,,,,,1.4,0.8,1.2*23
,1535895521968
NMEA,$IMGSA,A,3,,,,,,,,,,,,,1.4,0.8,1.2*2F
,1535895521968
NMEA,$BDGSA,A,3,202,203,206,213,,,,,,,,,1.4,0.8,1.2*28
,1535895521968
NMEA,$GAGSA,A,3,102,107,108,126,127,130,,,,,,,1.4,0.8,1.2*22
,1535895521968
NMEA,$GPRMC,133843.00,A,3045.145321,N,10356.108017,E,000.5,303.6,020918,,,A*5D
,1535895521968
Fix,gps,30.752422,103.935134,494.342834,0.231964,4.000000,1535895523000
Raw,19655470,98612000000,,,-1219930642388466654,0.0,4.643224398372473,,,0,10,0.0,16431,49140933329912,10,44.05415725708008,40.202519691706556,0.1522939455472142,1,5458.189477841536,6.005327450111508E-4,1.57542003E9,,,,0,,1,,1.57542003E9
Raw,19655470,98612000000,,,-1219930642388466654,0.0,4.643224398372473,,,0,12,0.0,16431,49140924421896,9,45.98473358154297,108.47182304134964,0.15069162076138132,1,15871.564607920438,4.808478697668761E-4,1.57542003E9,,,,0,,1,,1.57542003E9
Raw,19655470,98612000000,,,-1219930642388466654,0.0,4.643224398372473,,,0,14,0.0,16431,49140925431705,15,36.823936462402344,-155.2890445934679,0.29369721488943257,1,-24254.476634880804,0.0013096913462504745,1.57542003E9,,,,0,,1,,1.57542003E9
Raw,19655471,98612000000,,,-1219930642388466654,0.0,4.643224398372473,,,0,15,0.0,16431,49140914755175,44,24.074506759643555,589.2889451952178,0.8687017730637345,1,25694.446694271082,0.005358757916837931,1.57542003E9,,,,0,,1,,1.57542003E9
Raw,19655471,98612000000,,,-1219930642388466654,0.0,4.643224398372473,,,0,18,0.0,16431,49140920483318,30,28.621105194091797,-196.5428419169276,0.665276637269467,4,-14363.485769924728,3.4028234663852886E38,1.57542003E9,,,,0,,1,,1.57542003E9
Raw,19655471,98612000000,,,-1219930642388466654,0.0,4.643224398372473,,,0,20,0.0,16431,49140931802722,13,38.87708282470703,446.9025643325033,0.20251556023581507,1,68796.75415178976,0.001033978769555688,1.57542003E9,,,,0,,1,,1.57542003E9
Raw,19655471,98612000000,,,-1219930642388466654,0.0,4.643224398372473,,,0,21,0.0,16431,49140920894850,17,35.484867095947266,692.589667164943,0.35669507442141013,1,107914.13611092602,0.0014406089903786778,1.57542003E9,,,,0,,1,,1.57542003E9
Raw,19655471,98612000000,,,-1219930642388466654,0.0,4.643224398372473,,,0,24,0.0,16431,49140920497073,18,35.08732223510742,766.5511880861372,0.37450066168090745,1,70176.36136223876,0.0015995564172044396,1.57542003E9,,,,0,,1,,1.57542003E9
Raw,19655471,98612000000,,,-1219930642388466654,0.0,4.643224398372473,,,0,25,0.0,16431,49140925817760,11,40.670188903808594,-306.2328827223862,0.15094269596722099,1,-48392.057028907395,8.411166490986943E-4,1.57542003E9,,,,0,,1,,1.57542003E9
Raw,19655471,98612000000,,,-1219930642388466654,0.0,4.643224398372473,,,0,31,0.0,16431,49140926415025,10,44.91500473022461,-443.0806258229484,0.1510501355860253,1,-47109.23907379982,5.438689840957522E-4,1.57542003E9,,,,0,,1,,1.57542003E9
Raw,19655472,98612000000,,,-1219930642388466654,0.0,4.643224398372473,,,0,32,0.0,16431,49140929094580,12,42.506431579589844,-44.33892424667624,0.15153211610644213,1,-7067.1494288887025,7.176668150350451E-4,1.57542003E9,,,,0,,1,,1.57542003E9
Raw,19655472,98612000000,,,-1219930642388466654,0.0,4.643224398372473,,,0,10,0.0,16401,49140933329923,11,36.33930969238281,40.26141417657797,0.31691102898285073,1,8842.66767351014,0.0018544842023402452,1.17645005E9,,,,0,,1,,1.17645005E9
Raw,19655472,98612000000,,,-1219930642388466654,0.0,4.643224398372473,,,0,24,0.0,16401,49140920497068,19,27.083494186401367,766.6522766521839,0.7344237507955449,1,-376517.8388711763,0.005075018387287855,1.17645005E9,,,,0,,1,,1.17645005E9
Raw,19655472,98612000000,,,-1219930642388466654,0.0,4.643224398372473,,,0,25,0.0,16401,49140925817770,12,37.08038330078125,-306.12058102814353,0.28223455917726437,1,-79065.55622730117,0.001702822744846344,1.17645005E9,,,,0,,1,,1.17645005E9
Raw,19655472,98612000000,,,-1219930642388466654,0.0,4.643224398372473,,,0,32,0.0,16401,49140929094576,10,36.5905647277832,-44.363582903970496,0.3048505656519265,1,-11220.367428806856,0.0018016083631664515,1.17645005E9,,,,0,,1,,1.17645005E9
Nav,99,769,1,3,7,63,66,96,46,81,-12,-65,-49,-86,0,-104
Nav,100,769,1,3,7,63,66,96,46,81,-12,-65,-49,-86,0,-104
Nav,101,769,1,3,7,63,66,96,46,81,-12,-65,-49,-86,0,-104
Nav,106,769,1,3,7,63,66,96,46,81,-12,-65,-49,-86,0,-104
NMEA,$GPGGA,133844.00,3045.145238,N,10356.107774,E,1,30,0.4,526.8,M,-32.4,M,,*4B
,1535895522955
NMEA,$GPGSV,4,1,14,10,83,024,44,20,61,136,40,32,53,322,43,14,37,294,40*79
,1535895522959
NMEA,$GPGSV,4,2,14,25,36,123,41,31,34,223,45,12,27,073,46,24,17,044,36*7F
,1535895522959
NMEA,$GPGSV,4,3,14,21,15,185,41,18,14,311,28*70
,1535895522959
NMEA,$GPGSV,4,4,14,10,,,37,32,,,38,25,,,38,24,,,32,8*6C
,1535895522959
NMEA,$GLGSV,1,1,04,79,70,076,39,69,49,357,43,68,43,079,43,80,31,192,36*62
,1535895522959
NMEA,$QZGSV,2,1,04,01,58,119,40,02,57,079,36*68
,1535895522959
NMEA,$QZGSV,2,2,04,01,,,37,02,,,30,8*71
,1535895522959
NMEA,$BDGSV,1,1,04,206,60,041,39,203,52,168,36,202,48,215,30,213,19,201,39*65
,1535895522959
NMEA,$GAGSV,3,1,10,107,62,003,40,130,59,101,42,127,37,178,41,108,36,084,43*6A
,1535895522959
NMEA,$GAGSV,3,2,10,102,24,044,38,126,22,249,40*68
,1535895522959
NMEA,$GAGSV,3,3,10,107,,,35,130,,,38,108,,,34,102,,,37,1*74
,1535895522959
NMEA,$GPGSA,A,3,10,12,14,18,20,21,24,25,31,32,,,1.4,0.7,1.2*3E
,1535895522960
NMEA,$GNGSA,A,3,10,12,14,18,20,21,24,25,31,32,,,1.4,0.7,1.2*20
,1535895522960
NMEA,$GNGSA,A,3,68,69,79,80,,,,,,,,,1.4,0.7,1.2*2A
,1535895522960
NMEA,$QZGSA,A,3,01,02,,,,,,,,,,,1.4,0.7,1.2*2C
,1535895522960
NMEA,$IMGSA,A,3,,,,,,,,,,,,,1.4,0.7,1.2*20
,1535895522960
NMEA,$BDGSA,A,3,202,203,206,213,,,,,,,,,1.4,0.7,1.2*27
,1535895522960
NMEA,$GAGSA,A,3,102,107,108,126,127,130,,,,,,,1.4,0.7,1.2*2D
,1535895522960
NMEA,$GPRMC,133844.00,A,3045.145238,N,10356.107774,E,000.6,246.8,020918,,,A*53
,1535895522960
Fix,gps,30.752421,103.935130,494.394680,0.318999,4.000000,1535895524000
Raw,19656470,99612000000,,,-1219930642388466276,0.0,4.55030243560787,,,0,10,0.0,16431,49141933329783,10,43.95110321044922,40.2444922369144,0.15229392890538973,1,5498.423685078658,6.077002035453916E-4,1.57542003E9,,,,0,,1,,1.57542003E9
Raw,19656471,99612000000,,,-1219930642388466276,0.0,4.55030243560787,,,0,12,0.0,16431,49141924421536,9,45.65925598144531,108.70364339000366,0.15069155419408342,1,15980.221233941586,4.992081667296588E-4,1.57542003E9,,,,0,,1,,1.57542003E9
Raw,19656471,99612000000,,,-1219930642388466276,0.0,4.55030243560787,,,0,14,0.0,16431,49141925432219,14,37.711856842041016,-155.51790828901858,0.25376848542889596,1,-24409.845878407083,0.0011824230896309018,1.57542003E9,,,,0,,1,,1.57542003E9
Raw,19656471,99612000000,,,-1219930642388466276,0.0,4.55030243560787,,,0,15,0.0,16431,49141914753253,51,22.235578536987305,588.9871109602518,0.9513960639519485,4,26284.4424149438,3.4028234663852886E38,1.57542003E9,,,,0,,1,,1.57542003E9
Raw,19656471,99612000000,,,-1219930642388466276,0.0,4.55030243560787,,,0,18,0.0,16431,49141920483981,41,24.968738555908203,-197.2277288807535,0.829519529281805,4,-14560.074606615566,3.4028234663852886E38,1.57542003E9,,,,1,,1,,1.57542003E9
Raw,19656471,99612000000,,,-1219930642388466276,0.0,4.55030243560787,,,0,20,0.0,16431,49141931801237,12,39.81783676147461,446.9266606292649,0.16021057794228089,1,69243.60088305733,9.278418147005141E-4,1.57542003E9,,,,0,,1,,1.57542003E9
Raw,19656471,99612000000,,,-1219930642388466276,0.0,4.55030243560787,,,0,21,0.0,16431,49141920892530,17,35.66679382324219,692.5042565288968,0.34851362067348823,1,108606.63796380651,0.001496325246989727,1.57542003E9,,,,0,,1,,1.57542003E9
Raw,19656472,99612000000,,,-1219930642388466276,0.0,4.55030243560787,,,0,24,0.0,16431,49141920494528,19,34.62717056274414,766.6860182841415,0.3951926735444782,1,70943.13819628347,0.0016865810612216592,1.57542003E9,,,,0,,1,,1.57542003E9
Raw,19656472,99612000000,,,-1219930642388466276,0.0,4.55030243560787,,,0,25,0.0,16431,49141925818779,15,37.50645065307617,-306.1383379879919,0.2630748599439643,1,-48698.29170923105,0.0012107184156775475,1.57542003E9,,,,0,,1,,1.57542003E9
Raw,19656472,99612000000,,,-1219930642388466276,0.0,4.55030243560787,,,0,31,0.0,16431,49141926416514,11,42.95191192626953,-443.1680814063859,0.1510504018552169,1,-47552.52102693283,6.817871471866965E-4,1.57542003E9,,,,0,,1,,1.57542003E9
Raw,19656472,99612000000,,,-1219930642388466276,0.0,4.55030243560787,,,0,32,0.0,16431,49141929094727,14,40.75257110595703,-44.383389071517314,0.15153214939009108,1,-7111.480375379542,8.782452787272632E-4,1.57542003E9,,,,0,,1,,1.57542003E9
Raw,19656473,99612000000,,,-1219930642388466276,0.0,4.55030243560787,,,0,10,0.0,16401,49141933329788,9,35.680572509765625,40.2692062782005,0.3465336429648662,1,8882.889186767103,0.002000598469749093,1.17645005E9,,,,0,,1,,1.17645005E9
Raw,19656473,99612000000,,,-1219930642388466276,0.0,4.55030243560787,,,0,24,0.0,16401,49141920494522,11,29.374835968017578,766.7309389618385,0.63138423038215,1,-375751.1332785719,0.0038982578553259373,1.17645005E9,,,,0,,1,,1.17645005E9
Raw,19656473,99612000000,,,-1219930642388466276,0.0,4.55030243560787,,,0,25,0.0,16401,49141925818783,8,38.34938049316406,-306.16304776897096,0.22516937693568218,1,-79371.80566592119,0.0014713620766997337,1.17645005E9,,,,0,,1,,1.17645005E9
Raw,19656473,99612000000,,,-1219930642388466276,0.0,4.55030243560787,,,0,32,0.0,16401,49141929094719,8,37.71519470214844,-44.44573866541873,0.2542771594357691,1,-11264.715396606185,0.0015828104224056005,1.17645005E9,,,,0,,1,,1.17645005E9
NMEA,$GPGGA,133845.00,3045.145185,N,10356.107638,E,1,31,0.4,526.7,M,-32.4,M,,*48
,1535895523981
NMEA,$GPGSV,4,1,14,10,83,024,44,20,61,136,40,32,53,322,43,14,37,294,40*79
,1535895523982
NMEA,$GPGSV,4,2,14,25,36,123,40,31,34,223,44,12,27,073,46,24,17,044,35*7C
,1535895523982
NMEA,$GPGSV,4,3,14,21,15,185,41,18,14,311,28*70
,1535895523982
NMEA,$GPGSV,4,4,14,10,,,37,32,,,39,25,,,38,24,,,32,8*6D
,1535895523982
NMEA,$GLGSV,1,1,04,79,70,076,39,69,49,357,43,68,43,079,42,80,31,192,36*63
,1535895523982
NMEA,$QZGSV,2,1,04,01,58,119,40,02,57,079,36*68
,1535895523982
NMEA,$QZGSV,2,2,04,01,,,37,02,,,30,8*71
,1535895523982
NMEA,$BDGSV,1,1,04,206,60,041,39,203,52,168,36,202,48,215,30,213,19,201,39*65
,1535895523982
NMEA,$GAGSV,3,1,10,107,62,003,41,130,59,101,42,127,37,178,41,108,36,084,42*6A
,1535895523982
NMEA,$GAGSV,3,2,10,102,24,044,38,126,22,249,39*66
,1535895523982
NMEA,$GAGSV,3,3,10,107,,,34,130,,,38,108,,,36,102,,,37,1*77
,1535895523982
NMEA,$GPGSA,A,3,10,12,14,18,20,21,24,25,31,32,,,1.4,0.8,1.2*31
,1535895523982
NMEA,$GNGSA,A,3,10,12,14,18,20,21,24,25,31,32,,,1.4,0.8,1.2*2F
,1535895523982
NMEA,$GNGSA,A,3,68,69,79,80,,,,,,,,,1.4,0.8,1.2*25
,1535895523983
NMEA,$QZGSA,A,3,01,02,,,,,,,,,,,1.4,0.8,1.2*23
,1535895523983
Raw,19657488,100612000000,,,-1219930642388465897,0.0,4.632442804004012,,,0,10,0.0,16431,49142933329637,11,43.65912628173828,40.366886598594874,0.15229389562174078,1,5538.775687445095,6.284753326326609E-4,1.57542003E9,,,,0,,1,,1.57542003E9
Raw,19657488,100612000000,,,-1219930642388465897,0.0,4.632442804004012,,,0,12,0.0,16431,49142924421174,12,42.40039825439453,108.70444432773195,0.15069148762678553,1,16088.870421296593,7.264814921654761E-4,1.57542003E9,,,,0,,1,,1.57542003E9
Raw,19657488,100612000000,,,-1219930642388465897,0.0,4.632442804004012,,,0,14,0.0,16431,49142925432739,14,38.12317657470703,-155.19703900208458,0.2352719795427104,1,-24565.075172941128,0.0011277346638962626,1.57542003E9,,,,0,,1,,1.57542003E9
Raw,19657488,100612000000,,,-1219930642388465897,0.0,4.632442804004012,,,0,15,0.0,16431,49142914751280,43,24.406436920166016,589.160795158692,0.8537744559143183,4,26873.770729119984,3.4028234663852886E38,1.57542003E9,,,,0,,1,,1.57542003E9
Raw,19657488,100612000000,,,-1219930642388465897,0.0,4.632442804004012,,,0,18,0.0,16431,49142920484629,45,23.765588760375977,-196.61231900454936,0.8836240310985106,4,-14756.31862242472,3.4028234663852886E38,1.57542003E9,,,,1,,1,,1.57542003E9
Raw,19657488,100612000000,,,-1219930642388465897,0.0,4.632442804004012,,,0,20,0.0,16431,49142931799739,13,39.21731948852539,446.9066201448295,0.18721496696344642,1,69690.53778143898,9.942594915628433E-4,1.57542003E9,,,,0,,1,,1.57542003E9
Raw,19657489,100612000000,,,-1219930642388465897,0.0,4.632442804004012,,,0,21,0.0,16431,49142920890181,12,39.368141174316406,692.5214340869843,0.18206776714640072,1,109299.21788366849,9.771442273631692E-4,1.57542003E9,,,,0,,1,,1.57542003E9
Raw,19657489,100612000000,,,-1219930642388465897,0.0,4.632442804004012,,,0,24,0.0,16431,49142920491970,24,31.39548110961914,766.6276009536614,0.5405177053167727,1,71709.7409883342,0.0023068292066454887,1.57542003E9,,,,0,,1,,1.57542003E9
Raw,19657489,100612000000,,,-1219930642388465897,0.0,4.632442804004012,,,0,25,0.0,16431,49142925819810,17,35.54818344116211,-306.2375520189298,0.35113617250870144,1,-49004.506328950156,0.0015168985119089484,1.57542003E9,,,,0,,1,,1.57542003E9
Raw,19657489,100612000000,,,-1219930642388465897,0.0,4.632442804004012,,,0,31,0.0,16431,49142926417998,14,40.49336242675781,-443.1014502038838,0.15105066812440848,1,-47995.58014862028,9.048493811860681E-4,1.57542003E9,,,,0,,1,,1.57542003E9
Raw,19657489,100612000000,,,-1219930642388465897,0.0,4.632442804004012,,,0,32,0.0,16431,49142929094873,14,40.160682678222656,-44.22560433904496,0.15153216603191555,1,-7155.75902908616,9.401783463545144E-4,1.57542003E9,,,,0,,1,,1.57542003E9
Raw,19657489,100612000000,,,-1219930642388465897,0.0,4.632442804004012,,,0,10,0.0,16401,49142933329655,9,35.141502380371094,40.360359808170756,0.3707749898686088,1,8923.230260505123,0.00212869537062943,1.17645005E9,,,,0,,1,,1.17645005E9
Raw,19657489,100612000000,,,-1219930642388465897,0.0,4.632442804004012,,,0,24,0.0,16401,49142920491965,10,32.314674377441406,766.5879971391819,0.4991825752699359,1,-374984.5189250616,0.0027789364103227854,1.17645005E9,,,,0,,1,,1.17645005E9
Raw,19657490,100612000000,,,-1219930642388465897,0.0,4.632442804004012,,,0,25,0.0,16401,49142925819807,8,36.806434631347656,-306.2942993090403,0.2945539692970045,1,-79677.98831874439,0.0017573846271261573,1.17645005E9,,,,0,,1,,1.17645005E9
Raw,19657490,100612000000,,,-1219930642388465897,0.0,4.632442804004012,,,0,32,0.0,16401,49142929094864,8,38.783233642578125,-44.25713487163563,0.2062486875854781,1,-11308.983263157736,0.0013996741035953164,1.17645005E9,,,,0,,1,,1.17645005E9
NMEA,$IMGSA,A,3,,,,,,,,,,,,,1.4,0.8,1.2*2F
,1535895523983
NMEA,$BDGSA,A,3,202,203,206,213,,,,,,,,,1.4,0.8,1.2*28
,1535895523983
NMEA,$GAGSA,A,3,102,107,108,126,127,130,,,,,,,1.4,0.8,1.2*22
,1535895523983
NMEA,$GPRMC,133845.00,A,3045.145185,N,10356.107638,E,000.5,252.2,020918,,,A*52
,1535895523983
Fix,gps,30.752420,103.935127,494.341216,0.266830,4.000000,1535895525000
Nav,99,769,1,3,8,69,96,19,43,-86,96,-87,80,46,8,-104
Nav,100,769,1,3,8,69,96,19,43,-86,96,-87,80,46,8,-104
Nav,101,769,1,3,8,69,96,19,43,-86,96,-87,80,46,8,-104
Nav,102,769,1,-1,8,69,96,19,43,-86,96,-87,80,46,8,-104
Nav,106,769,1,3,8,69,96,19,43,-86,96,-87,80,46,8,-104
NMEA,$GPGGA,133846.00,3045.145084,N,10356.107697,E,1,32,0.4,526.8,M,-32.4,M,,*42
,1535895524969
NMEA,$GPGSV,4,1,14,10,83,024,44,20,61,136,40,32,53,322,43,14,37,294,39*77
,1535895524973
NMEA,$GPGSV,4,2,14,25,36,123,40,31,34,223,44,12,27,073,45,24,17,044,35*7F
,1535895524973
Raw,19658466,101612000000,,,-1219930642388465518,0.0,4.603400416016651,,,0,10,0.0,16431,49143933329521,12,42.17668914794922,40.563538112424425,0.1522938789799163,1,5579.205318666497,7.45435303542763E-4,1.57542003E9,,,,0,,1,,1.57542003E9
Raw,19658466,101612000000,,,-1219930642388465518,0.0,4.603400416016651,,,0,12,0.0,16431,49143924420808,14,40.50554656982422,108.55609191510229,0.15069142105948763,1,16197.364890943962,9.035810362547636E-4,1.57542003E9,,,,0,,1,,1.57542003E9
Raw,19658466,101612000000,,,-1219930642388465518,0.0,4.603400416016651,,,0,14,0.0,16431,49143925433256,15,37.071231842041016,-154.70350799040602,0.28257681493939724,1,-24720.04196367932,0.0012729287846013904,1.57542003E9,,,,0,,1,,1.57542003E9
Raw,19658466,101612000000,,,-1219930642388465518,0.0,4.603400416016651,,,0,15,0.0,16431,49143914749300,30,28.655330657958984,589.1678161447358,0.6627061410612085,1,27462.88943724893,0.09830928096835291,1.57542003E9,,,,0,,1,,1.57542003E9
Raw,19658466,101612000000,,,-1219930642388465518,0.0,4.603400416016651,,,0,18,0.0,16431,49143920485298,39,25.45093536376953,-195.86414091896063,0.8078359642324227,1,-14952.152442825161,0.09972027331878221,1.57542003E9,,,,0,,1,,1.57542003E9
Raw,19658467,101612000000,,,-1219930642388465518,0.0,4.603400416016651,,,0,20,0.0,16431,49143931798244,12,40.19612121582031,446.77148320471656,0.15201844014304666,1,70137.40490052673,8.882998372428119E-4,1.57542003E9,,,,0,,1,,1.57542003E9
Raw,19658467,101612000000,,,-1219930642388465518,0.0,4.603400416016651,,,0,21,0.0,16431,49143920887906,15,37.27640914916992,692.4371822544599,0.27613017154194597,1,109991.71160953757,0.0012432122603058815,1.57542003E9,,,,0,,1,,1.57542003E9
Raw,19658467,101612000000,,,-1219930642388465518,0.0,4.603400416016651,,,0,24,0.0,16431,49143920489437,27,29.976327896118164,766.4229698846984,0.6043349417185535,1,72476.37952225425,0.002716270973905921,1.57542003E9,,,,0,,1,,1.57542003E9
Raw,19658468,101612000000,,,-1219930642388465518,0.0,4.603400416016651,,,0,25,0.0,16431,49143925820825,14,40.12222671508789,-306.37981219245603,0.15094324514742863,1,-49310.87128745655,9.443502640351653E-4,1.57542003E9,,,,0,,1,,1.57542003E9
Raw,19658468,101612000000,,,-1219930642388465518,0.0,4.603400416016651,,,0,31,0.0,16431,49143926419469,12,39.90025329589844,-442.73676791908974,0.15553635541861155,1,-48438.44363277771,9.190795244649053E-4,1.57542003E9,,,,0,,1,,1.57542003E9
Raw,19658468,101612000000,,,-1219930642388465518,0.0,4.603400416016651,,,0,32,0.0,16431,49143929095007,11,42.99164962768555,-43.866903525370645,0.1515321993155645,1,-7199.809328430756,6.786753656342626E-4,1.57542003E9,,,,0,,1,,1.57542003E9
Raw,19658468,101612000000,,,-1219930642388465518,0.0,4.603400416016651,,,0,10,0.0,16401,49143933329522,11,35.168601989746094,40.490772067748225,0.36955634234602464,1,8963.639025921282,0.0021220638882368803,1.17645005E9,,,,0,,1,,1.17645005E9
Raw,19658468,101612000000,,,-1219930642388465518,0.0,4.603400416016651,,,0,24,0.0,16401,49143920489411,11,32.502418518066406,766.6023117709215,0.49073947875763335,1,-374217.9676700459,0.0027195150032639503,1.17645005E9,,,,0,,1,,1.17645005E9
Raw,19658468,101612000000,,,-1219930642388465518,0.0,4.603400416016651,,,0,25,0.0,16401,49143925820827,9,34.736412048339844,-306.52926376430855,0.38764081330005773,1,-79984.38828381759,0.002102769911289215,1.17645005E9,,,,0,,1,,1.17645005E9
Raw,19658469,101612000000,,,-1219930642388465518,0.0,4.603400416016651,,,0,32,0.0,16401,49143929095017,11,38.16514587402344,-43.9185512279239,0.2340434800600376,1,-11353.027396435595,0.0015029043424874544,1.17645005E9,,,,0,,1,,1.17645005E9
NMEA,$GPGSV,4,3,14,21,15,185,41,18,14,311,28*70
,1535895524973
NMEA,$GPGSV,4,4,14,10,,,37,32,,,39,25,,,38,24,,,33,8*6C
,1535895524974
NMEA,$GLGSV,1,1,04,79,70,076,39,69,49,357,43,68,43,079,42,80,31,192,36*63
,1535895524974
NMEA,$QZGSV,2,1,04,01,58,119,40,02,57,079,36*68
,1535895524974
NMEA,$QZGSV,2,2,04,01,,,37,02,,,30,8*71
,1535895524974
NMEA,$BDGSV,1,1,04,206,60,041,39,203,52,168,36,202,48,215,30,213,19,201,39*65
,1535895524974
NMEA,$GAGSV,3,1,10,107,62,003,40,130,59,101,42,127,37,178,40,108,36,084,42*6A
,1535895524974
NMEA,$GAGSV,3,2,10,102,24,044,38,126,22,249,39*66
,1535895524974
NMEA,$GAGSV,3,3,10,107,,,34,130,,,38,108,,,36,102,,,37,1*77
,1535895524974
NMEA,$GPGSA,A,3,10,12,14,18,20,21,24,25,31,32,,,1.4,0.7,1.2*3E
,1535895524974
NMEA,$GNGSA,A,3,10,12,14,18,20,21,24,25,31,32,,,1.4,0.7,1.2*20
,1535895524974
NMEA,$GNGSA,A,3,68,69,79,80,,,,,,,,,1.4,0.7,1.2*2A
,1535895524974
NMEA,$QZGSA,A,3,01,02,,,,,,,,,,,1.4,0.7,1.2*2C
,1535895524974
NMEA,$IMGSA,A,3,,,,,,,,,,,,,1.4,0.7,1.2*20
,1535895524974
NMEA,$BDGSA,A,3,202,203,206,213,,,,,,,,,1.4,0.7,1.2*27
,1535895524974
NMEA,$GAGSA,A,3,102,107,108,126,127,130,,,,,,,1.4,0.7,1.2*2D
,1535895524974
NMEA,$GPRMC,133846.00,A,3045.145084,N,10356.107697,E,000.5,154.3,020918,,,A*50
,1535895524974
Fix,gps,30.752418,103.935128,494.418049,0.258542,4.000000,1535895526000
NMEA,$GPGGA,133847.00,3045.144964,N,10356.107745,E,1,31,0.4,526.8,M,-32.4,M,,*48
,1535895525995
Fix,gps,30.752416,103.935129,494.393375,0.247003,4.000000,1535895527000
NMEA,$GPGSV,4,1,14,10,83,024,44,20,61,136,40,32,53,322,44,14,37,294,39*70
,1535895526001
Raw,19659526,102612000000,,,-1219930642388465140,0.0,4.633548639142268,,,0,10,0.0,16431,49144933329361,13,41.702293395996094,40.62614758505683,0.15229384569626736,1,5619.758165811415,7.872810238040984E-4,1.57542003E9,,,,0,,1,,1.57542003E9
Raw,19659526,102612000000,,,-1219930642388465140,0.0,4.633548639142268,,,0,12,0.0,16431,49144924420440,10,44.97443389892578,108.85119486490504,0.15069135449218973,1,16306.031850093594,5.401605740189552E-4,1.57542003E9,,,,0,,1,,1.57542003E9
Raw,19659526,102612000000,,,-1219930642388465140,0.0,4.633548639142268,,,0,14,0.0,16431,49144925433786,17,35.56493377685547,-155.01822539393766,0.35031353384130126,1,-24874.962595383102,0.0015139762545004487,1.57542003E9,,,,0,,1,,1.57542003E9
Raw,19659526,102612000000,,,-1219930642388465140,0.0,4.633548639142268,,,0,15,0.0,16431,49144914747330,33,27.574487686157227,589.1917420292148,0.7113101204854604,1,28051.927137966595,0.09872833794270432,1.57542003E9,,,,0,,1,,1.57542003E9
Raw,19659526,102612000000,,,-1219930642388465140,0.0,4.633548639142268,,,0,18,0.0,16431,49144920485908,44,24.147907257080078,-195.4069418059354,0.8664317616381791,4,-15148.29789797411,3.4028234663852886E38,1.57542003E9,,,,0,,1,,1.57542003E9
Raw,19659527,102612000000,,,-1219930642388465140,0.0,4.633548639142268,,,0,20,0.0,16431,49144931796757,14,37.95231628417969,447.0905290802266,0.24410013458969304,1,70584.4103597479,0.0011501379776746035,1.57542003E9,,,,0,,1,,1.57542003E9
Raw,19659527,102612000000,,,-1219930642388465140,0.0,4.633548639142268,,,0,21,0.0,16431,49144920885605,21,33.362083435058594,692.4545643072865,0.45215257960443767,1,110684.17529190949,0.0019510193960741162,1.57542003E9,,,,0,,1,,1.57542003E9
Raw,19659527,102612000000,,,-1219930642388465140,0.0,4.633548639142268,,,0,24,0.0,16431,49144920486866,19,34.52625274658203,766.7145793827076,0.399729467881641,1,73242.9485287116,0.0017062911065295339,1.57542003E9,,,,0,,1,,1.57542003E9
Raw,19659527,102612000000,,,-1219930642388465140,0.0,4.633548639142268,,,0,25,0.0,16431,49144925821840,13,41.25977325439453,-306.12092185270876,0.15094342820749784,1,-49617.161870757234,8.284297655336559E-4,1.57542003E9,,,,0,,1,,1.57542003E9
Raw,19659527,102612000000,,,-1219930642388465140,0.0,4.633548639142268,,,0,31,0.0,16431,49144926420942,11,40.59136199951172,-442.7898683863523,0.15105120066279165,1,-48881.24145324523,8.4878463530913E-4,1.57542003E9,,,,0,,1,,1.57542003E9
Raw,19659527,102612000000,,,-1219930642388465140,0.0,4.633548639142268,,,0,32,0.0,16431,49144929095147,11,43.83869934082031,-44.071474950034684,0.15153221595738897,1,-7243.84011019595,6.156152812764049E-4,1.57542003E9,,,,0,,1,,1.57542003E9
Raw,19659528,102612000000,,,-1219930642388465140,0.0,4.633548639142268,,,0,10,0.0,16401,49144933329387,9,34.38756561279297,40.66718712301736,0.4046786466292702,1,9004.188842587497,0.002321722684428096,1.17645005E9,,,,0,,1,,1.17645005E9
Raw,19659528,102612000000,,,-1219930642388465140,0.0,4.633548639142268,,,0,24,0.0,16401,49144920486844,11,33.694000244140625,766.692834775446,0.4371549008211453,1,-373451.38674055994,0.0025147139094769955,1.17645005E9,,,,0,,1,,1.17645005E9
Raw,19659528,102612000000,,,-1219930642388465140,0.0,4.633548639142268,,,0,25,0.0,16401,49144925821858,14,31.01371192932129,-306.00882465320524,0.5550465839046317,1,-80290.712817483,0.0032279491424560547,1.17645005E9,,,,0,,1,,1.17645005E9
Raw,19659528,102612000000,,,-1219930642388465140,0.0,4.633548639142268,,,0,32,0.0,16401,49144929095165,9,37.22539138793945,-44.06861202368677,0.27630317994917797,1,-11397.06230923095,0.0016746304463595152,1.17645005E9,,,,0,,1,,1.17645005E9
NMEA,$GPGSV,4,2,14,25,36,123,41,31,34,223,44,12,27,073,45,24,17,044,35*7E
,1535895526001
NMEA,$GPGSV,4,3,14,21,15,185,40,18,14,311,27*7E
,1535895526001
NMEA,$GPGSV,4,4,14,10,,,36,32,,,39,25,,,37,24,,,34,8*65
,1535895526002
NMEA,$GLGSV,1,1,04,79,70,076,38,69,49,357,43,68,43,079,42,80,31,192,35*61
,1535895526002
NMEA,$QZGSV,2,1,04,01,58,119,40,02,57,079,36*68
,1535895526002
NMEA,$QZGSV,2,2,04,01,,,37,02,,,31,8*70
,1535895526002
NMEA,$BDGSV,1,1,04,206,60,041,39,203,52,168,36,202,48,215,30,213,19,201,38*64
,1535895526002
NMEA,$GAGSV,3,1,10,107,62,003,40,130,59,101,42,127,37,178,40,108,36,084,43*6B
,1535895526002
NMEA,$GAGSV,3,2,10,102,24,044,38,126,22,249,40*68
,1535895526002
NMEA,$GAGSV,3,3,10,107,,,34,130,,,38,108,,,35,102,,,37,1*74
,1535895526003
NMEA,$GPGSA,A,3,10,12,14,18,20,21,24,25,31,32,,,1.6,0.8,1.3*32
,1535895526003
NMEA,$GNGSA,A,3,10,12,14,18,20,21,24,25,31,32,,,1.6,0.8,1.3*2C
,1535895526003
NMEA,$GNGSA,A,3,68,69,79,80,,,,,,,,,1.6,0.8,1.3*26
,1535895526003
NMEA,$QZGSA,A,3,01,02,,,,,,,,,,,1.6,0.8,1.3*20
,1535895526003
NMEA,$IMGSA,A,3,,,,,,,,,,,,,1.6,0.8,1.3*2C
,1535895526003
NMEA,$BDGSA,A,3,202,203,206,213,,,,,,,,,1.6,0.8,1.3*2B
,1535895526004
NMEA,$GAGSA,A,3,102,107,108,126,127,130,,,,,,,1.6,0.8,1.3*21
,1535895526004
NMEA,$GPRMC,133847.00,A,3045.144964,N,10356.107745,E,000.5,155.2,020918,,,A*59
,1535895526004
Nav,99,769,1,3,9,72,12,104,-72,-72,52,-64,-78,-83,-12,-16
Nav,100,769,1,3,9,72,12,104,-72,-72,52,-64,-78,-83,-12,-16
Nav,101,769,1,3,9,72,12,104,-72,-72,52,-64,-78,-83,-12,-16
Nav,102,769,1,-1,9,72,12,104,-72,-72,52,-64,-78,-83,-12,-16
Nav,106,769,1,3,9,72,12,104,-72,-72,52,-64,-78,-83,-12,-16
NMEA,$GPGGA,133848.00,3045.144972,N,10356.107942,E,1,31,0.4,526.9,M,-32.4,M,,*48
,1535895526967
NMEA,$GPGSV,4,1,14,10,83,024,43,20,60,136,40,32,53,322,44,14,37,294,39*76
,1535895526970
NMEA,$GPGSV,4,2,14,25,36,123,41,31,34,223,43,12,27,073,46,24,17,044,36*79
,1535895526970
NMEA,$GPGSV,4,3,14,21,15,185,39,18,14,311,27*70
,1535895526970
NMEA,$GPGSV,4,4,14,10,,,36,32,,,39,25,,,37,24,,,33,8*62
,1535895526970
NMEA,$GLGSV,1,1,04,79,70,076,38,69,49,357,43,68,43,079,42,80,31,192,35*61
,1535895526970
NMEA,$QZGSV,2,1,04,01,58,119,40,02,57,079,37*69
,1535895526970
NMEA,$QZGSV,2,2,04,01,,,36,02,,,31,8*71
,1535895526970
NMEA,$BDGSV,1,1,04,206,60,041,39,203,52,168,36,202,48,215,29,213,19,201,38*6C
,1535895526971
NMEA,$GAGSV,3,1,10,107,62,003,41,130,59,101,41,127,37,178,40,108,36,084,42*68
,1535895526971
NMEA,$GAGSV,3,2,10,102,24,044,39,126,21,249,41*6B
,1535895526971
NMEA,$GAGSV,3,3,10,107,,,34,130,,,38,108,,,35,102,,,36,1*75
,1535895526971
NMEA,$GPGSA,A,3,10,12,14,18,20,21,24,25,31,32,,,1.5,0.8,1.2*30
,1535895526971
NMEA,$GNGSA,A,3,10,12,14,18,20,21,24,25,31,32,,,1.5,0.8,1.2*2E
,1535895526971
NMEA,$GNGSA,A,3,68,69,79,80,,,,,,,,,1.5,0.8,1.2*24
,1535895526971
NMEA,$QZGSA,A,3,01,02,,,,,,,,,,,1.5,0.8,1.2*22
,1535895526971
NMEA,$IMGSA,A,3,,,,,,,,,,,,,1.5,0.8,1.2*2E
,1535895526971
NMEA,$BDGSA,A,3,202,203,206,213,,,,,,,,,1.5,0.8,1.2*29
,1535895526971
NMEA,$GAGSA,A,3,102,107,108,126,127,130,,,,,,,1.5,0.8,1.2*23
,1535895526971
NMEA,$GPRMC,133848.00,A,3045.144972,N,10356.107942,E,000.5,079.1,020918,,,A*54
,1535895526971
Fix,gps,30.752416,103.935132,494.493832,0.274685,4.000000,1535895528000
Raw,19660485,103612000000,,,-1219930642388464763,0.0,4.555325416358124,,,0,10,0.0,16431,49145933329248,13,41.53340148925781,40.680854188083,0.1522938290544429,1,5660.388205538385,8.027388830669224E-4,1.57542003E9,,,,0,,1,,1.57542003E9
Raw,19660485,103612000000,,,-1219930642388464763,0.0,4.555325416358124,,,0,12,0.0,16431,49145924420089,9,45.804866790771484,108.60822955296806,0.15069128792489184,1,16414.62016417904,4.909090930595994E-4,1.57542003E9,,,,0,,1,,1.57542003E9
Raw,19660486,103612000000,,,-1219930642388464763,0.0,4.555325416358124,,,0,14,0.0,16431,49145925434286,14,38.18732833862305,-154.88078788800942,0.23238748539027598,1,-25029.800031182032,0.0011194361140951514,1.57542003E9,,,,0,,1,,1.57542003E9
Raw,19660486,103612000000,,,-1219930642388464763,0.0,4.555325416358124,,,0,15,0.0,16431,49145914745338,47,23.270401000976562,588.4912112178449,0.9048597313676479,4,28641.535295845562,3.4028234663852886E38,1.57542003E9,,,,0,,1,,1.57542003E9
Raw,19660486,103612000000,,,-1219930642388464763,0.0,4.555325416358124,,,0,18,0.0,16431,49145920486540,51,22.354366302490234,-195.88050049809158,0.9470854320093878,4,-15344.403714633185,3.4028234663852886E38,1.57542003E9,,,,0,,1,,1.57542003E9
Raw,19660486,103612000000,,,-1219930642388464763,0.0,4.555325416358124,,,0,20,0.0,16431,49145931795277,13,38.65017318725586,447.3173819108424,0.21271798050603852,1,71031.55019440173,0.0010613460326567292,1.57542003E9,,,,0,,1,,1.57542003E9
Raw,19660486,103612000000,,,-1219930642388464763,0.0,4.555325416358124,,,0,21,0.0,16431,49145920883234,19,34.323341369628906,692.9233344143013,0.4089255071004465,1,111377.01412363048,0.0016467301174998283,1.57542003E9,,,,0,,1,,1.57542003E9
Raw,19660486,103612000000,,,-1219930642388464763,0.0,4.555325416358124,,,0,24,0.0,16431,49145920484286,16,36.142860412597656,766.1451296991245,0.32703202080592275,1,74009.22423903822,0.0014165200991556048,1.57542003E9,,,,0,,1,,1.57542003E9
Raw,19660486,103612000000,,,-1219930642388464763,0.0,4.555325416358124,,,0,25,0.0,16431,49145925822882,12,39.44664764404297,-306.0563015151415,0.1758271661777624,1,-49923.38106038049,9.683521930128336E-4,1.57542003E9,,,,0,,1,,1.57542003E9
Raw,19660487,103612000000,,,-1219930642388464763,0.0,4.555325416358124,,,0,31,0.0,16431,49145926422414,11,40.78361892700195,-442.20722879209484,0.15105145029015876,1,-49323.706817393875,8.302037604153156E-4,1.57542003E9,,,,0,,1,,1.57542003E9
Raw,19660487,103612000000,,,-1219930642388464763,0.0,4.555325416358124,,,0,32,0.0,16431,49145929095310,12,42.601661682128906,-44.01993801546513,0.15153224924103792,1,-7287.888371538656,7.098414935171604E-4,1.57542003E9,,,,0,,1,,1.57542003E9
Raw,19660487,103612000000,,,-1219930642388464763,0.0,4.555325416358124,,,0,10,0.0,16401,49145933329252,9,34.4542350769043,40.748789044547095,0.4016805553829761,1,9044.822685778721,0.0023039698135107756,1.17645005E9,,,,0,,1,,1.17645005E9
Raw,19660487,103612000000,,,-1219930642388464763,0.0,4.555325416358124,,,0,24,0.0,16401,49145920484282,10,30.76053810119629,766.3080438413035,0.5690689852064481,1,-372684.9850494062,0.003323421347886324,1.17645005E9,,,,0,,1,,1.17645005E9
Raw,19660487,103612000000,,,-1219930642388464763,0.0,4.555325416358124,,,0,25,0.0,16401,49145925822870,10,34.150970458984375,-306.0208898428143,0.4139678134978324,1,-80596.91516891346,0.0023858333006501198,1.17645005E9,,,,0,,1,,1.17645005E9
Raw,19660487,103612000000,,,-1219930642388464763,0.0,4.555325416358124,,,0,32,0.0,16401,49145929095307,9,38.064186096191406,-44.03383087680524,0.23858353619479733,1,-11441.119836753302,0.0015204749070107937,1.17645005E9,,,,0,,1,,1.17645005E9
Nav,10,257,1,-1,1,34,-61,-31,45,3,-1,-23,-37,62,20,0,13,26,42,-38,46,20,-9,-84,-13,9,-127,-33,-122,20,-65,-127,33,23,-61,19,-121,0,63,-5,-39,6,8,-61,39
Nav,12,257,1,-1,1,34,-61,-31,45,3,-1,-23,-37,62,20,0,13,26,42,-38,46,20,-9,-84,-13,9,-127,-33,-122,20,-65,-71,127,23,67,19,-76,0,63,-6,36,10,38,-96,47
Nav,14,257,1,-1,1,34,-61,-31,45,3,-1,-23,-37,62,20,0,13,26,42,-38,46,20,-9,-84,-13,9,-127,-33,-122,20,-65,-70,-57,1,-61,19,95,0,0,0,83,60,-50,117,39
Nav,15,257,1,-1,1,34,-61,-31,45,3,-1,-23,-120,62,20,0,13,26,42,-38,46,20,-9,-84,-13,9,-127,-33,-122,20,-65,-70,98,12,3,19,-121,0,0,2,69,52,-95,113,-68
Nav,20,257,1,-1,1,34,-61,-31,45,3,-1,-23,-37,62,20,0,13,26,42,-38,46,20,-9,-84,-13,9,-127,-33,-122,20,-65,-69,-97,10,-125,19,-121,0,0,1,88,16,-31,124,-112
Nav,21,257,1,-1,1,34,-61,-31,45,3,-1,-23,-120,62,20,0,13,26,42,-38,46,20,-9,-84,-13,9,-127,-33,-122,20,-65,-70,-108,11,3,19,-86,0,0,12,-22,52,-64,-95,-8
Nav,25,257,1,-1,1,34,-61,-31,45,3,-1,-23,-37,62,20,0,13,26,42,-38,46,20,-9,-84,-13,9,-127,-33,-122,20,-65,-125,55,11,67,19,-89,0,63,-13,-109,42,-1,65,-89
Nav,31,257,1,-1,1,34,-61,-31,45,3,-1,-23,-37,62,20,0,13,26,42,-38,46,20,-9,-84,-13,9,-127,-33,-122,20,-65,-72,-47,10,-61,19,-93,0,63,-6,36,3,40,102,60
Nav,32,257,1,-1,1,34,-61,-31,45,3,-1,-23,-37,62,20,0,13,26,42,-38,46,20,-9,-84,-13,9,-127,-33,-122,20,-65,-128,121,24,-125,19,-75,0,0,23,121,49,-67,-49,99
NMEA,$GPGGA,133849.00,3045.145069,N,10356.108050,E,1,31,0.4,526.7,M,-32.4,M,,*40
,1535895527941
NMEA,$GPGSV,4,1,14,10,83,024,43,20,60,136,40,32,53,322,44,14,37,294,39*76
,1535895527945
NMEA,$GPGSV,4,2,14,25,36,123,41,31,34,223,43,12,27,073,45,24,17,044,36*7A
,1535895527945
NMEA,$GPGSV,4,3,14,21,15,185,40,18,14,311,26*7F
,1535895527945
NMEA,$GPGSV,4,4,14,10,,,36,32,,,38,25,,,37,24,,,33,8*63
,1535895527945
NMEA,$GLGSV,1,1,04,79,70,075,38,69,49,357,42,68,43,080,42,80,31,192,36*66
,1535895527945
NMEA,$QZGSV,2,1,04,01,58,119,40,02,57,079,36*68
,1535895527945
Raw,19661430,104612000000,,,-1219930642388464385,0.0,4.5105373038814855,,,0,10,0.0,16431,49146933329102,12,42.25315856933594,40.862952492977314,0.15229379577079394,1,5701.14028926739,7.389013189822435E-4,1.57542003E9,,,,0,,1,,1.57542003E9
Raw,19661430,104612000000,,,-1219930642388464385,0.0,4.5105373038814855,,,0,12,0.0,16431,49146924419727,11,40.36997604370117,108.89294587414548,0.15069122135759394,1,16523.351696968908,8.706964435987175E-4,1.57542003E9,,,,0,,1,,1.57542003E9
Raw,19661430,104612000000,,,-1219930642388464385,0.0,4.5105373038814855,,,0,14,0.0,16431,49146925434800,13,38.78147506713867,-154.9146147261083,0.2056693690337127,1,-25184.70648051538,0.0010454226285219193,1.57542003E9,,,,0,,1,,1.57542003E9
Raw,19661430,104612000000,,,-1219930642388464385,0.0,4.5105373038814855,,,0,15,0.0,16431,49146914743326,57,20.943159103393555,589.8030449694079,1.0095128430820446,4,29229.99583387617,3.4028234663852886E38,1.57542003E9,,,,0,,1,,1.57542003E9
Raw,19661430,104612000000,,,-1219930642388464385,0.0,4.5105373038814855,,,0,18,0.0,16431,49146920487240,44,24.179916381835938,-196.27047196562557,0.8649925766576652,4,-15540.458851465777,3.4028234663852886E38,1.57542003E9,,,,1,,1,,1.57542003E9
Raw,19661431,104612000000,,,-1219930642388464385,0.0,4.5105373038814855,,,0,20,0.0,16431,49146931793769,13,38.42790222167969,447.26049829090584,0.22271307692696451,1,71478.88113966631,0.0010888566030189395,1.57542003E9,,,,0,,1,,1.57542003E9
Raw,19661431,104612000000,,,-1219930642388464385,0.0,4.5105373038814855,,,0,21,0.0,16431,49146920881000,12,39.711395263671875,692.75701202647,0.16663042800232897,1,112069.98657653359,9.392821229994297E-4,1.57542003E9,,,,0,,1,,1.57542003E9
Raw,19661431,104612000000,,,-1219930642388464385,0.0,4.5105373038814855,,,0,24,0.0,16431,49146920481730,22,32.45527267456055,766.0245459679468,0.4928581494314219,1,74775.35088095524,0.00216571893543005,1.57542003E9,,,,0,,1,,1.57542003E9
Raw,19661431,104612000000,,,-1219930642388464385,0.0,4.5105373038814855,,,0,25,0.0,16431,49146925823900,12,40.00398635864258,-306.02589996392317,0.15094379432763627,1,-50229.35541715653,9.081684402190149E-4,1.57542003E9,,,,0,,1,,1.57542003E9
Raw,19661431,104612000000,,,-1219930642388464385,0.0,4.5105373038814855,,,0,31,0.0,16431,49146926423908,11,42.944278717041016,-442.44628314214583,0.15105173320117482,1,-49765.99832571494,6.823866860941052E-4,1.57542003E9,,,,0,,1,,1.57542003E9
Raw,19661431,104612000000,,,-1219930642388464385,0.0,4.5105373038814855,,,0,32,0.0,16431,49146929095465,12,42.40908432006836,-43.96260280297963,0.15153228252468687,1,-7331.974224862829,7.257551769725978E-4,1.57542003E9,,,,0,,1,,1.57542003E9
