# 
# Header Description:
# 
# Version: v2.0.0.1 Platform: 8.1.0 Manufacturer: Xiaomi Model: MI 8
# 
# Raw,ElapsedRealtimeMillis,TimeNanos,LeapSecond,TimeUncertaintyNanos,FullBiasNanos,BiasNanos,BiasUncertaintyNanos,DriftNanosPerSecond,DriftUncertaintyNanosPerSecond,HardwareClockDiscontinuityCount,Svid,TimeOffsetNanos,State,ReceivedSvTimeNanos,ReceivedSvTimeUncertaintyNanos,Cn0DbHz,PseudorangeRateMetersPerSecond,PseudorangeRateUncertaintyMetersPerSecond,AccumulatedDeltaRangeState,AccumulatedDeltaRangeMeters,AccumulatedDeltaRangeUncertaintyMeters,CarrierFrequencyHz,CarrierCycles,CarrierPhase,CarrierPhaseUncertainty,MultipathIndicator,SnrInDb,ConstellationType,AgcDb,CarrierFrequencyHz
# 
# Fix,Provider,Latitude,Longitude,Altitude,Speed,Accuracy,(UTC)TimeInMs
# 
# Nav,Svid,Type,Status,MessageId,Sub-messageId,Data(Bytes)
# 
NMEA,$GPGGA,133933.00,3045.145811,N,10356.106685,E,1,32,0.4,526.8,M,-32.4,M,,*47
,1535895571939
NMEA,$GPGSV,4,1,12,10,83,026,43,20,60,137,42,32,53,323,41,14,38,294,41*75
,1535895571945
NMEA,$GPGSV,4,2,12,25,36,123,37,31,34,223,43,12,27,073,43,24,16,044,39*75
,1535895571945
NMEA,$GPGSV,4,3,12,21,15,185,35*40
,1535895571945
NMEA,$GPGSV,4,4,12,10,,,39,32,,,39,25,,,39,8*63
,1535895571945
NMEA,$GLGSV,1,1,04,79,70,074,39,69,50,358,43,68,43,080,40,80,32,192,35*62
,1535895571945
NMEA,$QZGSV,2,1,04,01,58,119,39,02,57,078,37*66
,1535895571945
NMEA,$QZGSV,2,2,04,01,,,33,02,,,29,8*7D
,1535895571945
NMEA,$BDGSV,1,1,04,206,60,041,38,203,52,168,37,202,48,215,30,213,19,201,38*64
,1535895571945
NMEA,$GAGSV,4,1,12,107,63,003,41,130,59,101,40,127,37,178,41,108,36,084,37*6E
,1535895571945
NMEA,$GAGSV,4,2,12,102,24,043,41,126,21,249,37*67
,1535895571945
NMEA,$GAGSV,4,3,12,107,,,35,130,,,36,127,,,34,108,,,35,1*7A
,1535895571945
Raw,19705425,148612000000,,,-1219930642388447744,0.0,4.741783694741917,,,0,10,0.0,16431,49190933322789,11,43.44318389892578,45.17645375234659,0.1522926641267297,1,10834.785380806123,6.442957674153149E-4,1.57542003E9,,,,0,,1,,1.57542003E9
Raw,19705427,148612000000,,,-1219930642388447744,0.0,4.741783694741917,,,0,12,0.0,16431,49190924403353,12,41.85237121582031,114.38420902173112,0.15068827575466204,1,30198.935062856573,7.737951818853617E-4,1.57542003E9,,,,0,,1,,1.57542003E9
Raw,19705427,148612000000,,,-1219930642388447744,0.0,4.741783694741917,,,0,14,0.0,16431,49190925457515,14,37.974300384521484,-154.27943702512096,0.2419713124029753,1,-44574.56183749222,0.0011472305050119758,1.57542003E9,,,,0,,1,,1.57542003E9
Raw,19705427,148612000000,,,-1219930642388447744,0.0,4.741783694741917,,,0,15,0.0,17,656912,46,23.60849380493164,589.6396536728375,0.8896401837804677,4,50438.985014891594,3.4028234663852886E38,1.57542003E9,,,,0,,1,,1.57542003E9
Raw,19705427,148612000000,,,-1219930642388447744,0.0,4.741783694741917,,,0,18,0.0,39,2920515364,61,20.052473068237305,-190.6023379099148,1.050604103833039,4,-5129.921841879015,3.4028234663852886E38,1.57542003E9,,,,1,,1,,1.57542003E9
Raw,19705427,148612000000,,,-1219930642388447744,0.0,4.741783694741917,,,0,20,0.0,16431,49190931727812,12,42.02800750732422,451.6055002607163,0.15200577571462193,1,127432.672646597,7.583053084090352E-4,1.57542003E9,,,,0,,1,,1.57542003E9
Raw,19705428,148612000000,,,-1219930642388447744,0.0,4.741783694741917,,,0,21,0.0,16431,49190920779357,25,30.945934295654297,692.8692796382561,0.5607849512524683,1,198643.60403302356,0.09757620111395394,1.57542003E9,,,,0,,1,,1.57542003E9
Raw,19705428,148612000000,,,-1219930642388447744,0.0,4.741783694741917,,,0,24,0.0,16,148020369242,1000000000,38.96931838989258,766.7434813058389,2.99792458E8,2,81852.04439529646,3.4028234663852886E38,1.57542003E9,,,,0,,1,,1.57542003E9
Raw,19705428,148612000000,,,-1219930642388447744,0.0,4.741783694741917,,,0,25,0.0,16431,49190925868564,23,31.95792579650879,-302.18242134184584,0.5125948207192366,1,-88437.94955911537,0.0021621864289045334,1.57542003E9,,,,0,,1,,1.57542003E9
Raw,19705428,148612000000,,,-1219930642388447744,0.0,4.741783694741917,,,0,31,0.0,16431,49190926488629,12,42.00448226928711,-439.307288896395,0.15106336583648217,1,-105060.53979813136,7.603620761074126E-4,1.57542003E9,,,,0,,1,,1.57542003E9
Raw,19705428,148612000000,,,-1219930642388447744,0.0,4.741783694741917,,,0,32,0.0,16431,49190929101855,21,33.12369918823242,-42.88693065297028,0.4607528747907219,1,-12847.20246471665,0.001890621380880475,1.57542003E9,,,,1,,1,,1.57542003E9
Raw,19705428,148612000000,,,-1219930642388447744,0.0,4.741783694741917,,,0,10,0.0,16401,49190933322813,11,38.65763473510742,45.26768396784402,0.2126572378467083,1,14215.658176781575,0.0014200606383383274,1.17645005E9,,,,0,,1,,1.17645005E9
Raw,19705428,148612000000,,,-1219930642388447744,0.0,4.741783694741917,,,0,25,0.0,16401,49190925868521,9,38.49014663696289,-302.2106416158467,0.21884809640199376,1,-119110.95519448396,0.0014477088116109371,1.17645005E9,,,,0,,1,,1.17645005E9
Raw,19705429,148612000000,,,-1219930642388447744,0.0,4.741783694741917,,,0,32,0.0,16401,49190929101858,10,39.05670928955078,-42.953421265339216,0.19395204348161843,1,-16996.445031077277,0.0013562919339165092,1.17645005E9,,,,0,,1,,1.17645005E9
NMEA,$GAGSV,4,4,12,102,,,34,126,,,31,1*75
,1535895571945
NMEA,$GPGSA,A,3,10,12,14,20,21,24,25,31,32,,,,1.7,0.8,1.5*3C
,1535895571945
NMEA,$GNGSA,A,3,10,12,14,20,21,24,25,31,32,,,,1.7,0.8,1.5*22
,1535895571945
NMEA,$GNGSA,A,3,68,69,79,80,,,,,,,,,1.7,0.8,1.5*21
,1535895571945
NMEA,$QZGSA,A,3,01,02,,,,,,,,,,,1.7,0.8,1.5*27
,1535895571945
NMEA,$IMGSA,A,3,,,,,,,,,,,,,1.7,0.8,1.5*2B
,1535895571945
NMEA,$BDGSA,A,3,202,203,206,213,,,,,,,,,1.7,0.8,1.5*2C
,1535895571945
NMEA,$GAGSA,A,3,102,107,108,126,127,130,,,,,,,1.7,0.8,1.5*26
,1535895571945
NMEA,$GPRMC,133933.00,A,3045.145811,N,10356.106685,E,000.1,049.4,020918,,,A*5B
,1535895571946
Fix,gps,30.752430,103.935111,494.428870,0.058053,4.000000,1535895573000
Nav,99,769,1,5,2,16,-61,0,92,-38,16,88,62,-82,-13,96
Nav,100,769,1,5,2,16,-61,4,-3,-26,-4,17,23,-9,103,24
Nav,101,769,1,5,2,16,-61,0,-125,62,-108,75,-33,-116,102,-16
Nav,106,769,1,5,2,16,-61,0,82,98,44,76,9,-124,-74,-96
NMEA,$GPGGA,133934.00,3045.145864,N,10356.106719,E,1,32,0.4,526.8,M,-32.4,M,,*46
,1535895572972
NMEA,$GPGSV,4,1,12,10,83,026,43,20,60,137,42,32,53,323,40,14,38,294,41*74
,1535895572979
NMEA,$GPGSV,4,2,12,25,36,123,36,31,34,223,43,12,27,073,43,24,16,044,39*74
,1535895572979
NMEA,$GPGSV,4,3,12,21,15,185,35*40
,1535895572980
NMEA,$GPGSV,4,4,12,10,,,39,32,,,39,25,,,39,8*63
,1535895572980
NMEA,$GLGSV,1,1,04,79,70,074,39,69,50,358,43,68,43,080,39,80,32,192,35*6C
,1535895572980
Raw,19706465,149612000000,,,-1219930642388447366,0.0,4.735188050211798,,,0,10,0.0,16431,49191933322651,11,43.30996322631836,45.37307118371962,0.15229264748490523,1,10880.031086685785,6.542537012137473E-4,1.57542003E9,,,,0,,1,,1.57542003E9
Raw,19706465,149612000000,,,-1219930642388447366,0.0,4.735188050211798,,,0,12,0.0,16431,49191924402956,13,41.77705001831055,114.61874744629284,0.15068820918736414,1,30313.428002664274,7.80534406658262E-4,1.57542003E9,,,,0,,1,,1.57542003E9
Raw,19706465,149612000000,,,-1219930642388447366,0.0,4.735188050211798,,,0,14,0.0,16431,49191925458035,14,38.131752014160156,-154.13402422436639,0.23489099825502646,1,-44728.75815694456,0.0011266217334195971,1.57542003E9,,,,0,,1,,1.57542003E9
Raw,19706466,149612000000,,,-1219930642388447366,0.0,4.735188050211798,,,0,15,0.0,17,654933,40,25.083629608154297,589.1438902602567,0.8233045400810322,4,51027.996999376264,3.4028234663852886E38,1.57542003E9,,,,0,,1,,1.57542003E9
Raw,19706466,149612000000,,,-1219930642388447366,0.0,4.735188050211798,,,0,18,0.0,39,3920516010,51,22.219844818115234,-190.61278418283905,0.9531400605895288,4,-5319.163411030029,3.4028234663852886E38,1.57542003E9,,,,1,,1,,1.57542003E9
Raw,19706466,149612000000,,,-1219930642388447366,0.0,4.735188050211798,,,0,20,0.0,16431,49191931726299,12,41.85871887207031,451.79107923648303,0.15200550944543034,1,127884.33326016435,7.732295780442655E-4,1.57542003E9,,,,0,,1,,1.57542003E9
Raw,19706466,149612000000,,,-1219930642388447366,0.0,4.735188050211798,,,0,21,0.0,16431,49191920777020,21,33.31700134277344,693.0377151383918,0.45416038244358026,1,199336.48370176624,0.0971080084918884,1.57542003E9,,,,0,,1,,1.57542003E9
Raw,19706466,149612000000,,,-1219930642388447366,0.0,4.735188050211798,,,0,24,0.0,16,149020366684,1000000000,37.227779388427734,766.7434813058389,2.99792458E8,2,81852.06238341304,3.4028234663852886E38,1.57542003E9,,,,0,,1,,1.57542003E9
Raw,19706467,149612000000,,,-1219930642388447366,0.0,4.735188050211798,,,0,25,0.0,16431,49191925869553,23,31.90445899963379,-302.05376006847223,0.5149992980865421,1,-88740.1284200055,0.00217553717084229,1.57542003E9,,,,0,,1,,1.57542003E9
Raw,19706467,149612000000,,,-1219930642388447366,0.0,4.735188050211798,,,0,31,0.0,16431,49191926490054,12,42.74101638793945,-439.1373878506288,0.15106363210567375,1,-105499.80235785674,6.985437939874828E-4,1.57542003E9,,,,0,,1,,1.57542003E9
Raw,19706467,149612000000,,,-1219930642388447366,0.0,4.735188050211798,,,0,32,0.0,16431,49191929101993,26,30.278018951416016,-42.7570850142325,0.5887199178145726,4,-12890.017620957919,3.4028234663852886E38,1.57542003E9,,,,1,,1,,1.57542003E9
Raw,19706467,149612000000,,,-1219930642388447366,0.0,4.735188050211798,,,0,10,0.0,16401,49191933322662,9,39.226139068603516,45.389963301233735,0.1870922002243015,1,14260.897315428476,0.0013300918508321047,1.17645005E9,,,,0,,1,,1.17645005E9
Raw,19706467,149612000000,,,-1219930642388447366,0.0,4.735188050211798,,,0,25,0.0,16401,49191925869528,8,38.78913879394531,-302.0471139894503,0.20540306655847929,1,-119413.12151319327,0.0013987228740006685,1.17645005E9,,,,0,,1,,1.17645005E9
Raw,19706467,149612000000,,,-1219930642388447366,0.0,4.735188050211798,,,0,32,0.0,16401,49191929102002,10,38.39260482788086,-42.8284621988054,0.22381608041127865,1,-17039.34882646772,0.00146405806299299,1.17645005E9,,,,0,,1,,1.17645005E9
NMEA,$QZGSV,2,1,04,01,58,119,38,02,57,078,37*67
,1535895572980
NMEA,$QZGSV,2,2,04,01,,,33,02,,,29,8*7D
,1535895572980
NMEA,$BDGSV,1,1,04,206,60,041,38,203,52,168,37,202,48,215,29,213,19,201,37*63
,1535895572981
NMEA,$GAGSV,4,1,12,107,63,003,40,130,59,101,39,127,37,178,41,108,36,084,37*61
,1535895572981
NMEA,$GAGSV,4,2,12,102,24,043,41,126,21,249,36*66
,1535895572981
NMEA,$GAGSV,4,3,12,107,,,35,130,,,36,127,,,34,108,,,35,1*7A
,1535895572981
NMEA,$GAGSV,4,4,12,102,,,34,126,,,31,1*75
,1535895572981
NMEA,$GPGSA,A,3,10,12,14,20,21,24,25,31,32,,,,1.9,0.9,1.7*31
,1535895572981
NMEA,$GNGSA,A,3,10,12,14,20,21,24,25,31,32,,,,1.9,0.9,1.7*2F
,1535895572981
NMEA,$GNGSA,A,3,68,69,79,80,,,,,,,,,1.9,0.9,1.7*2C
,1535895572981
NMEA,$QZGSA,A,3,01,02,,,,,,,,,,,1.9,0.9,1.7*2A
,1535895572981
NMEA,$IMGSA,A,3,,,,,,,,,,,,,1.9,0.9,1.7*26
,1535895572981
NMEA,$BDGSA,A,3,202,203,206,213,,,,,,,,,1.9,0.9,1.7*21
,1535895572981
NMEA,$GAGSA,A,3,102,107,108,126,127,130,,,,,,,1.9,0.9,1.7*2B
,1535895572981
NMEA,$GPRMC,133934.00,A,3045.145864,N,10356.106719,E,000.1,042.0,020918,,,A*55
,1535895572982
Fix,gps,30.752431,103.935112,494.419436,0.040906,4.000000,1535895574000
NMEA,$GPGGA,133935.00,3045.145884,N,10356.106817,E,1,32,0.4,526.7,M,-32.4,M,,*47
,1535895573955
Fix,gps,30.752431,103.935114,494.377475,0.029570,4.000000,1535895575000
NMEA,$GPGSV,4,1,12,10,83,027,44,20,60,137,42,32,53,323,39,14,38,294,40*7D
,1535895573961
NMEA,$GPGSV,4,2,12,25,36,123,36,31,34,223,43,12,27,073,43,24,16,044,39*74
,1535895573961
NMEA,$GPGSV,4,3,12,21,15,185,35*40
,1535895573962
NMEA,$GPGSV,4,4,12,10,,,39,32,,,39,25,,,39,8*63
,1535895573962
NMEA,$GLGSV,1,1,04,79,70,074,39,69,50,358,43,68,43,080,39,80,32,192,35*6C
,1535895573962
NMEA,$QZGSV,2,1,04,01,58,119,38,02,57,078,37*67
,1535895573962
NMEA,$QZGSV,2,2,04,01,,,32,02,,,29,8*7C
,1535895573962
NMEA,$BDGSV,1,1,04,206,60,041,38,203,52,168,37,202,48,215,29,213,19,201,37*63
,1535895573962
NMEA,$GAGSV,4,1,12,107,63,003,40,130,59,100,39,127,37,178,41,108,36,084,37*60
,1535895573963
NMEA,$GAGSV,4,2,12,102,24,043,41,126,21,249,36*66
,1535895573963
NMEA,$GAGSV,4,3,12,107,,,35,130,,,36,127,,,34,108,,,35,1*7A
,1535895573963
NMEA,$GAGSV,4,4,12,102,,,33,126,,,31,1*72
,1535895573963
Raw,19707461,150612000000,,,-1219930642388446988,0.0,4.740762159153934,,,0,10,0.0,16431,49192933322498,11,43.678443908691406,45.3630765033443,0.15229261420125628,1,10925.307477922523,6.270788726396859E-4,1.57542003E9,,,,0,,1,,1.57542003E9
Raw,19707461,150612000000,,,-1219930642388446988,0.0,4.740762159153934,,,0,12,0.0,16431,49192924402587,12,42.16478729248047,114.60542972640656,0.15068814262006625,1,30427.945330938375,7.464574300684035E-4,1.57542003E9,,,,0,,1,,1.57542003E9
Raw,19707462,150612000000,,,-1219930642388446988,0.0,4.740762159153934,,,0,14,0.0,16431,49192925458534,13,39.257789611816406,-154.1367508208882,0.1842544196731657,1,-44882.98509588213,9.89637803286314E-4,1.57542003E9,,,,0,,1,,1.57542003E9
Raw,19707462,150612000000,,,-1219930642388446988,0.0,4.740762159153934,,,0,15,0.0,17,652965,40,25.142858505249023,589.0081739183829,0.8206407830884213,1,51616.96181105892,0.0998853982082454,1.57542003E9,,,,0,,1,,1.57542003E9
Raw,19707462,150612000000,,,-1219930642388446988,0.0,4.740762159153934,,,0,18,0.0,39,4920516629,58,20.61176300048828,-190.50954842203146,1.025453713909227,4,-5508.4325142333755,3.4028234663852886E38,1.57542003E9,,,,1,,1,,1.57542003E9
Raw,19707462,150612000000,,,-1219930642388446988,0.0,4.740762159153934,,,0,20,0.0,16431,49192931724773,12,42.30165100097656,451.7538611939601,0.15200522653441428,1,128336.00924784126,7.347878417931497E-4,1.57542003E9,,,,0,,1,,1.57542003E9
Raw,19707462,150612000000,,,-1219930642388446988,0.0,4.740762159153934,,,0,21,0.0,16431,49192920774718,19,34.56884765625,692.8685979891256,0.39786581652609243,1,200029.26444201698,0.09684478017789101,1.57542003E9,,,,0,,1,,1.57542003E9
Raw,19707462,150612000000,,,-1219930642388446988,0.0,4.740762159153934,,,0,24,0.0,16,150020364125,1000000000,37.06834411621094,766.7434813058389,2.99792458E8,2,81852.03240321876,3.4028234663852886E38,1.57542003E9,,,,0,,1,,1.57542003E9
Raw,19707462,150612000000,,,-1219930642388446988,0.0,4.740762159153934,,,0,25,0.0,16431,49192925870562,24,31.554981231689453,-302.06456420718996,0.5307151048795378,1,-89042.31468538623,0.0022648551966995,1.57542003E9,,,,0,,1,,1.57542003E9
Raw,19707462,150612000000,,,-1219930642388446988,0.0,4.740762159153934,,,0,31,0.0,16431,49192926491526,11,43.49235534667969,-439.1462152068682,0.15106388173304086,1,-105939.03763581603,6.406587199307978E-4,1.57542003E9,,,,0,,1,,1.57542003E9
Raw,19707463,150612000000,,,-1219930642388446988,0.0,4.740762159153934,,,0,32,0.0,16431,49192929102108,26,30.66162872314453,-42.89739396712278,0.571469401968582,1,-12932.960374357608,0.09765703479115641,1.57542003E9,,,,1,,1,,1.57542003E9
Raw,19707463,150612000000,,,-1219930642388446988,0.0,4.740762159153934,,,0,10,0.0,16401,49192933322510,10,39.27416229248047,45.40283368887816,0.1849326073041313,1,14306.170964420631,0.0013227580348029733,1.17645005E9,,,,0,,1,,1.17645005E9
Raw,19707463,150612000000,,,-1219930642388446988,0.0,4.740762159153934,,,0,25,0.0,16401,49192925870539,10,38.7214469909668,-302.07397096519026,0.20844727230039095,1,-119715.31113005905,0.0014096660306677222,1.17645005E9,,,,0,,1,,1.17645005E9
Raw,19707463,150612000000,,,-1219930642388446988,0.0,4.740762159153934,,,0,32,0.0,16401,49192929102144,8,38.59209060668945,-42.86909274728765,0.2148455545559207,1,-17082.276554569777,0.0014308169484138489,1.17645005E9,,,,0,,1,,1.17645005E9
NMEA,$GPGSA,A,3,10,12,14,20,21,24,25,31,32,,,,1.9,0.9,1.7*31
,1535895573963
NMEA,$GNGSA,A,3,10,12,14,20,21,24,25,31,32,,,,1.9,0.9,1.7*2F
,1535895573964
NMEA,$GNGSA,A,3,68,69,79,80,,,,,,,,,1.9,0.9,1.7*2C
,1535895573964
NMEA,$QZGSA,A,3,01,02,,,,,,,,,,,1.9,0.9,1.7*2A
,1535895573965
NMEA,$IMGSA,A,3,,,,,,,,,,,,,1.9,0.9,1.7*26
,1535895573965
NMEA,$BDGSA,A,3,202,203,206,213,,,,,,,,,1.9,0.9,1.7*21
,1535895573965
NMEA,$GAGSA,A,3,102,107,108,126,127,130,,,,,,,1.9,0.9,1.7*2B
,1535895573965
NMEA,$GPRMC,133935.00,A,3045.145884,N,10356.106817,E,000.1,038.5,020918,,,A*53
,1535895573965
Nav,99,769,1,5,3,24,0,49,-67,-82,-68,101,18,-29,25,-56
Nav,100,769,1,5,3,26,0,-79,94,55,116,-114,-84,-72,88,24
Nav,101,769,1,5,3,24,0,-76,-128,99,-44,-43,-90,-64,62,-80
Nav,106,769,1,5,3,24,0,-75,-119,-121,-28,75,110,-20,102,120
NMEA,$GPGGA,133936.00,3045.145854,N,10356.106848,E,1,32,0.4,526.8,M,-32.4,M,,*4C
,1535895574990
NMEA,$GPGSV,4,1,12,10,83,027,44,20,60,137,42,32,53,323,38,14,38,294,40*7C
,1535895574992
NMEA,$GPGSV,4,2,12,25,36,123,36,31,34,223,44,12,27,073,43,24,16,044,39*73
,1535895574992
NMEA,$GPGSV,4,3,12,21,15,185,37*42
,1535895574992
NMEA,$GPGSV,4,4,12,10,,,39,32,,,39,25,,,39,8*63
,1535895574992
NMEA,$GLGSV,1,1,04,79,70,074,39,69,50,358,43,68,43,080,39,80,32,192,34*6D
,1535895574992
NMEA,$QZGSV,2,1,04,01,58,119,38,02,57,078,37*67
,1535895574992
NMEA,$QZGSV,2,2,04,01,,,32,02,,,29,8*7C
,1535895574992
NMEA,$BDGSV,1,1,04,206,60,041,38,203,52,168,37,202,48,215,29,213,19,201,37*63
,1535895574992
NMEA,$GAGSV,4,1,12,107,63,003,39,130,59,100,39,127,37,178,40,108,36,084,37*6F
,1535895574992
NMEA,$GAGSV,4,2,12,102,24,043,41,126,21,249,36*66
,1535895574992
NMEA,$GAGSV,4,3,12,107,,,35,130,,,36,127,,,33,108,,,35,1*7D
,1535895574992
NMEA,$GAGSV,4,4,12,102,,,33,126,,,30,1*73
,1535895574992
NMEA,$GPGSA,A,3,10,12,14,20,21,24,25,31,32,,,,1.9,0.9,1.7*31
,1535895574992
NMEA,$GNGSA,A,3,10,12,14,20,21,24,25,31,32,,,,1.9,0.9,1.7*2F
,1535895574992
Raw,19708488,151612000000,,,-1219930642388446608,0.0,4.5044446731772885,,,0,10,0.0,16431,49193933322349,12,42.80413055419922,45.45322034054007,0.15229258091760733,1,10970.710321781207,6.934863631613553E-4,1.57542003E9,,,,0,,1,,1.57542003E9
Raw,19708488,151612000000,,,-1219930642388446608,0.0,4.5044446731772885,,,0,12,0.0,16431,49193924402181,11,43.271270751953125,114.79080420743412,0.15068807605276835,1,30542.63038005923,6.571749108843505E-4,1.57542003E9,,,,0,,1,,1.57542003E9
Raw,19708488,151612000000,,,-1219930642388446608,0.0,4.5044446731772885,,,0,14,0.0,16431,49193925459048,13,38.528785705566406,-154.15125290613867,0.21703701656995866,1,-45037.17061455574,0.0010762829333543777,1.57542003E9,,,,0,,1,,1.57542003E9
Raw,19708489,151612000000,,,-1219930642388446608,0.0,4.5044446731772885,,,0,15,0.0,51,14651042,45,23.794452667236328,589.1400730251262,0.8812766684728,1,52205.948657718625,0.10068118866820609,1.57542003E9,,,,0,,1,,1.57542003E9
Raw,19708489,151612000000,,,-1219930642388446608,0.0,4.5044446731772885,,,0,18,0.0,39,5920517334,37,26.043506622314453,-190.91652703537034,0.7811944668357378,4,-5699.395445347869,3.4028234663852886E38,1.57542003E9,,,,1,,1,,1.57542003E9
Raw,19708489,151612000000,,,-1219930642388446608,0.0,4.5044446731772885,,,0,20,0.0,16431,49193931723300,13,41.12089538574219,451.8400216440498,0.1520049602652227,1,128787.79087885625,8.417820790782571E-4,1.57542003E9,,,,0,,1,,1.57542003E9
Raw,19708489,151612000000,,,-1219930642388446608,0.0,4.5044446731772885,,,0,21,0.0,16431,49193920772396,15,36.78498458862305,692.7941619040798,0.2982082476823096,1,200722.06973254122,0.09646241405335045,1.57542003E9,,,,0,,1,,1.57542003E9
Raw,19708489,151612000000,,,-1219930642388446608,0.0,4.5044446731772885,,,0,24,0.0,16,151020361571,1000000000,38.12165069580078,766.7434813058389,2.99792458E8,2,81852.05039133529,3.4028234663852886E38,1.57542003E9,,,,0,,1,,1.57542003E9
Raw,19708489,151612000000,,,-1219930642388446608,0.0,4.5044446731772885,,,0,25,0.0,16431,49193925871533,19,34.534210205078125,-302.00212514684017,0.3967426930759892,1,-89344.39643682516,0.001704728347249329,1.57542003E9,,,,0,,1,,1.57542003E9
Raw,19708489,151612000000,,,-1219930642388446608,0.0,4.5044446731772885,,,0,31,0.0,16431,49193926493004,11,43.763763427734375,-439.10671363975825,0.15106414800223245,1,-106378.179296785,6.209497223608196E-4,1.57542003E9,,,,0,,1,,1.57542003E9
Raw,19708489,151612000000,,,-1219930642388446608,0.0,4.5044446731772885,,,0,32,0.0,16431,49193929102253,22,32.68763732910156,-42.87319968329865,0.48036210298671445,1,-12975.852475821463,0.09713479612310207,1.57542003E9,,,,0,,1,,1.57542003E9
Raw,19708490,151612000000,,,-1219930642388446608,0.0,4.5044446731772885,,,0,10,0.0,16401,49193933322359,10,38.83429718017578,45.452163784387864,0.20471286353024343,1,14351.575604705951,0.0013914696173742414,1.17645005E9,,,,0,,1,,1.17645005E9
Raw,19708490,151612000000,,,-1219930642388446608,0.0,4.5044446731772885,,,0,25,0.0,16401,49193925871546,10,38.812400817871094,-302.0012390029706,0.2043573109503558,1,-120017.39069570333,0.0013949817512184381,1.17645005E9,,,,0,,1,,1.17645005E9
Raw,19708490,151612000000,,,-1219930642388446608,0.0,4.5044446731772885,,,0,32,0.0,16401,49193929102287,9,39.22685241699219,-42.881809763877726,0.1863010478888062,1,-17125.14660344005,0.0013299827696755528,1.17645005E9,,,,0,,1,,1.17645005E9
NMEA,$GNGSA,A,3,68,69,79,80,,,,,,,,,1.9,0.9,1.7*2C
,1535895574992
NMEA,$QZGSA,A,3,01,02,,,,,,,,,,,1.9,0.9,1.7*2A
,1535895574992
NMEA,$IMGSA,A,3,,,,,,,,,,,,,1.9,0.9,1.7*26
,1535895574992
NMEA,$BDGSA,A,3,202,203,206,213,,,,,,,,,1.9,0.9,1.7*21
,1535895574992
NMEA,$GAGSA,A,3,102,107,108,126,127,130,,,,,,,1.9,0.9,1.7*2B
,1535895574992
NMEA,$GPRMC,133936.00,A,3045.145854,N,10356.106848,E,000.1,043.4,020918,,,A*5A
,1535895574993
Fix,gps,30.752431,103.935114,494.397873,0.027512,4.000000,1535895576000
Nav,10,257,1,15,4,34,-61,-31,45,4,0,-20,55,29,-86,-86,-90,42,-86,-85,59,31,65,-103,-15,51,-107,-18,-14,30,21,32,22,43,-96,-26,48,50,90,-26,77,41,3,-80,7
Nav,12,257,1,15,4,34,-61,-31,45,4,0,-20,55,29,-86,-86,-90,42,-86,-88,-48,1,-110,44,-123,63,-87,115,-72,40,-51,104,0,22,-125,22,-77,7,-117,-53,-100,6,-32,64,-120
Nav,14,257,1,15,4,34,-61,-31,45,4,0,-20,55,29,-86,-86,-90,42,-86,-88,-48,1,-110,44,-123,63,-87,115,-72,40,-51,32,23,43,-96,-26,25,50,90,-26,100,41,3,-80,-117
Nav,20,257,1,15,4,34,-61,-31,45,4,0,-20,55,29,-86,-86,-90,42,-86,-88,-48,1,-110,44,-123,63,-87,115,-72,40,-49,127,-101,50,61,-90,33,28,114,-26,112,47,-55,-73,55
Nav,21,257,1,15,4,34,-61,-31,45,4,0,-20,100,29,-86,-86,-90,42,-86,-88,-48,1,-110,44,-123,63,-87,115,-72,40,-51,32,23,43,-96,-26,25,50,90,-26,100,41,3,-80,-117
Nav,25,257,1,15,4,34,-61,-31,45,4,0,-20,55,29,-86,-86,-90,42,-86,-85,59,31,65,-103,-15,51,-107,-18,-14,30,23,127,-102,50,61,-90,8,28,114,-26,89,47,-55,-73,-69
Nav,31,257,1,15,4,34,-61,-31,45,4,0,-20,55,29,-86,-86,-90,42,-86,-88,-48,1,-110,44,-123,63,-87,115,-72,40,-51,32,23,43,-96,-26,25,50,90,-26,100,41,3,-80,-117
Nav,32,257,1,15,4,34,-61,-31,45,4,0,-20,55,29,-86,-86,-90,42,-86,-85,59,31,65,-103,-15,51,-107,-18,-14,30,21,104,1,22,-125,22,-102,7,-117,-53,-75,6,-32,64,4
NMEA,$GPGGA,133937.00,3045.145903,N,10356.106867,E,1,32,0.4,526.7,M,-32.4,M,,*4C
,1535895575952
NMEA,$GPGSV,4,1,12,10,83,027,44,20,60,137,42,32,53,323,38,14,38,294,40*7C
,1535895575957
NMEA,$GPGSV,4,2,12,25,36,123,36,31,34,223,45,12,27,073,43,24,16,044,38*73
,1535895575957
NMEA,$GPGSV,4,3,12,21,15,185,37*42
,1535895575958
NMEA,$GPGSV,4,4,12,10,,,39,32,,,39,25,,,39,8*63
,1535895575958
NMEA,$GLGSV,1,1,04,79,70,074,39,69,50,358,42,68,43,080,40,80,32,192,34*62
,1535895575958
NMEA,$QZGSV,2,1,04,01,58,119,38,02,57,078,37*67
,1535895575958
NMEA,$QZGSV,2,2,04,01,,,32,02,,,29,8*7C
,1535895575958
NMEA,$BDGSV,1,1,04,206,60,041,38,203,52,168,37,202,48,215,29,213,19,201,37*63
,1535895575959
NMEA,$GAGSV,4,1,12,107,63,003,39,130,59,100,39,127,37,178,40,108,36,084,38*60
,1535895575959
NMEA,$GAGSV,4,2,12,102,24,043,41,126,21,249,36*66
,1535895575959
NMEA,$GAGSV,4,3,12,107,,,35,130,,,36,127,,,33,108,,,35,1*7D
,1535895575959
NMEA,$GAGSV,4,4,12,102,,,33,126,,,30,1*73
,1535895575959
NMEA,$GPGSA,A,3,10,12,14,20,21,24,25,31,32,,,,1.8,0.9,1.6*31
,1535895575959
NMEA,$GNGSA,A,3,10,12,14,20,21,24,25,31,32,,,,1.8,0.9,1.6*2F
,1535895575959
NMEA,$GNGSA,A,3,68,69,79,80,,,,,,,,,1.8,0.9,1.6*2C
,1535895575959
NMEA,$QZGSA,A,3,01,02,,,,,,,,,,,1.8,0.9,1.6*2A
,1535895575959
Raw,19709444,152612000000,,,-1219930642388446230,0.0,4.5730931371358015,,,0,10,0.0,16431,49194933322198,11,42.92210388183594,45.45084734950467,0.15229256427578286,1,11016.1466417164,6.841308204457164E-4,1.57542003E9,,,,0,,1,,1.57542003E9
Raw,19709444,152612000000,,,-1219930642388446230,0.0,4.5730931371358015,,,0,12,0.0,16431,49194924401812,11,42.94942855834961,114.74241563978586,0.15068800948547045,1,30657.36890327496,6.819822010584176E-4,1.57542003E9,,,,0,,1,,1.57542003E9
Raw,19709444,152612000000,,,-1219930642388446230,0.0,4.5730931371358015,,,0,14,0.0,16431,49194925459570,14,38.147010803222656,-154.29506383143666,0.2342050888175049,1,-45191.406959512475,0.0011246443027630448,1.57542003E9,,,,0,,1,,1.57542003E9
Raw,19709445,152612000000,,,-1219930642388446230,0.0,4.5730931371358015,,,0,15,0.0,51,14649130,69,18.46266746520996,589.6743496135778,1.1210406924866625,4,52795.44517611459,3.4028234663852886E38,1.57542003E9,,,,0,,1,,1.57542003E9
Raw,19709445,152612000000,,,-1219930642388446230,0.0,4.5730931371358015,,,0,18,0.0,39,920517985,38,26.010459899902344,-190.9039165264569,0.7826806483285664,4,-5890.267816268738,3.4028234663852886E38,1.57542003E9,,,,0,,1,,1.57542003E9
Raw,19709445,152612000000,,,-1219930642388446230,0.0,4.5730931371358015,,,0,20,0.0,16431,49194931721788,13,41.032981872558594,451.82921750533205,0.15200469399603111,1,129239.63614147216,8.503453573212028E-4,1.57542003E9,,,,0,,1,,1.57542003E9
Raw,19709445,152612000000,,,-1219930642388446230,0.0,4.5730931371358015,,,0,21,0.0,16431,49194920770049,15,37.080589294433594,692.7351310893823,0.2849148248597535,1,201414.7484627562,0.0012715583434328437,1.57542003E9,,,,0,,1,,1.57542003E9
Raw,19709446,152612000000,,,-1219930642388446230,0.0,4.5730931371358015,,,0,24,0.0,16,152020359009,1000000000,36.987464904785156,766.7434813058389,2.99792458E8,2,81852.06837945188,3.4028234663852886E38,1.57542003E9,,,,0,,1,,1.57542003E9
Raw,19709446,152612000000,,,-1219930642388446230,0.0,4.5730931371358015,,,0,25,0.0,16431,49194925872538,19,34.557579040527344,-302.026562268167,0.3956920614132948,1,-89646.4359809853,0.0017001483356580138,1.57542003E9,,,,0,,1,,1.57542003E9
Raw,19709446,152612000000,,,-1219930642388446230,0.0,4.5730931371358015,,,0,31,0.0,16431,49194926494450,10,44.690711975097656,-439.1532702753684,0.15106441427142403,1,-106817.30761000703,5.580958095379174E-4,1.57542003E9,,,,0,,1,,1.57542003E9
Raw,19709446,152612000000,,,-1219930642388446230,0.0,4.5730931371358015,,,0,32,0.0,16431,49194929102399,18,34.738433837890625,-43.01069257321873,0.38814016788522543,1,-13018.86656298175,0.001665114308707416,1.57542003E9,,,,0,,1,,1.57542003E9
Raw,19709446,152612000000,,,-1219930642388446230,0.0,4.5730931371358015,,,0,10,0.0,16401,49194933322209,10,38.671138763427734,45.460897413871834,0.21204984453705522,1,14397.015079353896,0.001417854567989707,1.17645005E9,,,,0,,1,,1.17645005E9
Raw,19709446,152612000000,,,-1219930642388446230,0.0,4.5730931371358015,,,0,25,0.0,16401,49194925872553,9,38.47565460205078,-302.0627237545377,0.21950055577232253,1,-120319.41965671729,0.001450126525014639,1.17645005E9,,,,0,,1,,1.17645005E9
Raw,19709446,152612000000,,,-1219930642388446230,0.0,4.5730931371358015,,,0,32,0.0,16401,49194929102428,9,39.4484977722168,-42.933900538365776,0.17633385980752314,1,-17168.062554052005,0.001296473783440888,1.17645005E9,,,,0,,1,,1.17645005E9
NMEA,$IMGSA,A,3,,,,,,,,,,,,,1.8,0.9,1.6*26
,1535895575959
NMEA,$BDGSA,A,3,202,203,206,213,,,,,,,,,1.8,0.9,1.6*21
,1535895575959
NMEA,$GAGSA,A,3,102,107,108,126,127,130,,,,,,,1.8,0.9,1.6*2B
,1535895575959
NMEA,$GPRMC,133937.00,A,3045.145903,N,10356.106867,E,000.0,051.3,020918,,,A*50
,1535895575959
Fix,gps,30.752432,103.935114,494.352154,0.023292,4.000000,1535895577000
Nav,99,769,1,5,4,36,52,-46,98,0,0,3,47,66,12,-80
Nav,100,769,1,5,4,32,8,56,36,2,120,-123,47,65,-23,8
Nav,101,769,1,5,4,36,5,19,-93,0,0,17,47,64,-86,-56
Nav,106,769,1,5,4,36,-112,10,-13,2,120,-109,47,64,-116,48
NMEA,$GPGGA,133938.00,3045.145943,N,10356.106879,E,1,31,0.4,526.7,M,-32.4,M,,*4B
,1535895576983
NMEA,$GPGSV,4,1,12,10,83,027,43,20,60,137,42,32,53,323,38,14,38,294,40*7B
,1535895576987
NMEA,$GPGSV,4,2,12,25,36,123,36,31,34,223,45,12,27,073,44,24,16,044,38*74
,1535895576987
NMEA,$GPGSV,4,3,12,21,15,185,38*4D
,1535895576987
NMEA,$GPGSV,4,4,12,10,,,39,32,,,39,25,,,39,8*63
,1535895576987
NMEA,$GLGSV,1,1,04,79,70,074,39,69,50,358,42,68,43,080,40,80,32,192,35*63
,1535895576987
NMEA,$QZGSV,2,1,04,01,58,119,38,02,57,078,37*67
,1535895576987
NMEA,$QZGSV,2,2,04,01,,,32,02,,,29,8*7C
,1535895576987
NMEA,$BDGSV,1,1,04,206,60,041,38,203,52,168,37,202,48,215,30,213,19,201,38*64
,1535895576987
NMEA,$GAGSV,4,1,12,107,63,003,39,130,59,100,39,127,37,178,40,108,36,084,38*60
,1535895576987
NMEA,$GAGSV,4,2,12,102,24,043,41,126,21,249,36*66
,1535895576987
NMEA,$GAGSV,4,3,12,107,,,35,130,,,36,127,,,33,108,,,35,1*7D
,1535895576987
NMEA,$GAGSV,4,4,12,102,,,33,126,,,30,1*73
,1535895576987
NMEA,$GPGSA,A,3,10,12,14,20,21,24,25,31,32,,,,1.9,0.9,1.6*30
,1535895576987
NMEA,$GNGSA,A,3,10,12,14,20,21,24,25,31,32,,,,1.9,0.9,1.6*2E
,1535895576988
NMEA,$GNGSA,A,3,68,69,79,80,,,,,,,,,1.9,0.9,1.6*2D
,1535895576988
NMEA,$QZGSA,A,3,01,02,,,,,,,,,,,1.9,0.9,1.6*2B
,1535895576988
NMEA,$IMGSA,A,3,,,,,,,,,,,,,1.9,0.9,1.6*27
,1535895576988
Raw,19710484,153612000000,,,-1219930642388445851,0.0,4.561378680762901,,,0,10,0.0,16431,49195933322054,11,42.91642761230469,45.58114884109844,0.1522925309921339,1,11061.688238364683,6.845783209428191E-4,1.57542003E9,,,,0,,1,,1.57542003E9
Raw,19710484,153612000000,,,-1219930642388445851,0.0,4.561378680762901,,,0,12,0.0,16431,49195924401416,11,43.67893981933594,114.88996711468724,0.15068792627634808,1,30772.228874142893,6.270430749282241E-4,1.57542003E9,,,,0,,1,,1.57542003E9
Raw,19710484,153612000000,,,-1219930642388445851,0.0,4.561378680762901,,,0,14,0.0,16431,49195925460081,15,37.54323196411133,-154.21779890249945,0.26135639186512716,1,-45345.62857011496,0.001205602427944541,1.57542003E9,,,,0,,1,,1.57542003E9
Raw,19710484,153612000000,,,-1219930642388445851,0.0,4.561378680762901,,,0,15,0.0,51,14647187,87,15.726996421813965,589.3512479257415,1.2440605204981718,4,53385.19758146059,3.4028234663852886E38,1.57542003E9,,,,0,,1,,1.57542003E9
Raw,19710485,153612000000,,,-1219930642388445851,0.0,4.561378680762901,,,0,18,0.0,39,1920518729,29,29.0576229095459,-190.73941755004955,0.6456533300899694,4,-6081.046239194774,3.4028234663852886E38,1.57542003E9,,,,1,,1,,1.57542003E9
Raw,19710485,153612000000,,,-1219930642388445851,0.0,4.561378680762901,,,0,20,0.0,16431,49195931720281,14,40.811309814453125,451.95842409801,0.15200441108501506,1,129691.5672069312,8.723263163119555E-4,1.57542003E9,,,,0,,1,,1.57542003E9
Raw,19710485,153612000000,,,-1219930642388445851,0.0,4.561378680762901,,,0,21,0.0,16431,49195920767744,14,37.90057373046875,692.792934935645,0.24804061907230246,1,202107.52819897182,0.0011570097412914038,1.57542003E9,,,,0,,1,,1.57542003E9
Raw,19710485,153612000000,,,-1219930642388445851,0.0,4.561378680762901,,,0,24,0.0,16,153020356450,1000000000,37.16794967651367,766.7434813058389,2.99792458E8,2,81852.03839925757,3.4028234663852886E38,1.57542003E9,,,,0,,1,,1.57542003E9
Raw,19710485,153612000000,,,-1219930642388445851,0.0,4.561378680762901,,,0,25,0.0,16431,49195925873544,16,36.07575225830078,-301.93859544788165,0.32742167248415766,1,-89948.39432832564,0.0014275066787377,1.57542003E9,,,,0,,1,,1.57542003E9
Raw,19710486,153612000000,,,-1219930642388445851,0.0,4.561378680762901,,,0,31,0.0,16431,49195926495913,10,44.370765686035156,-439.01523632645103,0.15106468054061561,1,-107256.35229557626,5.790368304587901E-4,1.57542003E9,,,,0,,1,,1.57542003E9
Raw,19710486,153612000000,,,-1219930642388445851,0.0,4.561378680762901,,,0,32,0.0,16431,49195929102561,15,36.91594314575195,-42.91264160610967,0.2902200388001801,1,-13061.752044063054,0.001295891241170466,1.57542003E9,,,,0,,1,,1.57542003E9
Raw,19710486,153612000000,,,-1219930642388445851,0.0,4.561378680762901,,,0,10,0.0,16401,49195933322055,8,38.278663635253906,45.58082505776147,0.22969899864649668,1,14442.550194148818,0.0014833903405815363,1.17645005E9,,,,0,,1,,1.17645005E9
Raw,19710486,153612000000,,,-1219930642388445851,0.0,4.561378680762901,,,0,25,0.0,16401,49195925873558,9,38.22801971435547,-301.9429920847731,0.2306365657537145,1,-120621.38460105946,0.0014920644462108612,1.17645005E9,,,,0,,1,,1.17645005E9
Raw,19710486,153612000000,,,-1219930642388445851,0.0,4.561378680762901,,,0,32,0.0,16401,49195929102573,11,39.417144775390625,-42.88516262553816,0.1777438383860852,1,-17210.952746381776,0.0013011618284508586,1.17645005E9,,,,0,,1,,1.17645005E9
NMEA,$BDGSA,A,3,202,203,206,213,,,,,,,,,1.9,0.9,1.6*20
,1535895576988
NMEA,$GAGSA,A,3,102,107,108,126,127,130,,,,,,,1.9,0.9,1.6*2A
,1535895576988
NMEA,$GPRMC,133938.00,A,3045.145943,N,10356.106879,E,000.0,057.0,020918,,,A*51
,1535895576988
Fix,gps,30.752432,103.935115,494.380923,0.016422,4.000000,1535895578000
NMEA,$GPGGA,133939.00,3045.145967,N,10356.106935,E,1,29,0.4,526.8,M,-32.4,M,,*43
,1535895577950
Raw,19711445,154612000000,,,-1219930642388445473,0.0,4.480643172324852,,,0,10,0.0,16431,49196933321901,11,43.14324951171875,45.64003906566279,0.15229251435030944,1,11107.298094817197,6.669327267445624E-4,1.57542003E9,,,,0,,1,,1.57542003E9
Raw,19711446,154612000000,,,-1219930642388445473,0.0,4.480643172324852,,,0,12,0.0,16431,49196924401038,11,43.055023193359375,115.00044539750593,0.1506878597090502,1,30887.179357560206,6.737413932569325E-4,1.57542003E9,,,,0,,1,,1.57542003E9
Raw,19711446,154612000000,,,-1219930642388445473,0.0,4.480643172324852,,,0,14,0.0,16431,49196925460596,16,36.31283187866211,-154.24451954841334,0.3166861979342066,1,-45499.84749516957,0.001389069831930101,1.57542003E9,,,,0,,1,,1.57542003E9
Raw,19711446,154612000000,,,-1219930642388445473,0.0,4.480643172324852,,,0,15,0.0,51,14645225,58,20.64602279663086,588.5658517976299,1.0228570567528954,4,53975.46844508988,3.4028234663852886E38,1.57542003E9,,,,1,,1,,1.57542003E9
Raw,19711446,154612000000,,,-1219930642388445473,0.0,4.480643172324852,,,0,18,0.0,39,2920519358,31,28.435226440429688,-190.7137875427444,0.6736419498941779,4,-6271.754604617532,3.4028234663852886E38,1.57542003E9,,,,1,,1,,1.57542003E9
Raw,19711446,154612000000,,,-1219930642388445473,0.0,4.480643172324852,,,0,20,0.0,16431,49196931718778,14,40.781402587890625,452.030065421621,0.15200414481582347,1,130143.57059416462,8.753350703045726E-4,1.57542003E9,,,,0,,1,,1.57542003E9
Raw,19711446,154612000000,,,-1219930642388445473,0.0,4.480643172324852,,,0,21,0.0,16431,49196920765415,15,36.79405212402344,692.7247700225994,0.29779925820403585,1,202800.28217095783,0.0013142050011083484,1.57542003E9,,,,0,,1,,1.57542003E9
Raw,19711447,154612000000,,,-1219930642388445473,0.0,4.480643172324852,,,0,24,0.0,16,154020353892,1000000000,35.15074157714844,766.7434813058389,2.99792458E8,2,81852.05638737416,3.4028234663852886E38,1.57542003E9,,,,0,,1,,1.57542003E9
Raw,19711447,154612000000,,,-1219930642388445473,0.0,4.480643172324852,,,0,25,0.0,16431,49196925874568,18,35.10081481933594,-301.8078892271167,0.37126366040246417,1,-90250.29096181755,0.0015970738604664803,1.57542003E9,,,,0,,1,,1.57542003E9
Raw,19711447,154612000000,,,-1219930642388445473,0.0,4.480643172324852,,,0,31,0.0,16431,49196926497398,11,43.28646469116211,-439.0318004003211,0.1510649468098072,1,-107695.35294819615,6.560261244885623E-4,1.57542003E9,,,,0,,1,,1.57542003E9
Raw,19711447,154612000000,,,-1219930642388445473,0.0,4.480643172324852,,,0,32,0.0,16431,49196929102692,15,37.32620620727539,-42.938603917365924,0.27177094547192104,1,-13104.647359674023,0.0012361051049083471,1.57542003E9,,,,0,,1,,1.57542003E9
Raw,19711448,154612000000,,,-1219930642388445473,0.0,4.480643172324852,,,0,10,0.0,16401,49196933321904,11,38.35090255737305,45.65947884680199,0.2264505145091663,1,14488.167693762138,0.0014711044495925307,1.17645005E9,,,,0,,1,,1.17645005E9
Raw,19711448,154612000000,,,-1219930642388445473,0.0,4.480643172324852,,,0,25,0.0,16401,49196925874566,10,38.165855407714844,-301.85073087496585,0.2334323256980534,1,-120923.27295789716,0.0015027814079076052,1.17645005E9,,,,0,,1,,1.17645005E9
Raw,19711448,154612000000,,,-1219930642388445473,0.0,4.480643172324852,,,0,32,0.0,16401,49196929102715,8,39.222412109375,-42.91497199407442,0.18650081634979243,1,-17253.84311338539,0.0013306626351550221,1.17645005E9,,,,0,,1,,1.17645005E9
NMEA,$GPGSV,4,1,12,10,83,027,43,20,60,137,42,32,53,323,38,14,38,294,39*75
,1535895577951
NMEA,$GPGSV,4,2,12,25,36,123,36,31,34,223,45,12,27,073,44,24,16,044,38*74
,1535895577951
NMEA,$GPGSV,4,3,12,21,15,185,38*4D
,1535895577951
NMEA,$GPGSV,4,4,12,10,,,39,32,,,39,25,,,39,8*63
,1535895577951
NMEA,$GLGSV,1,1,04,79,70,074,39,69,50,358,42,68,43,080,40,80,32,192,35*63
,1535895577951
NMEA,$QZGSV,2,1,04,01,58,119,38,02,57,078,37*67
,1535895577951
NMEA,$QZGSV,2,2,04,01,,,32,02,,,29,8*7C
,1535895577951
NMEA,$BDGSV,1,1,04,206,60,041,38,203,52,168,37,202,48,215,30,213,19,201,38*64
,1535895577951
NMEA,$GAGSV,4,1,12,107,63,003,39,130,59,100,39,127,37,178,40,108,36,084,38*60
,1535895577951
NMEA,$GAGSV,4,2,12,102,24,043,41,126,21,249,36*66
,1535895577951
NMEA,$GAGSV,4,3,12,107,,,35,130,,,36,127,,,33,108,,,35,1*7D
,1535895577951
NMEA,$GAGSV,4,4,12,102,,,33,126,,,30,1*73
,1535895577952
NMEA,$GPGSA,A,3,10,12,14,20,21,24,25,31,32,,,,2.1,0.9,1.9*34
,1535895577952
NMEA,$GNGSA,A,3,10,12,14,20,21,24,25,31,32,,,,2.1,0.9,1.9*2A
,1535895577952
NMEA,$GNGSA,A,3,68,69,79,80,,,,,,,,,2.1,0.9,1.9*29
,1535895577952
NMEA,$QZGSA,A,3,01,02,,,,,,,,,,,2.1,0.9,1.9*2F
,1535895577952
NMEA,$IMGSA,A,3,,,,,,,,,,,,,2.1,0.9,1.9*23
,1535895577952
NMEA,$BDGSA,A,3,202,203,206,213,,,,,,,,,2.1,0.9,1.9*24
,1535895577952
NMEA,$GAGSA,A,3,102,107,108,126,127,130,,,,,,,2.1,0.9,1.9*2E
,1535895577952
NMEA,$GPRMC,133939.00,A,3045.145967,N,10356.106935,E,000.0,057.2,020918,,,A*5D
,1535895577952
Fix,gps,30.752433,103.935116,494.409605,0.012937,4.000000,1535895579000
Nav,99,769,1,5,5,43,-49,0,0,0,3,24,0,1,68,56
Nav,100,769,1,5,5,43,-49,0,0,0,3,24,0,1,68,56
Nav,101,769,1,5,5,43,-49,0,0,0,4,24,0,1,85,40
Nav,106,769,1,5,5,43,-49,0,0,0,3,24,0,1,116,32
NMEA,$GPGGA,133940.00,3045.145972,N,10356.106936,E,1,31,0.4,526.8,M,-32.4,M,,*43
,1535895578962
NMEA,$GPGSV,4,1,12,10,83,027,43,20,60,137,42,32,53,323,38,14,38,294,39*75
,1535895578966
NMEA,$GPGSV,4,2,12,25,36,123,36,31,34,223,44,12,27,073,44,24,16,044,38*75
,1535895578966
NMEA,$GPGSV,4,3,12,21,15,185,38*4D
,1535895578966
NMEA,$GPGSV,4,4,12,10,,,39,32,,,39,25,,,39,8*63
,1535895578966
NMEA,$GLGSV,1,1,04,79,70,074,39,69,50,358,42,68,43,080,40,80,32,192,35*63
,1535895578966
NMEA,$QZGSV,2,1,04,01,58,119,38,02,57,078,37*67
,1535895578966
NMEA,$QZGSV,2,2,04,01,,,32,02,,,29,8*7C
,1535895578966
NMEA,$BDGSV,1,1,04,206,60,041,38,203,52,168,37,202,48,215,30,213,19,201,38*64
,1535895578966
NMEA,$GAGSV,4,1,12,107,63,003,39,130,59,100,39,127,37,178,40,108,36,084,38*60
,1535895578966
NMEA,$GAGSV,4,2,12,102,24,043,41,126,21,249,36*66
,1535895578966
NMEA,$GAGSV,4,3,12,107,,,35,130,,,36,127,,,33,108,,,35,1*7D
,1535895578966
NMEA,$GAGSV,4,4,12,102,,,33,126,,,30,1*73
,1535895578966
NMEA,$GPGSA,A,3,10,12,14,20,21,24,25,31,32,,,,2.1,1.0,1.9*3C
,1535895578966
NMEA,$GNGSA,A,3,10,12,14,20,21,24,25,31,32,,,,2.1,1.0,1.9*22
,1535895578966
NMEA,$GNGSA,A,3,68,69,79,80,,,,,,,,,2.1,1.0,1.9*21
,1535895578966
NMEA,$QZGSA,A,3,01,02,,,,,,,,,,,2.1,1.0,1.9*27
,1535895578966
NMEA,$IMGSA,A,3,,,,,,,,,,,,,2.1,1.0,1.9*2B
,1535895578966
NMEA,$BDGSA,A,3,202,203,206,213,,,,,,,,,2.1,1.0,1.9*2C
,1535895578966
NMEA,$GAGSA,A,3,102,107,108,126,127,130,,,,,,,2.1,1.0,1.9*26
,1535895578966
NMEA,$GPRMC,133940.00,A,3045.145972,N,10356.106936,E,000.0,054.5,020918,,,A*50
,1535895578966
Raw,19712463,155612000000,,,-1219930642388445095,0.0,4.483323659439914,,,0,10,0.0,16431,49197933321745,11,43.015594482421875,45.84969303665579,0.1522924810666605,1,11153.057984088118,6.768068415112793E-4,1.57542003E9,,,,0,,1,,1.57542003E9
Raw,19712463,155612000000,,,-1219930642388445095,0.0,4.483323659439914,,,0,12,0.0,16431,49197924400653,11,43.132667541503906,115.23290479221976,0.1506877931417523,1,31002.302478907524,6.677456549368799E-4,1.57542003E9,,,,0,,1,,1.57542003E9
Raw,19712463,155612000000,,,-1219930642388445095,0.0,4.483323659439914,,,0,14,0.0,16431,49197925461119,16,36.398460388183594,-154.10374196174587,0.3128356791547038,1,-45654.026717504035,0.0013754433020949364,1.57542003E9,,,,0,,1,,1.57542003E9
Raw,19712464,155612000000,,,-1219930642388445095,0.0,4.483323659439914,,,0,15,0.0,51,14643182,48,23.067813873291016,588.5783259767172,0.9139512932124054,4,54564.53824463805,3.4028234663852886E38,1.57542003E9,,,,1,,1,,1.57542003E9
Raw,19712464,155612000000,,,-1219930642388445095,0.0,4.483323659439914,,,0,18,0.0,39,3920519944,40,25.29812240600586,-190.5371722530432,0.8147140302875386,4,-6462.323842775184,3.4028234663852886E38,1.57542003E9,,,,0,,1,,1.57542003E9
Raw,19712464,155612000000,,,-1219930642388445095,0.0,4.483323659439914,,,0,20,0.0,16431,49197931717278,14,40.41767883300781,452.19993238493066,0.1520038785466319,1,130595.71400916086,9.127680095843971E-4,1.57542003E9,,,,0,,1,,1.57542003E9
Raw,19712464,155612000000,,,-1219930642388445095,0.0,4.483323659439914,,,0,21,0.0,16431,49197920763107,14,38.19566345214844,692.8218368587764,0.23476996226562685,1,203493.0819151039,0.0011183625319972634,1.57542003E9,,,,0,,1,,1.57542003E9
Raw,19712464,155612000000,,,-1219930642388445095,0.0,4.483323659439914,,,0,24,0.0,16,155020351334,1000000000,35.705810546875,766.7434813058389,2.99792458E8,2,81852.07437549077,3.4028234663852886E38,1.57542003E9,,,,0,,1,,1.57542003E9
Raw,19712465,155612000000,,,-1219930642388445095,0.0,4.483323659439914,,,0,25,0.0,16431,49197925875569,18,35.27227020263672,-301.75274381246277,0.36355370282554045,1,-90552.07715289175,0.001565857557579875,1.57542003E9,,,,0,,1,,1.57542003E9
Raw,19712465,155612000000,,,-1219930642388445095,0.0,4.483323659439914,,,0,31,0.0,16431,49197926498839,11,43.77573776245117,-438.8023913854661,0.15106521307899878,1,-108134.23776593426,6.200939533300698E-4,1.57542003E9,,,,0,,1,,1.57542003E9
Raw,19712465,155612000000,,,-1219930642388445095,0.0,4.483323659439914,,,0,32,0.0,16431,49197929102836,15,37.30158996582031,-42.75929185329235,0.27287800956140684,1,-13147.469758661355,0.0012396132806316018,1.57542003E9,,,,0,,1,,1.57542003E9
Raw,19712465,155612000000,,,-1219930642388445095,0.0,4.483323659439914,,,0,10,0.0,16401,49197933321749,8,38.3606071472168,45.816057912374845,0.22601406602051044,1,14533.9169360558,0.001469461596570909,1.17645005E9,,,,0,,1,,1.17645005E9
Raw,19712465,155612000000,,,-1219930642388445095,0.0,4.483323659439914,,,0,25,0.0,16401,49197925875567,8,37.89109802246094,-301.68290885904753,0.24578799835332243,1,-121225.04789299316,0.001551078399643302,1.17645005E9,,,,0,,1,,1.17645005E9
Raw,19712465,155612000000,,,-1219930642388445095,0.0,4.483323659439914,,,0,32,0.0,16401,49197929102857,9,39.47661590576172,-42.79524458461685,0.17506953047675777,1,-17296.67775194317,0.0012922834139317274,1.17645005E9,,,,0,,1,,1.17645005E9
Fix,gps,30.752433,103.935116,494.407125,0.009432,4.000000,1535895580000
NMEA,$GPGGA,133941.00,3045.145981,N,10356.106971,E,1,30,0.4,526.8,M,-32.4,M,,*4C
,1535895579959
Raw,19713457,156612000000,,,-1219930642388444717,0.0,4.503034643907149,,,0,10,0.0,16431,49198933321590,11,43.40921401977539,45.953414472468836,0.15229244778301154,1,11198.876990737435,6.468205247074366E-4,1.57542003E9,,,,0,,1,,1.57542003E9
Raw,19713457,156612000000,,,-1219930642388444717,0.0,4.503034643907149,,,0,12,0.0,16431,49198924400267,10,43.99773406982422,115.37999615395807,0.1506877265744544,1,31117.514891303872,6.04446220677346E-4,1.57542003E9,,,,0,,1,,1.57542003E9
Raw,19713457,156612000000,,,-1219930642388444717,0.0,4.503034643907149,,,0,14,0.0,16431,49198925461635,16,36.09681701660156,-154.07013665961438,0.3264003304325376,1,-45808.196327107304,0.0014240490272641182,1.57542003E9,,,,0,,1,,1.57542003E9
Raw,19713457,156612000000,,,-1219930642388444717,0.0,4.503034643907149,,,0,15,0.0,51,14641160,37,26.12899398803711,588.9442352299461,0.7762932498262427,4,55153.4377507242,3.4028234663852886E38,1.57542003E9,,,,1,,1,,1.57542003E9
Raw,19713457,156612000000,,,-1219930642388444717,0.0,4.503034643907149,,,0,18,0.0,39,4920520538,44,23.971345901489258,-190.35063896849385,0.8743778334207404,4,-6652.761402183692,3.4028234663852886E38,1.57542003E9,,,,1,,1,,1.57542003E9
Raw,19713458,156612000000,,,-1219930642388444717,0.0,4.503034643907149,,,0,20,0.0,16431,49198931715749,13,41.31005859375,452.3574614989791,0.15200359563561583,1,131047.92095579785,8.236478897742927E-4,1.57542003E9,,,,0,,1,,1.57542003E9
Raw,19713458,156612000000,,,-1219930642388444717,0.0,4.503034643907149,,,0,21,0.0,16431,49198920760797,13,38.76632308959961,692.8883658139089,0.2091076198955204,1,204185.86610106166,0.0010472481371834874,1.57542003E9,,,,0,,1,,1.57542003E9
Raw,19713458,156612000000,,,-1219930642388444717,0.0,4.503034643907149,,,0,24,0.0,16,156020348775,1000000000,33.5683708190918,766.7434813058389,2.99792458E8,2,81852.04439529649,3.4028234663852886E38,1.57542003E9,,,,0,,1,,1.57542003E9
Raw,19713458,156612000000,,,-1219930642388444717,0.0,4.503034643907149,,,0,25,0.0,16431,49198925876611,20,33.577632904052734,-301.5413303346518,0.43975977903876706,1,-90853.79672324049,0.0019031984265893698,1.57542003E9,,,,0,,1,,1.57542003E9
Raw,19713458,156612000000,,,-1219930642388444717,0.0,4.503034643907149,,,0,31,0.0,16431,49198926500329,11,42.93657684326172,-438.70624477561523,0.15106547934819037,1,-108573.06377255118,6.829919293522835E-4,1.57542003E9,,,,0,,1,,1.57542003E9
Raw,19713459,156612000000,,,-1219930642388444717,0.0,4.503034643907149,,,0,32,0.0,16431,49198929102995,15,37.11249923706055,-42.79311017077711,0.2813812329855341,1,-13190.295520129097,0.0012668955605477095,1.57542003E9,,,,0,,1,,1.57542003E9
Raw,19713459,156612000000,,,-1219930642388444717,0.0,4.503034643907149,,,0,10,0.0,16401,49198933321598,10,38.12225341796875,45.94493646140879,0.23673259919314693,1,14579.74174256339,0.0015103440964594483,1.17645005E9,,,,0,,1,,1.17645005E9
Raw,19713459,156612000000,,,-1219930642388444717,0.0,4.503034643907149,,,0,25,0.0,16401,49198925876578,11,37.94004821777344,-301.56174572610894,0.24358685079744058,1,-121526.7840157768,0.001542361336760223,1.17645005E9,,,,0,,1,,1.17645005E9
Raw,19713459,156612000000,,,-1219930642388444717,0.0,4.503034643907149,,,0,32,0.0,16401,49198929102999,10,39.5520133972168,-42.74936959813715,0.17167902500936605,1,-17339.495217028132,0.0012811144115403295,1.17645005E9,,,,0,,1,,1.17645005E9
NMEA,$GPGSV,4,1,12,10,83,027,43,20,60,137,42,32,53,323,38,14,38,294,39*75
,1535895579961
NMEA,$GPGSV,4,2,12,25,36,123,36,31,34,223,44,12,27,073,44,24,16,044,37*7A
,1535895579961
NMEA,$GPGSV,4,3,12,21,15,185,39*4C
,1535895579961
NMEA,$GPGSV,4,4,12,10,,,39,32,,,40,25,,,39,8*6D
,1535895579961
NMEA,$GLGSV,1,1,04,79,70,074,39,69,50,358,41,68,43,080,40,80,32,192,35*60
,1535895579961
NMEA,$QZGSV,2,1,04,01,58,119,38,02,57,078,37*67
,1535895579961
NMEA,$QZGSV,2,2,04,01,,,32,02,,,29,8*7C
,1535895579961
NMEA,$BDGSV,1,1,04,206,60,041,38,203,52,168,37,202,48,215,30,213,19,201,38*64
,1535895579961
NMEA,$GAGSV,4,1,12,107,63,003,39,130,59,100,40,127,37,178,40,108,36,084,38*6E
,1535895579961
NMEA,$GAGSV,4,2,12,102,24,043,41,126,21,249,36*66
,1535895579961
NMEA,$GAGSV,4,3,12,107,,,35,130,,,36,127,,,32,108,,,35,1*7C
,1535895579961
NMEA,$GAGSV,4,4,12,102,,,34,126,,,30,1*74
,1535895579961
NMEA,$GPGSA,A,3,10,12,14,20,21,24,25,31,32,,,,2.0,0.9,1.8*34
,1535895579961
NMEA,$GNGSA,A,3,10,12,14,20,21,24,25,31,32,,,,2.0,0.9,1.8*2A
,1535895579961
NMEA,$GNGSA,A,3,68,69,79,80,,,,,,,,,2.0,0.9,1.8*29
,1535895579961
NMEA,$QZGSA,A,3,01,02,,,,,,,,,,,2.0,0.9,1.8*2F
,1535895579961
NMEA,$IMGSA,A,3,,,,,,,,,,,,,2.0,0.9,1.8*23
,1535895579961
NMEA,$BDGSA,A,3,202,203,206,213,,,,,,,,,2.0,0.9,1.8*24
,1535895579961
NMEA,$GAGSA,A,3,102,107,108,126,127,130,,,,,,,2.0,0.9,1.8*2E
,1535895579961
NMEA,$GPRMC,133941.00,A,3045.145981,N,10356.106971,E,000.0,027.1,020918,,,A*5E
,1535895579961
Fix,gps,30.752433,103.935116,494.418560,0.011795,4.000000,1535895581000
Nav,99,769,1,5,6,53,-88,0,106,11,16,-35,-128,20,126,-120
Nav,100,769,1,5,6,53,-88,0,106,11,16,-35,-128,20,126,-120
Nav,101,769,1,5,6,53,-88,0,106,11,16,-35,-128,20,126,-120
Nav,106,769,1,5,6,53,-88,0,106,11,16,-35,-128,20,126,-120
NMEA,$GPGGA,133942.00,3045.145963,N,10356.107045,E,1,30,0.4,526.8,M,-32.4,M,,*4C
,1535895580955
Fix,gps,30.752433,103.935117,494.428814,0.015524,4.000000,1535895582000
Raw,19714439,157612000000,,,-1219930642388444341,0.0,4.615650890284687,,,0,10,0.0,16431,49199933321442,11,43.23443603515625,46.016586305633865,0.15229243114118707,1,11244.805126144844,6.599678308703005E-4,1.57542003E9,,,,0,,1,,1.57542003E9
Raw,19714440,157612000000,,,-1219930642388444341,0.0,4.615650890284687,,,0,12,0.0,16431,49199924399887,11,43.17073059082031,115.43794485066098,0.1506876600071565,1,31232.855331460934,6.648260750807822E-4,1.57542003E9,,,,0,,1,,1.57542003E9
Raw,19714440,157612000000,,,-1219930642388444341,0.0,4.615650890284687,,,0,14,0.0,16431,49199925462131,15,37.04907989501953,-154.0846046624083,0.2835782533689464,1,-45962.33920230222,0.0012761795660480857,1.57542003E9,,,,0,,1,,1.57542003E9
Raw,19714440,157612000000,,,-1219930642388444341,0.0,4.615650890284687,,,0,15,0.0,51,14639197,36,26.63918113708496,588.9013594996404,0.7533503646352617,4,55742.35439717142,3.4028234663852886E38,1.57542003E9,,,,0,,1,,1.57542003E9
Raw,19714440,157612000000,,,-1219930642388444341,0.0,4.615650890284687,,,0,18,0.0,39,5920521133,52,21.998451232910156,-189.94635286922028,0.9630967310377443,4,-6843.388100747244,3.4028234663852886E38,1.57542003E9,,,,1,,1,,1.57542003E9
Raw,19714440,157612000000,,,-1219930642388444341,0.0,4.615650890284687,,,0,20,0.0,16431,49199931714256,13,41.42152786254883,452.38595443263216,0.15200332936642424,1,131500.22222637915,8.131450740620494E-4,1.57542003E9,,,,0,,1,,1.57542003E9
Raw,19714441,157612000000,,,-1219930642388444341,0.0,4.615650890284687,,,0,21,0.0,16431,49199920758478,14,38.24153518676758,692.7492412263828,0.23270630946354942,1,204878.62642001116,0.0011124718002974987,1.57542003E9,,,,0,,1,,1.57542003E9
Raw,19714441,157612000000,,,-1219930642388444341,0.0,4.615650890284687,,,0,24,0.0,16,157020346217,1000000000,34.060585021972656,766.7434813058389,2.99792458E8,2,81852.06238341304,3.4028234663852886E38,1.57542003E9,,,,0,,1,,1.57542003E9
Raw,19714441,157612000000,,,-1219930642388444341,0.0,4.615650890284687,,,0,25,0.0,16431,49199925877602,19,34.60186004638672,-301.5773554911964,0.39370166592255207,1,-91155.4444084663,0.0016915028681978583,1.57542003E9,,,,0,,1,,1.57542003E9
Raw,19714441,157612000000,,,-1219930642388444341,0.0,4.615650890284687,,,0,31,0.0,16431,49199926501793,12,42.42740249633789,-438.6938046789844,0.15106572897555748,1,-109011.83849320732,7.242264691740274E-4,1.57542003E9,,,,0,,1,,1.57542003E9
Raw,19714441,157612000000,,,-1219930642388444341,0.0,4.615650890284687,,,0,32,0.0,16431,49199929103128,14,38.138919830322266,-42.695945347537645,0.2352243007155923,1,-13233.084995289872,0.0011256925063207746,1.57542003E9,,,,0,,1,,1.57542003E9
Raw,19714441,157612000000,,,-1219930642388444341,0.0,4.615650890284687,,,0,10,0.0,16401,49199933321448,12,37.60847854614258,46.00883680708199,0.2598363276176694,1,14625.66438852148,0.0016023769276216626,1.17645005E9,,,,0,,1,,1.17645005E9
Raw,19714441,157612000000,,,-1219930642388444341,0.0,4.615650890284687,,,0,25,0.0,16401,49199925877586,11,37.57717514038086,-301.5602120155654,0.2599050084272737,1,-121828.4078844851,0.0016081619542092085,1.17645005E9,,,,0,,1,,1.17645005E9
Raw,19714441,157612000000,,,-1219930642388444341,0.0,4.615650890284687,,,0,32,0.0,16401,49199929103142,9,39.492733001708984,-42.70367780486126,0.17434481230456278,1,-17382.281855233723,0.0012898878194391727,1.17645005E9,,,,0,,1,,1.17645005E9
NMEA,$GPGSV,4,1,12,10,83,027,43,20,60,137,42,32,53,323,38,14,38,294,39*75
,1535895580960
NMEA,$GPGSV,4,2,12,25,36,123,36,31,34,223,44,12,27,073,44,24,16,044,37*7A
,1535895580960
NMEA,$GPGSV,4,3,12,21,15,185,39*4C
,1535895580960
NMEA,$GPGSV,4,4,12,10,,,39,32,,,40,25,,,38,8*6C
,1535895580961
NMEA,$GLGSV,1,1,04,79,70,074,39,69,50,358,41,68,43,080,40,80,32,192,35*60
,1535895580961
NMEA,$QZGSV,2,1,04,01,58,119,37,02,57,078,37*68
,1535895580961
NMEA,$QZGSV,2,2,04,01,,,32,02,,,29,8*7C
,1535895580961
NMEA,$BDGSV,1,1,04,206,60,041,38,203,52,168,37,202,48,215,30,213,19,201,38*64
,1535895580961
NMEA,$GAGSV,4,1,12,107,63,003,39,130,59,100,40,127,37,178,40,108,36,084,38*6E
,1535895580961
NMEA,$GAGSV,4,2,12,102,24,043,41,126,21,249,36*66
,1535895580962
NMEA,$GAGSV,4,3,12,107,,,35,130,,,36,127,,,32,108,,,35,1*7C
,1535895580962
NMEA,$GAGSV,4,4,12,102,,,34,126,,,30,1*74
,1535895580962
NMEA,$GPGSA,A,3,10,12,14,20,21,24,25,31,32,,,,2.1,0.9,1.9*34
,1535895580962
NMEA,$GNGSA,A,3,10,12,14,20,21,24,25,31,32,,,,2.1,0.9,1.9*2A
,1535895580962
NMEA,$GNGSA,A,3,68,69,79,80,,,,,,,,,2.1,0.9,1.9*29
,1535895580962
NMEA,$QZGSA,A,3,01,02,,,,,,,,,,,2.1,0.9,1.9*2F
,1535895580963
NMEA,$IMGSA,A,3,,,,,,,,,,,,,2.1,0.9,1.9*23
,1535895580963
NMEA,$BDGSA,A,3,202,203,206,213,,,,,,,,,2.1,0.9,1.9*24
,1535895580963
NMEA,$GAGSA,A,3,102,107,108,126,127,130,,,,,,,2.1,0.9,1.9*2E
,1535895580963
NMEA,$GPRMC,133942.00,A,3045.145963,N,10356.107045,E,000.0,025.6,020918,,,A*5B
,1535895580964
Nav,10,257,1,15,5,34,-61,-31,45,4,1,13,-61,19,-43,-86,-115,9,61,-80,-104,63,75,-128,1,40,67,123,-34,38,-116,48,-110,7,42,78,11,39,-44,94,61,52,-128,4,-72
Nav,12,257,1,15,5,34,-61,-31,45,4,1,13,-61,19,-43,-86,-115,9,61,-80,-104,63,75,-128,1,40,67,123,-34,38,-116,48,-110,7,42,78,11,39,-44,94,61,52,-128,4,-72
Nav,14,257,1,15,5,34,-61,-31,45,4,1,13,-61,19,-43,-83,74,14,125,-80,-111,63,74,-128,22,40,67,122,-122,38,-118,72,-57,7,42,-60,97,39,-100,-12,-69,52,-128,4,52
Nav,20,257,1,15,5,34,-61,-31,45,4,1,13,-61,19,-43,-83,74,14,125,-80,-111,63,74,-128,22,40,67,122,-122,38,-118,72,-57,7,42,-60,97,39,-100,-12,-69,52,-128,4,52
Nav,21,257,1,15,5,34,-61,-31,45,4,1,13,-61,19,-43,-83,74,14,125,-80,-111,63,74,-128,22,40,67,122,-122,38,-118,72,-57,7,42,-60,97,39,-100,-12,-69,52,-128,4,52
Nav,25,257,1,15,5,34,-61,-31,45,4,1,13,-61,19,-43,-83,74,14,125,-80,-111,63,74,-128,22,40,67,122,-122,38,-118,72,-57,7,42,-60,97,39,-100,-12,-69,52,-128,4,52
Nav,31,257,1,15,5,34,-61,-31,45,4,1,13,-61,19,-43,-83,74,14,125,-80,-111,63,74,-128,22,40,67,122,-122,38,-118,72,-57,7,42,-60,97,39,-100,-12,-69,52,-128,4,52
Nav,32,257,1,15,5,34,-61,-31,45,4,1,13,-61,19,-43,-83,74,14,125,-80,-111,63,74,-128,22,40,67,122,-122,38,-118,72,-57,7,42,-60,97,39,-100,-12,-69,52,-128,4,52
NMEA,$GPGGA,133943.00,3045.145971,N,10356.107088,E,1,29,0.4,526.8,M,-32.4,M,,*47
,1535895581963
NMEA,$GPGSV,4,1,12,10,83,027,44,20,60,137,42,32,53,323,40,14,38,294,38*7C
,1535895581969
NMEA,$GPGSV,4,2,12,25,36,123,36,31,34,223,44,12,27,073,44,24,16,044,37*7A
,1535895581969
NMEA,$GPGSV,4,3,12,21,15,185,38*4D
,1535895581969
NMEA,$GPGSV,4,4,12,10,,,39,32,,,40,25,,,38,8*6C
,1535895581970
NMEA,$GLGSV,1,1,04,79,70,074,39,69,50,358,40,68,43,080,40,80,32,192,35*61
,1535895581970
Raw,19715448,158612000000,,,-1219930642388443961,0.0,4.508856084548673,,,0,10,0.0,16431,49200933321269,10,44.010040283203125,46.17142716592406,0.15229239785753812,1,11290.919949637668,6.035906844772398E-4,1.57542003E9,,,,0,,1,,1.57542003E9
Raw,19715448,158612000000,,,-1219930642388443961,0.0,4.508856084548673,,,0,12,0.0,16431,49200924399510,12,42.09670639038086,115.61926351936233,0.1506875934398586,1,31348.41120202676,7.523313979618251E-4,1.57542003E9,,,,0,,1,,1.57542003E9
Raw,19715448,158612000000,,,-1219930642388443961,0.0,4.508856084548673,,,0,14,0.0,16431,49200925462652,18,35.180877685546875,-154.05478251295085,0.36758927869319447,1,-46116.40353025167,0.0015824201982468367,1.57542003E9,,,,0,,1,,1.57542003E9
Raw,19715448,158612000000,,,-1219930642388443961,0.0,4.508856084548673,,,0,15,0.0,51,14637272,41,24.842609405517578,588.9481887949028,0.8341397657268805,4,56331.348446399454,3.4028234663852886E38,1.57542003E9,,,,0,,1,,1.57542003E9
Raw,19715449,158612000000,,,-1219930642388443961,0.0,4.508856084548673,,,0,18,0.0,39,920521645,66,19.020294189453125,-189.6281249726668,1.0970212809541056,4,-7034.16555006335,3.4028234663852886E38,1.57542003E9,,,,1,,1,,1.57542003E9
Raw,19715449,158612000000,,,-1219930642388443961,0.0,4.508856084548673,,,0,20,0.0,16431,49200931712725,12,42.147613525390625,452.5368033852021,0.15200306309723266,1,131952.7170101575,7.479349733330309E-4,1.57542003E9,,,,0,,1,,1.57542003E9
Raw,19715449,158612000000,,,-1219930642388443961,0.0,4.508856084548673,,,0,21,0.0,16431,49200920756183,16,36.19529342651367,692.8611680136037,0.32472306751109814,1,205571.48563390685,0.0014079948887228966,1.57542003E9,,,,0,,1,,1.57542003E9
Raw,19715449,158612000000,,,-1219930642388443961,0.0,4.508856084548673,,,0,24,0.0,16,158020343662,1000000000,34.32396697998047,766.7434813058389,2.99792458E8,2,81852.03240321872,3.4028234663852886E38,1.57542003E9,,,,0,,1,,1.57542003E9
Raw,19715449,158612000000,,,-1219930642388443961,0.0,4.508856084548673,,,0,25,0.0,16431,49200925878606,17,35.89230728149414,-301.40830650684325,0.33567189025080624,1,-91456.9005112403,0.00145797582808882,1.57542003E9,,,,0,,1,,1.57542003E9
Raw,19715449,158612000000,,,-1219930642388443961,0.0,4.508856084548673,,,0,31,0.0,16431,49200926503244,11,42.94519805908203,-438.56984678461095,0.15106599524474906,1,-109450.44806696766,6.823143921792507E-4,1.57542003E9,,,,0,,1,,1.57542003E9
Raw,19715449,158612000000,,,-1219930642388443961,0.0,4.508856084548673,,,0,32,0.0,16431,49200929103280,12,39.72437286376953,-42.6736341194364,0.1639282117533586,1,-13275.763696633301,9.37879434786737E-4,1.57542003E9,,,,0,,1,,1.57542003E9
Raw,19715465,158612000000,,,-1219930642388443961,0.0,4.508856084548673,,,0,10,0.0,16401,49200933321293,8,37.06660842895508,46.179896656369976,0.28420365313268037,1,14671.784191087056,0.0017055255593732,1.17645005E9,,,,0,,1,,1.17645005E9
Raw,19715466,158612000000,,,-1219930642388443961,0.0,4.508856084548673,,,0,25,0.0,16401,49200925878592,8,36.917564392089844,-301.37142928888557,0.28956724659336186,1,-122129.86848211044,0.001735043479129672,1.17645005E9,,,,0,,1,,1.17645005E9
Raw,19715466,158612000000,,,-1219930642388443961,0.0,4.508856084548673,,,0,32,0.0,16401,49200929103284,8,39.925697326660156,-42.622591380486426,0.1548749094630668,1,-17424.963314833607,0.0012271672021597624,1.17645005E9,,,,0,,1,,1.17645005E9
NMEA,$QZGSV,2,1,04,01,58,119,39,02,57,078,37*66
,1535895581970
NMEA,$QZGSV,2,2,04,01,,,33,02,,,29,8*7D
,1535895581970
NMEA,$BDGSV,1,1,04,206,60,041,38,203,52,168,37,202,48,215,30,213,19,201,38*64
,1535895581970
Fix,gps,30.752433,103.935118,494.424851,0.009966,4.000000,1535895583000
NMEA,$GAGSV,4,1,12,107,63,003,40,130,59,100,40,127,37,178,40,108,36,084,38*60
,1535895581971
NMEA,$GAGSV,4,2,12,102,24,043,41,126,21,249,36*66
,1535895581971
NMEA,$GAGSV,4,3,12,107,,,36,130,,,36,127,,,32,108,,,35,1*7F
,1535895581971
NMEA,$GAGSV,4,4,12,102,,,35,126,,,31,1*74
,1535895581971
NMEA,$GPGSA,A,3,10,12,14,20,21,24,25,31,32,,,,1.6,0.9,1.3*3A
,1535895581971
NMEA,$GNGSA,A,3,10,12,14,20,21,24,25,31,32,,,,1.6,0.9,1.3*24
,1535895581972
NMEA,$GNGSA,A,3,68,69,79,80,,,,,,,,,1.6,0.9,1.3*27
,1535895581972
NMEA,$QZGSA,A,3,01,02,,,,,,,,,,,1.6,0.9,1.3*21
,1535895581972
NMEA,$IMGSA,A,3,,,,,,,,,,,,,1.6,0.9,1.3*2D
,1535895581972
NMEA,$BDGSA,A,3,202,203,206,213,,,,,,,,,1.6,0.9,1.3*2A
,1535895581972
NMEA,$GAGSA,A,3,102,107,108,126,127,130,,,,,,,1.6,0.9,1.3*20
,1535895581972
NMEA,$GPRMC,133943.00,A,3045.145971,N,10356.107088,E,000.0,025.2,020918,,,A*5C
,1535895581973
Nav,99,769,1,5,7,59,-115,-31,43,-37,-12,-65,-15,6,64,-8
Nav,100,769,1,5,7,59,-115,-31,43,-37,-12,-65,-15,6,64,-8
Nav,101,769,1,5,7,59,-115,-31,43,-37,-12,-65,-15,6,64,-8
Nav,106,769,1,5,7,59,-115,-31,43,-37,-12,-65,-15,6,64,-8
NMEA,$GPGGA,133944.00,3045.145929,N,10356.107117,E,1,30,0.4,526.8,M,-32.4,M,,*42
,1535895582966
NMEA,$GPGSV,4,1,12,10,83,027,44,20,60,137,42,32,53,323,40,14,38,294,38*7C
,1535895582972
NMEA,$GPGSV,4,2,12,25,36,123,36,31,34,223,44,12,27,073,44,24,16,044,36*7B
,1535895582972
NMEA,$GPGSV,4,3,12,21,15,185,38*4D
,1535895582972
NMEA,$GPGSV,4,4,12,10,,,38,32,,,40,25,,,38,8*6D
,1535895582972
NMEA,$GLGSV,1,1,04,79,70,074,38,69,50,358,40,68,43,080,40,80,32,192,35*60
,1535895582972
NMEA,$QZGSV,2,1,04,01,58,119,38,02,57,078,37*67
,1535895582972
NMEA,$QZGSV,2,2,04,01,,,33,02,,,30,8*75
,1535895582972
Fix,gps,30.752432,103.935119,494.420660,0.010155,4.000000,1535895584000
