# 
# Header Description:
# 
# Version: v2.0.0.1 Platform: 8.1.0 Manufacturer: Xiaomi Model: MI 8
# 
# Raw,ElapsedRealtimeMillis,TimeNanos,LeapSecond,TimeUncertaintyNanos,FullBiasNanos,BiasNanos,BiasUncertaintyNanos,DriftNanosPerSecond,DriftUncertaintyNanosPerSecond,HardwareClockDiscontinuityCount,Svid,TimeOffsetNanos,State,ReceivedSvTimeNanos,ReceivedSvTimeUncertaintyNanos,Cn0DbHz,PseudorangeRateMetersPerSecond,PseudorangeRateUncertaintyMetersPerSecond,AccumulatedDeltaRangeState,AccumulatedDeltaRangeMeters,AccumulatedDeltaRangeUncertaintyMeters,CarrierFrequencyHz,CarrierCycles,CarrierPhase,CarrierPhaseUncertainty,MultipathIndicator,SnrInDb,ConstellationType,AgcDb,CarrierFrequencyHz
# 
# Fix,Provider,Latitude,Longitude,Altitude,Speed,Accuracy,(UTC)TimeInMs
# 
# Nav,Svid,Type,Status,MessageId,Sub-messageId,Data(Bytes)
# 
Nav,99,769,1,-1,10,85,-68,92,41,-108,-96,-20,-24,16,51,-88
Nav,100,769,1,-1,10,85,-68,92,41,-108,-96,-20,-24,16,51,-88
Nav,101,769,1,-1,10,85,-68,92,41,-108,-96,-20,-24,16,51,-88
Nav,106,769,1,-1,10,85,-68,92,41,-108,-96,-20,-24,16,51,-88
Raw,19572408,15612000000,,,-1219930642388498067,0.0,8.043859905975419,,,0,10,0.0,16431,49057933339905,10,44.699153900146484,33.257315990086084,0.1522957428642574,1,538.6273387853561,5.575537797994912E-4,1.57542003E9,,,,0,,1,,1.57542003E9
Raw,19572408,15612000000,,,-1219930642388498067,0.0,8.043859905975419,,,0,12,0.0,16431,49057924450472,14,38.07423782348633,99.4778291513876,0.2372960580861886,1,1620.8767679378504,0.0011341064237058163,1.57542003E9,,,,0,,1,,1.57542003E9
Raw,19572409,15612000000,,,-1219930642388498067,0.0,8.043859905975419,,,0,14,0.0,16431,49057925388532,47,23.21570587158203,-155.33478325012152,0.9056361057630102,4,-2514.4446465819724,3.4028234663852886E38,1.57542003E9,,,,0,,1,,1.57542003E9
Raw,19572409,15612000000,,,-1219930642388498067,0.0,8.043859905975419,,,0,15,0.0,16431,49057914918343,21,33.318328857421875,590.7437889343505,0.4530468114007251,1,8869.463976301176,0.001960872206836939,1.57542003E9,,,,0,,1,,1.57542003E9
Raw,19572409,15612000000,,,-1219930642388498067,0.0,8.043859905975419,,,0,18,0.0,16431,49057920427564,34,27.075946807861328,-204.4162983631751,0.7347507293628106,1,-2863.563872059499,0.0037930812686681747,1.57542003E9,,,,0,,1,,1.57542003E9
Raw,19572409,15612000000,,,-1219930642388498067,0.0,8.043859905975419,,,0,20,0.0,16431,49057931925302,12,42.39772033691406,440.00471820422126,0.1520412893680495,1,7140.66667434725,7.267056498676538E-4,1.57542003E9,,,,0,,1,,1.57542003E9
Raw,19572409,15612000000,,,-1219930642388498067,0.0,8.043859905975419,,,0,21,0.0,16431,49057921086601,38,25.850296020507812,693.3240077731834,0.7863879142829968,4,11281.874630160139,3.4028234663852886E38,1.57542003E9,,,,0,,1,,1.57542003E9
Raw,19572410,15612000000,,,-1219930642388498067,0.0,8.043859905975419,,,0,24,0.0,16431,49057920709134,24,31.617643356323242,766.7200325757512,0.53056632696874,1,10719.270740099706,0.0022485745139420033,1.57542003E9,,,,0,,1,,1.57542003E9
Raw,19572410,15612000000,,,-1219930642388498067,0.0,8.043859905975419,,,0,25,0.0,16431,49057925732001,16,38.756473541259766,-311.9138488229778,0.2068471608772131,1,-4651.4440675946435,0.001105148927308619,1.57542003E9,,,,0,,1,,1.57542003E9
Raw,19572410,15612000000,,,-1219930642388498067,0.0,8.043859905975419,,,0,31,0.0,16431,49057926291551,24,31.285673141479492,-447.6114453457212,0.5429013471198367,1,-7262.867115246966,0.002336177509278059,1.57542003E9,,,,0,,1,,1.57542003E9
Raw,19572410,15612000000,,,-1219930642388498067,0.0,8.043859905975419,,,0,32,0.0,16431,49057929082007,11,40.533447265625,-45.14852743953321,0.15152985281831366,1,-669.0985809037278,8.544632000848651E-4,1.57542003E9,,,,0,,1,,1.57542003E9
Raw,19572410,15612000000,,,-1219930642388498067,0.0,8.043859905975419,,,0,10,0.0,16401,49057933339917,10,37.47540283203125,33.27303652315723,0.26582393957065353,1,4040.9836241134108,0.0016271158820018172,1.17645005E9,,,,0,,1,,1.17645005E9
Raw,19572411,15612000000,,,-1219930642388498067,0.0,8.043859905975419,,,0,24,0.0,16401,49057920709133,11,28.608657836914062,766.7445719444477,0.665877007729192,4,25448.141329979837,3.4028234663852886E38,1.17645005E9,,,,0,,1,,1.17645005E9
Raw,19572411,15612000000,,,-1219930642388498067,0.0,8.043859905975419,,,0,25,0.0,16401,49057925731998,8,36.08019256591797,-311.9026356947818,0.32719650859902405,1,-36841.703251007624,0.0019106401596218348,1.17645005E9,,,,0,,1,,1.17645005E9
Raw,19572411,15612000000,,,-1219930642388498067,0.0,8.043859905975419,,,0,32,0.0,16401,49057929082022,10,30.22498893737793,-45.16879798055015,0.5911010300603166,1,-5046.553259304099,0.003534784307703376,1.17645005E9,,,,0,,1,,1.17645005E9
NMEA,$GPGGA,133720.00,3045.145301,N,10356.109900,E,1,32,0.4,525.8,M,-32.4,M,,*4F
,1535895438907
NMEA,$GPGSV,4,1,13,10,83,020,45,20,61,136,43,32,52,321,42,14,37,293,30*7B
,1535895438913
NMEA,$GPGSV,4,2,13,25,35,124,43,31,33,223,33,12,27,074,40,24,17,044,35*7A
,1535895438913
NMEA,$GPGSV,4,3,13,21,16,186,33*47
,1535895438913
NMEA,$GPGSV,4,4,13,10,,,39,32,,,33,25,,,37,24,,,30,8*63
,1535895438913
NMEA,$GLGSV,1,1,04,79,70,078,41,69,49,357,41,68,43,078,43,80,31,192,32*64
,1535895438913
NMEA,$QZGSV,2,1,04,01,58,119,42,02,57,079,38*64
,1535895438913
NMEA,$QZGSV,2,2,04,01,,,37,02,,,33,8*72
,1535895438914
NMEA,$BDGSV,1,1,04,206,60,040,38,203,52,168,38,202,48,215,25,213,19,201,31*67
,1535895438914
NMEA,$GAGSV,4,1,11,107,62,002,41,130,59,102,42,108,37,083,40,127,36,178,36*6B
,1535895438914
NMEA,$GAGSV,4,2,11,102,24,044,40,126,22,250,20*6F
,1535895438914
NMEA,$GAGSV,4,3,11,107,,,37,130,,,39,108,,,36,127,,,34,1*77
,1535895438914
NMEA,$GAGSV,4,4,11,102,,,32,1*47
,1535895438914
NMEA,$GPGSA,A,3,10,12,14,20,21,24,25,31,32,,,,1.8,0.9,1.5*32
,1535895438914
NMEA,$GNGSA,A,3,10,12,14,20,21,24,25,31,32,,,,1.8,0.9,1.5*2C
,1535895438914
NMEA,$GNGSA,A,3,68,69,79,80,,,,,,,,,1.8,0.9,1.5*2F
,1535895438914
NMEA,$QZGSA,A,3,01,02,,,,,,,,,,,1.8,0.9,1.5*29
,1535895438914
NMEA,$IMGSA,A,3,,,,,,,,,,,,,1.8,0.9,1.5*25
,1535895438914
NMEA,$BDGSA,A,3,202,203,206,213,,,,,,,,,1.8,0.9,1.5*22
,1535895438914
NMEA,$GAGSA,A,3,102,107,108,126,127,130,,,,,,,1.8,0.9,1.5*28
,1535895438914
NMEA,$GPRMC,133720.00,A,3045.145301,N,10356.109900,E,000.1,231.3,020918,,,A*5A
,1535895438914
Fix,gps,30.752422,103.935165,493.480608,0.033511,4.000000,1535895440000
NMEA,$GPGGA,133721.00,3045.145266,N,10356.109948,E,1,30,0.4,525.7,M,-32.4,M,,*4F
,1535895439927
NMEA,$GPGSV,4,1,13,10,83,020,45,20,61,136,43,32,52,321,42,14,37,293,30*7B
,1535895439935
NMEA,$GPGSV,4,2,13,25,35,124,42,31,33,223,34,12,27,074,40,24,17,044,34*7D
,1535895439936
NMEA,$GPGSV,4,3,13,21,16,186,32*46
,1535895439936
NMEA,$GPGSV,4,4,13,10,,,39,32,,,33,25,,,37,24,,,30,8*63
,1535895439936
NMEA,$GLGSV,1,1,04,79,70,078,41,69,49,357,42,68,43,078,42,80,31,192,32*66
,1535895439936
NMEA,$QZGSV,2,1,04,01,58,119,41,02,57,079,38*67
,1535895439937
NMEA,$QZGSV,2,2,04,01,,,37,02,,,33,8*72
,1535895439937
NMEA,$BDGSV,1,1,04,206,60,041,38,203,52,168,38,202,48,215,,213,19,201,31*61
,1535895439937
NMEA,$GAGSV,4,1,11,107,62,002,41,130,59,102,42,108,37,083,40,127,36,178,36*6B
,1535895439937
NMEA,$GAGSV,4,2,11,102,24,044,40,126,22,250,24*6B
,1535895439937
NMEA,$GAGSV,4,3,11,107,,,37,130,,,39,108,,,36,127,,,34,1*77
,1535895439937
NMEA,$GAGSV,4,4,11,102,,,32,1*47
,1535895439937
NMEA,$GPGSA,A,3,10,12,14,20,21,24,25,31,32,,,,1.7,0.8,1.5*3C
,1535895439937
NMEA,$GNGSA,A,3,10,12,14,20,21,24,25,31,32,,,,1.7,0.8,1.5*22
,1535895439937
NMEA,$GNGSA,A,3,68,69,79,80,,,,,,,,,1.7,0.8,1.5*21
,1535895439937
NMEA,$QZGSA,A,3,01,02,,,,,,,,,,,1.7,0.8,1.5*27
,1535895439937
NMEA,$IMGSA,A,3,,,,,,,,,,,,,1.7,0.8,1.5*2B
,1535895439938
NMEA,$BDGSA,A,3,203,206,213,,,,,,,,,,1.7,0.8,1.5*1C
,1535895439938
NMEA,$GAGSA,A,3,102,107,108,126,127,130,,,,,,,1.7,0.8,1.5*26
,1535895439938
NMEA,$GPRMC,133721.00,A,3045.145266,N,10356.109948,E,000.2,272.2,020918,,,A*52
,1535895439938
Fix,gps,30.752421,103.935166,493.368002,0.081920,4.000000,1535895441000
Raw,19573441,16612000000,,,-1219930642388497685,0.0,7.734297642353419,,,0,10,0.0,16431,49058933339793,10,44.469940185546875,32.96844586951994,0.15229572622243293,1,571.8597522027179,5.724632064811885E-4,1.57542003E9,,,,0,,1,,1.57542003E9
Raw,19573442,16612000000,,,-1219930642388497685,0.0,7.734297642353419,,,0,12,0.0,16431,49058924450149,13,39.08767318725586,99.69927139203043,0.19172295430244468,1,1720.3548096916459,0.0010092112934216857,1.57542003E9,,,,0,,1,,1.57542003E9
Raw,19573442,16612000000,,,-1219930642388497685,0.0,7.734297642353419,,,0,14,0.0,16431,49058925389049,28,29.577133178710938,-155.32241131840374,0.6195700660534413,4,-2669.814864860939,3.4028234663852886E38,1.57542003E9,,,,0,,1,,1.57542003E9
Raw,19573443,16612000000,,,-1219930642388497685,0.0,7.734297642353419,,,0,15,0.0,16431,49058914916365,23,31.901138305664062,590.89552403079,0.5167759459837404,1,9460.160541498035,0.002176369307562709,1.57542003E9,,,,0,,1,,1.57542003E9
Raw,19573443,16612000000,,,-1219930642388497685,0.0,7.734297642353419,,,0,18,0.0,16431,49058920428246,42,24.52456283569336,-204.52917945917864,0.8494836610265306,4,-3068.0787729555886,3.4028234663852886E38,1.57542003E9,,,,0,,1,,1.57542003E9
Raw,19573443,16612000000,,,-1219930642388497685,0.0,7.734297642353419,,,0,20,0.0,16431,49058931923835,13,41.54294204711914,440.0189305885913,0.1520410397406824,1,7580.70126967522,8.018580265343189E-4,1.57542003E9,,,,0,,1,,1.57542003E9
Raw,19573444,16612000000,,,-1219930642388497685,0.0,7.734297642353419,,,0,21,0.0,16431,49058921084286,31,28.43609619140625,693.4994642593629,0.6701069601067027,1,11975.344305075936,0.09839011813801503,1.57542003E9,,,,0,,1,,1.57542003E9
Raw,19573444,16612000000,,,-1219930642388497685,0.0,7.734297642353419,,,0,24,0.0,16431,49058920706587,22,32.61063766479492,766.9588824310631,0.4859120515978561,1,11485.95744889247,0.002005661139264703,1.57542003E9,,,,0,,1,,1.57542003E9
Raw,19573444,16612000000,,,-1219930642388497685,0.0,7.734297642353419,,,0,25,0.0,16431,49058925733045,15,39.7537841796875,-311.866337878585,0.16199939101316974,1,-4963.33516277594,9.852699004113674E-4,1.57542003E9,,,,0,,1,,1.57542003E9
Raw,19573445,16612000000,,,-1219930642388497685,0.0,7.734297642353419,,,0,31,0.0,16431,49058926293034,20,33.661895751953125,-448.0157655274513,0.4360455235180576,1,-7710.678717403103,0.0018848248291760683,1.57542003E9,,,,0,,1,,1.57542003E9
Raw,19573445,16612000000,,,-1219930642388497685,0.0,7.734297642353419,,,0,32,0.0,16431,49058929082160,12,39.95696258544922,-45.44104012264023,0.15346518051187186,1,-714.3226788797116,9.130983962677419E-4,1.57542003E9,,,,0,,1,,1.57542003E9
Raw,19573445,16612000000,,,-1219930642388497685,0.0,7.734297642353419,,,0,10,0.0,16401,49058933339805,10,38.38945007324219,33.20750661003153,0.224720313944075,1,4074.2352553782653,0.001464590197429061,1.17645005E9,,,,0,,1,,1.17645005E9
Raw,19573445,16612000000,,,-1219930642388497685,0.0,7.734297642353419,,,0,24,0.0,16401,49058920706580,10,29.9375,766.7980132362754,0.6061200769462336,1,26214.789088983955,0.003653736785054207,1.17645005E9,,,,0,,1,,1.17645005E9
Raw,19573446,16612000000,,,-1219930642388497685,0.0,7.734297642353419,,,0,25,0.0,16401,49058925733036,9,36.4272346496582,-311.9794234693277,0.3115906376985038,1,-37153.62260014945,0.0018358061788603663,1.17645005E9,,,,0,,1,,1.17645005E9
Raw,19573446,16612000000,,,-1219930642388497685,0.0,7.734297642353419,,,0,32,0.0,16401,49058929082175,11,32.400421142578125,-45.57201900305739,0.4932742948942195,1,-5091.793867235327,0.0029185523744672537,1.17645005E9,,,,0,,1,,1.17645005E9
Nav,99,769,1,-1,11,90,18,90,-128,12,52,-65,126,12,52,-96
Nav,100,769,1,-1,11,90,18,90,-128,12,52,-65,126,12,52,-96
Nav,101,769,1,-1,11,90,18,90,-128,12,52,-65,126,12,52,-96
Nav,104,769,1,-1,11,90,18,90,-128,12,52,-65,126,12,52,-96
Nav,106,769,1,-1,11,90,18,90,-128,12,52,-65,126,12,52,-96
NMEA,$GPGGA,133722.00,3045.145338,N,10356.109786,E,1,29,0.4,525.9,M,-32.4,M,,*4C
,1535895440918
NMEA,$GPGSV,4,1,13,10,83,020,44,20,61,136,42,32,52,321,41,14,37,293,29*70
,1535895440927
NMEA,$GPGSV,4,2,13,25,35,124,42,31,33,223,33,12,27,074,46,24,17,044,37*7F
,1535895440928
NMEA,$GPGSV,4,3,13,21,16,186,34*40
,1535895440928
NMEA,$GPGSV,4,4,13,10,,,38,32,,,32,25,,,39,24,,,32,8*6F
,1535895440928
NMEA,$GLGSV,1,1,04,79,70,078,40,69,49,357,42,68,43,078,44,80,31,192,31*62
,1535895440928
NMEA,$QZGSV,2,1,04,01,58,119,41,02,57,079,37*68
,1535895440929
NMEA,$QZGSV,2,2,04,01,,,37,02,,,35,8*74
,1535895440929
Fix,gps,30.752422,103.935163,493.530345,0.065398,4.000000,1535895442000
NMEA,$BDGSV,1,1,04,206,60,041,38,203,52,168,38,202,48,215,,213,19,201,31*61
,1535895440929
NMEA,$GAGSV,4,1,11,107,62,002,40,130,59,102,42,108,37,083,43,127,36,178,36*69
,1535895440933
NMEA,$GAGSV,4,2,11,102,24,044,41,126,22,250,24*6A
,1535895440933
NMEA,$GAGSV,4,3,11,107,,,37,130,,,39,108,,,36,127,,,35,1*76
,1535895440933
NMEA,$GAGSV,4,4,11,102,,,36,1*43
,1535895440934
NMEA,$GPGSA,A,3,10,12,14,20,21,24,25,31,32,,,,1.7,0.8,1.5*3C
,1535895440934
NMEA,$GNGSA,A,3,10,12,14,20,21,24,25,31,32,,,,1.7,0.8,1.5*22
,1535895440934
NMEA,$GNGSA,A,3,68,69,79,80,,,,,,,,,1.7,0.8,1.5*21
,1535895440934
NMEA,$QZGSA,A,3,01,02,,,,,,,,,,,1.7,0.8,1.5*27
,1535895440935
NMEA,$IMGSA,A,3,,,,,,,,,,,,,1.7,0.8,1.5*2B
,1535895440935
NMEA,$BDGSA,A,3,203,206,213,,,,,,,,,,1.7,0.8,1.5*1C
,1535895440935
NMEA,$GAGSA,A,3,102,107,108,126,127,130,,,,,,,1.7,0.8,1.5*26
,1535895440935
NMEA,$GPRMC,133722.00,A,3045.145338,N,10356.109786,E,000.1,290.3,020918,,,A*59
,1535895440936
Raw,19574425,17612000000,,,-1219930642388497304,0.0,7.568689585283717,,,0,10,0.0,16431,49059933339684,14,40.73576736450195,33.28641601749597,0.15229570958060845,1,605.151496544103,8.799459901638329E-4,1.57542003E9,,,,0,,1,,1.57542003E9
Raw,19574425,17612000000,,,-1219930642388497304,0.0,7.568689585283717,,,0,12,0.0,16431,49059924449818,9,46.247901916503906,99.60131841198387,0.150696629950548,1,1819.9374843908959,4.6649755677208304E-4,1.57542003E9,,,,0,,1,,1.57542003E9
Raw,19574426,17612000000,,,-1219930642388497304,0.0,7.568689585283717,,,0,14,0.0,16431,49059925389572,34,27.22438621520996,-155.70619682007884,0.7253705317143755,4,-2825.352678322287,3.4028234663852886E38,1.57542003E9,,,,0,,1,,1.57542003E9
Raw,19574426,17612000000,,,-1219930642388497304,0.0,7.568689585283717,,,0,15,0.0,16431,49059914914403,27,29.90822410583496,590.6396329472168,0.6063946670500551,1,10050.866811418717,0.002737652510404587,1.57542003E9,,,,0,,1,,1.57542003E9
Raw,19574426,17612000000,,,-1219930642388497304,0.0,7.568689585283717,,,0,18,0.0,16431,49059920428932,54,21.50188446044922,-204.05004828538097,0.9854102224271175,4,-3272.295281518606,3.4028234663852886E38,1.57542003E9,,,,0,,1,,1.57542003E9
Raw,19574426,17612000000,,,-1219930642388497304,0.0,7.568689585283717,,,0,20,0.0,16431,49059931922373,16,36.668487548828125,440.18521889396607,0.3018550705302503,1,8020.791433774193,0.001257086405530572,1.57542003E9,,,,0,,1,,1.57542003E9
Raw,19574427,17612000000,,,-1219930642388497304,0.0,7.568689585283717,,,0,21,0.0,16431,49059921081890,20,33.572757720947266,693.6608106085419,0.4391166723737927,1,12668.83906539079,0.09705110351842618,1.57542003E9,,,,0,,1,,1.57542003E9
Raw,19574427,17612000000,,,-1219930642388497304,0.0,7.568689585283717,,,0,24,0.0,16431,49059920704037,16,36.725406646728516,766.476138516874,0.30087516662157054,1,12252.566347288743,0.0013246324378997087,1.57542003E9,,,,0,,1,,1.57542003E9
Raw,19574427,17612000000,,,-1219930642388497304,0.0,7.568689585283717,,,0,25,0.0,16431,49059925734091,13,41.51009750366211,-311.70427579781904,0.15092765175789646,1,-5275.187892944057,8.048958843573928E-4,1.57542003E9,,,,0,,1,,1.57542003E9
Raw,19574427,17612000000,,,-1219930642388497304,0.0,7.568689585283717,,,0,31,0.0,16431,49059926294549,24,31.64402961730957,-447.6614443094402,0.5267869353470391,1,-8158.43511178831,0.002241753973066807,1.57542003E9,,,,1,,1,,1.57542003E9
Raw,19574427,17612000000,,,-1219930642388497304,0.0,7.568689585283717,,,0,32,0.0,16431,49059929082345,15,37.1505012512207,-45.35039356921075,0.2796685562616139,1,-759.5701965374833,0.0011892258189618587,1.57542003E9,,,,0,,1,,1.57542003E9
Raw,19574428,17612000000,,,-1219930642388497304,0.0,7.568689585283717,,,0,10,0.0,16401,49059933339694,8,34.82914733886719,33.27164127259333,0.3848230861474131,1,4107.53071309844,0.0022066389210522175,1.17645005E9,,,,0,,1,,1.17645005E9
Raw,19574428,17612000000,,,-1219930642388497304,0.0,7.568689585283717,,,0,24,0.0,16401,49059920704021,8,32.090328216552734,766.6021754410954,0.5093093584479249,1,26981.422881097213,0.0028516482561826706,1.17645005E9,,,,0,,1,,1.17645005E9
Raw,19574428,17612000000,,,-1219930642388497304,0.0,7.568689585283717,,,0,25,0.0,16401,49059925734077,9,38.85615539550781,-311.76184106688606,0.20236498500797406,1,-37465.48728078272,0.0013879723846912384,1.17645005E9,,,,0,,1,,1.17645005E9
Raw,19574429,17612000000,,,-1219930642388497304,0.0,7.568689585283717,,,0,32,0.0,16401,49059929082328,12,28.847959518432617,-45.533020152181166,0.6530245266878998,4,-5137.110146191352,3.4028234663852886E38,1.17645005E9,,,,0,,1,,1.17645005E9
NMEA,$GPGGA,133723.00,3045.145460,N,10356.109594,E,1,30,0.4,525.8,M,-32.4,M,,*4F
,1535895441918
NMEA,$GPGSV,4,1,13,10,83,020,44,20,61,136,41,32,52,321,41,14,37,293,35*7E
,1535895441926
NMEA,$GPGSV,4,2,13,25,35,124,42,31,33,223,33,12,27,074,48,24,17,044,37*71
,1535895441927
NMEA,$GPGSV,4,3,13,21,16,186,34*40
,1535895441927
NMEA,$GPGSV,4,4,13,10,,,38,32,,,32,25,,,39,24,,,32,8*6F
,1535895441927
NMEA,$GLGSV,1,1,04,79,70,078,39,69,49,357,42,68,43,078,44,80,31,192,31*6C
,1535895441927
NMEA,$QZGSV,2,1,04,01,58,119,40,02,57,079,37*69
,1535895441927
NMEA,$QZGSV,2,2,04,01,,,37,02,,,35,8*74
,1535895441927
NMEA,$BDGSV,1,1,04,206,60,041,37,203,52,168,37,202,48,215,,213,19,201,30*60
,1535895441927
NMEA,$GAGSV,4,1,11,107,62,002,40,130,59,102,41,108,37,083,43,127,36,178,35*69
,1535895441928
NMEA,$GAGSV,4,2,11,102,24,044,43,126,22,250,26*6A
,1535895441928
NMEA,$GAGSV,4,3,11,107,,,36,130,,,38,108,,,37,127,,,35,1*77
,1535895441928
NMEA,$GAGSV,4,4,11,102,,,38,1*4D
,1535895441928
NMEA,$GPGSA,A,3,10,12,14,20,21,24,25,31,32,,,,1.6,0.9,1.4*3D
,1535895441928
NMEA,$GNGSA,A,3,10,12,14,20,21,24,25,31,32,,,,1.6,0.9,1.4*23
,1535895441928
Raw,19575430,18612000000,,,-1219930642388496920,0.0,7.335801739029281,,,0,10,0.0,16431,49060933339569,14,40.69176483154297,33.42770484101128,0.15229569293878398,1,638.5437272828514,8.844150579534471E-4,1.57542003E9,,,,0,,1,,1.57542003E9
Raw,19575430,18612000000,,,-1219930642388496920,0.0,7.335801739029281,,,0,12,0.0,16431,49060924449485,8,47.731727600097656,99.63747137774044,0.15069658002507458,1,1919.628219785385,3.932402760256082E-4,1.57542003E9,,,,0,,1,,1.57542003E9
Raw,19575430,18612000000,,,-1219930642388496920,0.0,7.335801739029281,,,0,14,0.0,16431,49060925390112,18,34.61804962158203,-155.41681972297192,0.39288598353778204,4,-2980.8852789150146,3.4028234663852886E38,1.57542003E9,,,,0,,1,,1.57542003E9
Raw,19575430,18612000000,,,-1219930642388496920,0.0,7.335801739029281,,,0,15,0.0,16431,49060914912440,32,27.933170318603516,590.4286625413406,0.6952102203836041,1,10641.472444807629,0.003436615690588951,1.57542003E9,,,,0,,1,,1.57542003E9
Raw,19575431,18612000000,,,-1219930642388496920,0.0,7.335801739029281,,,0,18,0.0,16431,49060920429609,45,23.915815353393555,-204.1590098988844,0.8768585969114349,4,-3477.3741685771765,3.4028234663852886E38,1.57542003E9,,,,0,,1,,1.57542003E9
Raw,19575431,18612000000,,,-1219930642388496920,0.0,7.335801739029281,,,0,20,0.0,16431,49060931920908,22,32.33533477783203,439.9946297970905,0.49671179687392586,1,8460.972580018448,0.002070249756798148,1.57542003E9,,,,0,,1,,1.57542003E9
Raw,19575431,18612000000,,,-1219930642388496920,0.0,7.335801739029281,,,0,21,0.0,16431,49060921079545,21,32.892948150634766,693.4257779883606,0.46968643915392305,4,13362.249226283438,3.4028234663852886E38,1.57542003E9,,,,0,,1,,1.57542003E9
Raw,19575431,18612000000,,,-1219930642388496920,0.0,7.335801739029281,,,0,24,0.0,16431,49060920701476,15,37.37254333496094,766.5951544550517,0.27177362480566136,1,13019.134659164523,0.0012295283377170563,1.57542003E9,,,,0,,1,,1.57542003E9
Raw,19575431,18612000000,,,-1219930642388496920,0.0,7.335801739029281,,,0,25,0.0,16431,49060925735115,15,37.16069793701172,-311.74984404219003,0.278608006071533,1,-5586.849118550539,0.0011878308141604066,1.57542003E9,,,,0,,1,,1.57542003E9
Raw,19575432,18612000000,,,-1219930642388496920,0.0,7.335801739029281,,,0,31,0.0,16431,49060926296027,31,28.230510711669922,-447.850158871207,0.6802893602620839,4,-8606.02437303803,3.4028234663852886E38,1.57542003E9,,,,1,,1,,1.57542003E9
Raw,19575432,18612000000,,,-1219930642388496920,0.0,7.335801739029281,,,0,32,0.0,16431,49060929082455,13,39.20463562011719,-45.14581362393258,0.18729657847066705,1,-804.8683570273399,9.957124711945653E-4,1.57542003E9,,,,0,,1,,1.57542003E9
Raw,19575432,18612000000,,,-1219930642388496920,0.0,7.335801739029281,,,0,10,0.0,16401,49060933339585,11,33.10076904296875,33.425760010835944,0.46254623107969217,1,4140.924832625735,0.002692465204745531,1.17645005E9,,,,0,,1,,1.17645005E9
Raw,19575432,18612000000,,,-1219930642388496920,0.0,7.335801739029281,,,0,24,0.0,16401,49060920701460,8,31.838638305664062,766.4779789695262,0.5206270638689243,1,27747.994214150764,0.002935488475486636,1.17645005E9,,,,0,,1,,1.17645005E9
Raw,19575432,18612000000,,,-1219930642388496920,0.0,7.335801739029281,,,0,25,0.0,16401,49060925735108,10,37.482730865478516,-311.8395831502146,0.2641265067579516,1,-37777.173738251586,0.0016257434617727995,1.17645005E9,,,,0,,1,,1.17645005E9
Raw,19575433,18612000000,,,-1219930642388496920,0.0,7.335801739029281,,,0,32,0.0,16401,49060929082479,8,31.14704132080078,-45.18157890174621,0.5496373918448914,1,-5182.369451599199,0.0031787785701453686,1.17645005E9,,,,0,,1,,1.17645005E9
NMEA,$GNGSA,A,3,68,69,79,80,,,,,,,,,1.6,0.9,1.4*20
,1535895441928
NMEA,$QZGSA,A,3,01,02,,,,,,,,,,,1.6,0.9,1.4*26
,1535895441928
NMEA,$IMGSA,A,3,,,,,,,,,,,,,1.6,0.9,1.4*2A
,1535895441928
NMEA,$BDGSA,A,3,203,206,213,,,,,,,,,,1.6,0.9,1.4*1D
,1535895441928
NMEA,$GAGSA,A,3,102,107,108,126,127,130,,,,,,,1.6,0.9,1.4*27
,1535895441928
NMEA,$GPRMC,133723.00,A,3045.145460,N,10356.109594,E,000.3,330.1,020918,,,A*58
,1535895441929
Fix,gps,30.752424,103.935160,493.404234,0.139562,4.000000,1535895443000
Nav,100,769,1,-1,12,101,-64,88,14,-128,-16,-19,-52,37,36,72
Nav,101,769,1,-1,12,101,-64,90,14,-128,-16,-19,-52,37,37,-96
NMEA,$GPGGA,133724.00,3045.145541,N,10356.109234,E,1,31,0.4,525.9,M,-32.4,M,,*47
,1535895442906
NMEA,$GPGSV,4,1,13,10,83,020,43,20,61,136,40,32,52,321,41,14,37,293,40*7A
,1535895442914
NMEA,$GPGSV,4,2,13,25,35,124,41,31,33,223,33,12,27,074,47,24,17,044,37*7D
,1535895442914
NMEA,$GPGSV,4,3,13,21,16,186,33*47
,1535895442914
NMEA,$GPGSV,4,4,13,10,,,37,32,,,37,25,,,38,24,,,32,8*64
,1535895442915
NMEA,$GLGSV,1,1,04,79,70,078,39,69,49,357,43,68,43,078,43,80,31,192,30*6B
,1535895442915
NMEA,$QZGSV,2,1,04,01,58,119,39,02,57,079,36*66
,1535895442915
NMEA,$QZGSV,2,2,04,01,,,36,02,,,34,8*74
,1535895442915
NMEA,$BDGSV,1,1,04,206,60,041,36,203,52,168,35,202,48,215,19,213,19,201,30*6B
,1535895442916
NMEA,$GAGSV,4,1,11,107,62,002,39,130,59,102,40,108,37,083,43,127,36,178,34*67
,1535895442916
NMEA,$GAGSV,4,2,11,102,24,044,43,126,22,250,31*6C
,1535895442916
NMEA,$GAGSV,4,3,11,107,,,36,130,,,37,108,,,36,127,,,34,1*78
,1535895442916
NMEA,$GAGSV,4,4,11,102,,,38,1*4D
,1535895442916
NMEA,$GPGSA,A,3,10,12,14,20,21,24,25,31,32,,,,1.5,0.9,1.2*38
,1535895442917
NMEA,$GNGSA,A,3,10,12,14,20,21,24,25,31,32,,,,1.5,0.9,1.2*26
,1535895442917
NMEA,$GNGSA,A,3,68,69,79,80,,,,,,,,,1.5,0.9,1.2*25
,1535895442917
NMEA,$QZGSA,A,3,01,02,,,,,,,,,,,1.5,0.9,1.2*23
,1535895442917
NMEA,$IMGSA,A,3,,,,,,,,,,,,,1.5,0.9,1.2*2F
,1535895442917
NMEA,$BDGSA,A,3,203,206,213,,,,,,,,,,1.5,0.9,1.2*18
,1535895442917
NMEA,$GAGSA,A,3,102,107,108,126,127,130,,,,,,,1.5,0.9,1.2*22
,1535895442917
NMEA,$GPRMC,133724.00,A,3045.145541,N,10356.109234,E,000.2,280.6,020918,,,A*5C
,1535895442918
Fix,gps,30.752426,103.935154,493.526206,0.123998,4.000000,1535895444000
Raw,19576418,19612000000,,,-1219930642388496537,0.0,7.363716819351429,,,0,10,0.0,16431,49061933339477,13,38.81409454345703,33.649200335492424,0.20562441946580834,1,672.0585235227652,0.0010415042052045465,1.57542003E9,,,,0,,1,,1.57542003E9
Raw,19576419,19612000000,,,-1219930642388496537,0.0,7.363716819351429,,,0,12,0.0,16431,49061924449132,12,42.586143493652344,100.20221768232341,0.15069651345777668,1,2019.5254514723963,7.111106533557177E-4,1.57542003E9,,,,0,,1,,1.57542003E9
Raw,19576419,19612000000,,,-1219930642388496537,0.0,7.363716819351429,,,0,14,0.0,16431,49061925390618,12,39.81319046020508,-155.49345412646346,0.1592664539562203,1,-3136.328901256273,0.09607517466702288,1.57542003E9,,,,0,,1,,1.57542003E9
Raw,19576419,19612000000,,,-1219930642388496537,0.0,7.363716819351429,,,0,15,0.0,16431,49061914910464,45,23.868040084838867,590.1339174573313,0.8780142052029114,4,11232.293142910137,3.4028234663852886E38,1.57542003E9,,,,0,,1,,1.57542003E9
Raw,19576419,19612000000,,,-1219930642388496537,0.0,7.363716819351429,,,0,18,0.0,16431,49061920430336,27,30.02825355529785,-204.21637067321228,0.6019892432752902,1,-3681.6611824621064,0.09784691772711253,1.57542003E9,,,,0,,1,,1.57542003E9
Raw,19576420,19612000000,,,-1219930642388496537,0.0,7.363716819351429,,,0,20,0.0,16431,49061931919395,32,27.950489044189453,439.943812854415,0.6938930532601337,4,8900.606700719345,3.4028234663852886E38,1.57542003E9,,,,0,,1,,1.57542003E9
Raw,19576420,19612000000,,,-1219930642388496537,0.0,7.363716819351429,,,0,21,0.0,16431,49061921077256,28,29.471044540405273,693.5989850324095,0.6235652355712724,1,14055.764380137518,0.09802580709856724,1.57542003E9,,,,1,,1,,1.57542003E9
Raw,19576420,19612000000,,,-1219930642388496537,0.0,7.363716819351429,,,0,24,0.0,16431,49061920698910,20,33.730674743652344,767.2836200768124,0.4355439056447614,1,13785.873650085297,0.0018699587089940906,1.57542003E9,,,,0,,1,,1.57542003E9
Raw,19576420,19612000000,,,-1219930642388496537,0.0,7.363716819351429,,,0,25,0.0,16431,49061925736104,22,32.620460510253906,-311.0199341532975,0.482777464107226,1,-5898.403795329499,0.0020033943001180887,1.57542003E9,,,,1,,1,,1.57542003E9
Raw,19576420,19612000000,,,-1219930642388496537,0.0,7.363716819351429,,,0,31,0.0,16431,49061926297510,21,33.236305236816406,-447.4105974294323,0.45518465345630776,4,-9052.873715147378,3.4028234663852886E38,1.57542003E9,,,,0,,1,,1.57542003E9
Raw,19576420,19612000000,,,-1219930642388496537,0.0,7.363716819351429,,,0,32,0.0,16431,49061929082620,12,40.306575775146484,-45.115833843113705,0.15152996931108498,1,-850.0457732356497,8.770752465352416E-4,1.57542003E9,,,,0,,1,,1.57542003E9
Raw,19576421,19612000000,,,-1219930642388496537,0.0,7.363716819351429,,,0,10,0.0,16401,49061933339470,8,33.6004753112793,33.642737449674286,0.4400750084779541,1,4174.451447364459,0.002541937166824937,1.17645005E9,,,,0,,1,,1.17645005E9
Raw,19576421,19612000000,,,-1219930642388496537,0.0,7.363716819351429,,,0,24,0.0,16401,49061920698911,11,31.634613037109375,766.9719019294548,0.5298014021486157,1,28514.67386531292,0.0030052578076720238,1.17645005E9,,,,0,,1,,1.17645005E9
Raw,19576421,19612000000,,,-1219930642388496537,0.0,7.363716819351429,,,0,25,0.0,16401,49061925736142,10,33.0173225402832,-311.4133479489403,0.46493107109411835,1,-38088.787421101355,0.0025629857555031776,1.17645005E9,,,,0,,1,,1.17645005E9
Raw,19576421,19612000000,,,-1219930642388496537,0.0,7.363716819351429,,,0,32,0.0,16401,49061929082631,9,36.95020294189453,-45.164111642778266,0.288675843907235,1,-5227.588024028155,0.0017285362118855119,1.17645005E9,,,,0,,1,,1.17645005E9
Nav,10,257,1,-1,2,34,-61,-31,45,3,-2,42,31,23,-1,-121,-47,12,-34,54,115,22,33,-103,1,63,-125,-64,83,58,-102,72,-34,3,-70,104,97,3,82,68,83,3,19,-97,-104
Nav,12,257,1,-1,2,34,-61,-31,45,3,-2,42,31,23,64,-106,-36,11,-84,-2,66,9,-88,6,96,0,127,0,-43,38,48,-84,-67,2,-124,104,70,3,-114,-20,29,3,19,-97,71
Nav,24,257,1,-1,2,34,-61,-31,45,3,-2,42,31,44,-62,94,107,13,44,-114,113,28,-4,37,-9,2,10,0,-43,42,-17,-12,-127,4,-48,40,109,3,71,80,-51,3,19,-97,71
Nav,32,257,1,-1,2,34,-60,-47,2,3,-2,42,76,24,-65,-57,-19,12,52,40,126,50,30,-13,68,63,-28,-128,69,11,-93,10,-66,4,-14,40,87,3,102,44,-95,3,19,-97,20
NMEA,$GPGGA,133725.00,3045.145520,N,10356.108986,E,1,30,0.4,525.8,M,-32.4,M,,*42
,1535895443910
NMEA,$GPGSV,4,1,13,10,83,020,43,20,61,136,39,32,52,321,41,14,37,293,45*71
,1535895443918
NMEA,$GPGSV,4,2,13,25,35,124,40,31,33,223,42,12,27,074,46,24,17,044,36*7A
,1535895443918
NMEA,$GPGSV,4,3,13,21,16,186,33*47
,1535895443918
NMEA,$GPGSV,4,4,13,10,,,37,32,,,37,25,,,37,24,,,32,8*6B
,1535895443918
NMEA,$GLGSV,1,1,04,79,70,078,37,69,49,357,42,68,43,078,42,80,31,192,30*65
,1535895443918
NMEA,$QZGSV,2,1,04,01,58,119,38,02,57,079,35*64
,1535895443918
NMEA,$QZGSV,2,2,04,01,,,34,02,,,33,8*71
,1535895443918
NMEA,$BDGSV,1,1,04,206,60,041,35,203,52,168,34,202,48,215,22,213,19,201,31*60
,1535895443919
NMEA,$GAGSV,4,1,11,107,62,002,38,130,59,102,39,108,37,083,41,127,36,178,33*6D
,1535895443919
NMEA,$GAGSV,4,2,11,102,24,044,43,126,22,250,40*6A
,1535895443919
NMEA,$GAGSV,4,3,11,107,,,36,130,,,36,108,,,36,127,,,33,1*7E
,1535895443919
NMEA,$GAGSV,4,4,11,102,,,38,1*4D
,1535895443919
NMEA,$GPGSA,A,3,10,12,14,20,21,24,25,31,32,,,,1.5,0.9,1.2*38
,1535895443919
NMEA,$GNGSA,A,3,10,12,14,20,21,24,25,31,32,,,,1.5,0.9,1.2*26
,1535895443919
NMEA,$GNGSA,A,3,68,69,79,80,,,,,,,,,1.5,0.9,1.2*25
,1535895443919
NMEA,$QZGSA,A,3,01,02,,,,,,,,,,,1.5,0.9,1.2*23
,1535895443919
NMEA,$IMGSA,A,3,,,,,,,,,,,,,1.5,0.9,1.2*2F
,1535895443919
NMEA,$BDGSA,A,3,202,203,206,213,,,,,,,,,1.5,0.9,1.2*28
,1535895443919
NMEA,$GAGSA,A,3,102,107,108,126,127,130,,,,,,,1.5,0.9,1.2*22
,1535895443919
Fix,gps,30.752425,103.935150,493.470485,0.271354,4.000000,1535895445000
Raw,19577424,20612000000,,,-1219930642388496155,0.0,7.381279755844243,,,0,10,0.0,16431,49062933339344,14,37.82648468017578,33.7475324828678,0.25003605703586085,1,705.7522483895712,0.0011669209925457835,1.57542003E9,,,,0,,1,,1.57542003E9
Raw,19577424,20612000000,,,-1219930642388496155,0.0,7.381279755844243,,,0,12,0.0,16431,49062924448833,14,37.8060188293457,100.12197905905458,0.24935720373191628,1,2119.7811267796924,0.0011027789441868663,1.57542003E9,,,,0,,1,,1.57542003E9
Raw,19577424,20612000000,,,-1219930642388496155,0.0,7.381279755844243,,,0,14,0.0,16431,49062925391135,10,44.97888946533203,-155.33532856942588,0.15086596051457124,1,-3291.7638091610584,5.398833891376853E-4,1.57542003E9,,,,0,,1,,1.57542003E9
Raw,19577424,20612000000,,,-1219930642388496155,0.0,7.381279755844243,,,0,15,0.0,16431,49062914908390,49,22.669475555419922,590.9443301085307,0.9319119489923517,4,11823.866589325084,3.4028234663852886E38,1.57542003E9,,,,0,,1,,1.57542003E9
Raw,19577425,20612000000,,,-1219930642388496155,0.0,7.381279755844243,,,0,18,0.0,16431,49062920431021,22,32.335845947265625,-204.02085666136918,0.4982195128876239,1,-3885.9094065071267,0.0021957019343972206,1.57542003E9,,,,0,,1,,1.57542003E9
Raw,19577425,20612000000,,,-1219930642388496155,0.0,7.381279755844243,,,0,20,0.0,16431,49062931917887,33,27.564353942871094,440.51019511691106,0.7112568666471435,4,9341.407125835214,3.4028234663852886E38,1.57542003E9,,,,1,,1,,1.57542003E9
Raw,19577425,20612000000,,,-1219930642388496155,0.0,7.381279755844243,,,0,21,0.0,16431,49062921074919,27,29.843555450439453,693.3829022580549,0.6068133753538216,1,14749.19346209919,0.0027581111062318087,1.57542003E9,,,,0,,1,,1.57542003E9
Raw,19577425,20612000000,,,-1219930642388496155,0.0,7.381279755844243,,,0,24,0.0,16431,49062920696354,27,30.2517032623291,766.8729264757126,0.591988838112357,1,14552.73357420354,0.002631505485624075,1.57542003E9,,,,0,,1,,1.57542003E9
Raw,19577425,20612000000,,,-1219930642388496155,0.0,7.381279755844243,,,0,25,0.0,16431,49062925737142,31,28.262401580810547,-311.25711396823976,0.6787547177763869,4,-6209.72219024377,3.4028234663852886E38,1.57542003E9,,,,1,,1,,1.57542003E9
Raw,19577426,20612000000,,,-1219930642388496155,0.0,7.381279755844243,,,0,31,0.0,16431,49062926299029,13,41.726318359375,-447.39393110819265,0.15102926673813488,4,-9500.493144506778,3.4028234663852886E38,1.57542003E9,,,,0,,1,,1.57542003E9
Raw,19577426,20612000000,,,-1219930642388496155,0.0,7.381279755844243,,,0,32,0.0,16431,49062929082776,13,38.6418342590332,-45.0663929796203,0.21260516557792908,1,-895.1592265941831,0.0010623657144606113,1.57542003E9,,,,0,,1,,1.57542003E9
Raw,19577426,20612000000,,,-1219930642388496155,0.0,7.381279755844243,,,0,10,0.0,16401,49062933339355,8,32.65932846069336,33.6828631517693,0.48239733155259024,1,4208.127876424899,0.0028328411281108856,1.17645005E9,,,,0,,1,,1.17645005E9
Raw,19577426,20612000000,,,-1219930642388496155,0.0,7.381279755844243,,,0,24,0.0,16401,49062920696345,15,28.202213287353516,766.5517334054416,0.6841520608571017,1,29281.562503137116,0.004461712669581175,1.17645005E9,,,,0,,1,,1.17645005E9
Raw,19577426,20612000000,,,-1219930642388496155,0.0,7.381279755844243,,,0,25,0.0,16401,49062925737183,13,27.612442016601562,-311.6093220739465,0.7079826209655273,4,-38399.736780136445,3.4028234663852886E38,1.17645005E9,,,,0,,1,,1.17645005E9
Raw,19577427,20612000000,,,-1219930642388496155,0.0,7.381279755844243,,,0,32,0.0,16401,49062929082781,9,36.03767013549805,-45.12756246846462,0.3297114543971882,1,-5272.703104906955,0.0019200171809643507,1.17645005E9,,,,0,,1,,1.17645005E9
NMEA,$GPRMC,133725.00,A,3045.145520,N,10356.108986,E,000.5,255.1,020918,,,A*51
,1535895443919
Nav,101,769,1,-1,13,105,-67,-109,14,-83,-12,-65,-78,14,37,-96
NMEA,$GPGGA,133726.00,3045.145555,N,10356.108711,E,1,30,0.4,525.7,M,-32.4,M,,*4C
,1535895444907
NMEA,$GPGSV,4,1,13,10,83,020,42,20,61,136,38,32,52,321,40,14,37,293,45*70
,1535895444908
NMEA,$GPGSV,4,2,13,25,35,124,38,31,33,223,47,12,27,074,45,24,17,044,35*70
,1535895444908
NMEA,$GPGSV,4,3,13,21,16,186,37*43
,1535895444908
NMEA,$GPGSV,4,4,13,10,,,36,32,,,37,25,,,36,24,,,31,8*68
,1535895444908
NMEA,$GLGSV,1,1,04,79,70,078,36,69,49,357,41,68,43,078,40,80,31,192,32*67
,1535895444908
NMEA,$QZGSV,2,1,04,01,58,119,37,02,57,079,34*6A
,1535895444908
NMEA,$QZGSV,2,2,04,01,,,33,02,,,32,8*77
,1535895444908
NMEA,$BDGSV,1,1,04,206,60,041,34,203,52,168,34,202,48,215,28,213,19,201,37*6D
,1535895444909
NMEA,$GAGSV,4,1,11,107,62,002,37,130,59,102,37,127,36,178,35,108,36,083,40*6A
,1535895444909
NMEA,$GAGSV,4,2,11,102,24,044,42,126,22,250,41*6A
,1535895444909
NMEA,$GAGSV,4,3,11,107,,,36,130,,,35,127,,,32,108,,,35,1*7F
,1535895444909
NMEA,$GAGSV,4,4,11,102,,,37,1*42
,1535895444909
NMEA,$GPGSA,A,3,10,12,14,20,21,24,25,31,32,,,,1.5,0.7,1.3*37
,1535895444909
NMEA,$GNGSA,A,3,10,12,14,20,21,24,25,31,32,,,,1.5,0.7,1.3*29
,1535895444909
NMEA,$GNGSA,A,3,68,69,79,80,,,,,,,,,1.5,0.7,1.3*2A
,1535895444909
NMEA,$QZGSA,A,3,01,02,,,,,,,,,,,1.5,0.7,1.3*2C
,1535895444909
NMEA,$IMGSA,A,3,,,,,,,,,,,,,1.5,0.7,1.3*20
,1535895444909
NMEA,$BDGSA,A,3,202,203,206,213,,,,,,,,,1.5,0.7,1.3*27
,1535895444909
Fix,gps,30.752426,103.935145,493.287787,0.149567,4.000000,1535895446000
Raw,19578413,21612000000,,,-1219930642388495772,0.0,7.703657141665356,,,0,10,0.0,16431,49063933339226,17,35.44000244140625,33.566580200574066,0.35735352484854954,1,739.3185805689199,0.0015359094832092524,1.57542003E9,,,,0,,1,,1.57542003E9
Raw,19578413,21612000000,,,-1219930642388495772,0.0,7.703657141665356,,,0,12,0.0,16431,49063924448468,22,32.752899169921875,99.67543923430685,0.4765903000369738,4,2219.6579998656152,3.4028234663852886E38,1.57542003E9,,,,1,,1,,1.57542003E9
Raw,19578413,21612000000,,,-1219930642388495772,0.0,7.703657141665356,,,0,14,0.0,16431,49063925391650,12,42.02831268310547,-155.37331346722056,0.1508660437236936,1,-3447.2057696466,7.582785910926759E-4,1.57542003E9,,,,0,,1,,1.57542003E9
Raw,19578414,21612000000,,,-1219930642388495772,0.0,7.703657141665356,,,0,15,0.0,16431,49063914906334,64,19.52289581298828,592.619687341366,1.0734097272557581,4,12415.323118168422,3.4028234663852886E38,1.57542003E9,,,,0,,1,,1.57542003E9
Raw,19578414,21612000000,,,-1219930642388495772,0.0,7.703657141665356,,,0,18,0.0,16431,49063920431713,29,29.156023025512695,-204.11214652116553,0.6412127587819154,4,-4089.9545691368994,3.4028234663852886E38,1.57542003E9,,,,0,,1,,1.57542003E9
Raw,19578414,21612000000,,,-1219930642388495772,0.0,7.703657141665356,,,0,20,0.0,16431,49063931916442,31,28.33167266845703,440.1459559040518,0.6767511086770117,4,9781.600582270023,3.4028234663852886E38,1.57542003E9,,,,0,,1,,1.57542003E9
Raw,19578414,21612000000,,,-1219930642388495772,0.0,7.703657141665356,,,0,21,0.0,16431,49063921072671,15,37.2301025390625,693.1762262417005,0.2746482503561827,1,15442.538529261372,0.0012498577125370502,1.57542003E9,,,,0,,1,,1.57542003E9
Raw,19578414,21612000000,,,-1219930642388495772,0.0,7.703657141665356,,,0,24,0.0,16431,49063920693774,39,25.489665985107422,766.4115181793068,0.8061317082716863,4,15319.371598887119,3.4028234663852886E38,1.57542003E9,,,,0,,1,,1.57542003E9
Raw,19578414,21612000000,,,-1219930642388495772,0.0,7.703657141665356,,,0,25,0.0,16431,49063925738198,33,27.703929901123047,-311.96742644463166,0.7038687619555475,1,-6521.562691319881,0.0986753601237086,1.57542003E9,,,,1,,1,,1.57542003E9
Raw,19578415,21612000000,,,-1219930642388495772,0.0,7.703657141665356,,,0,31,0.0,16431,49063926300514,8,47.40073013305664,-447.6442667513527,0.15102953300732647,4,-9948.08348259058,3.4028234663852886E38,1.57542003E9,,,,0,,1,,1.57542003E9
Raw,19578415,21612000000,,,-1219930642388495772,0.0,7.703657141665356,,,0,32,0.0,16431,49063929082914,18,34.6238899230957,-45.20718334720897,0.39328755076234034,1,-940.2915794216498,0.0015907243359833956,1.57542003E9,,,,0,,1,,1.57542003E9
Raw,19578415,21612000000,,,-1219930642388495772,0.0,7.703657141665356,,,0,10,0.0,16401,49063933339242,8,30.960886001586914,33.45133037384218,0.5587743525868141,1,4241.6832774626955,0.003444643458351493,1.17645005E9,,,,0,,1,,1.17645005E9
Raw,19578415,21612000000,,,-1219930642388495772,0.0,7.703657141665356,,,0,24,0.0,16401,49063920693795,31,23.5877742767334,766.497065145179,0.8916577054451031,4,30048.15576288882,3.4028234663852886E38,1.17645005E9,,,,0,,1,,1.17645005E9
Raw,19578415,21612000000,,,-1219930642388495772,0.0,7.703657141665356,,,0,25,0.0,16401,49063925738214,43,23.02621841430664,-311.07064884860347,0.9142200919613099,4,-38709.8504393642,3.4028234663852886E38,1.17645005E9,,,,0,,1,,1.17645005E9
Raw,19578416,21612000000,,,-1219930642388495772,0.0,7.703657141665356,,,0,32,0.0,16401,49063929082933,9,34.020503997802734,-45.114632436521276,0.42042114690872223,1,-5317.886975964191,0.0024219397455453873,1.17645005E9,,,,0,,1,,1.17645005E9
NMEA,$GAGSA,A,3,102,107,108,126,127,130,,,,,,,1.5,0.7,1.3*2D
,1535895444909
NMEA,$GPRMC,133726.00,A,3045.145555,N,10356.108711,E,000.3,200.8,020918,,,A*5F
,1535895444909
NMEA,$GPGGA,133727.00,3045.145369,N,10356.108829,E,1,31,0.4,525.6,M,-32.4,M,,*40
,1535895445904
NMEA,$GPGSV,4,1,12,10,83,020,41,20,61,136,37,32,52,321,39,14,37,293,44*72
,1535895445906
Fix,gps,30.752423,103.935147,493.213941,0.250624,4.000000,1535895447000
NMEA,$GPGSV,4,2,12,25,35,124,38,31,33,223,49,12,27,074,43,24,17,044,33*7F
,1535895445906
NMEA,$GPGSV,4,3,12,21,16,186,40*42
,1535895445906
NMEA,$GPGSV,4,4,12,10,,,36,32,,,36,25,,,35,8*6F
,1535895445906
NMEA,$GLGSV,1,1,04,79,70,078,35,69,49,357,40,68,43,078,39,80,31,192,39*60
,1535895445906
NMEA,$QZGSV,2,1,04,01,58,119,37,02,57,079,33*6D
,1535895445906
NMEA,$QZGSV,2,2,04,01,,,32,02,,,31,8*75
,1535895445906
NMEA,$BDGSV,1,1,04,206,60,041,33,203,52,168,34,202,48,215,29,213,19,201,40*6B
,1535895445906
NMEA,$GAGSV,4,1,12,107,62,002,36,130,59,102,36,108,36,083,38,127,36,178,40*64
,1535895445906
NMEA,$GAGSV,4,2,12,102,24,044,40,126,22,249,41*63
,1535895445906
NMEA,$GAGSV,4,3,12,107,,,35,130,,,34,127,,,36,108,,,34,1*7B
,1535895445906
NMEA,$GAGSV,4,4,12,102,,,36,126,,,22,1*75
,1535895445906
Raw,19579417,22612000000,,,-1219930642388495390,0.0,7.285095559539814,,,0,10,0.0,16431,49064933339108,17,35.57541275024414,33.502021637459265,0.35126424798985356,1,772.8679861694566,0.0015121505130082369,1.57542003E9,,,,0,,1,,1.57542003E9
Raw,19579417,22612000000,,,-1219930642388495390,0.0,7.285095559539814,,,0,12,0.0,16431,49064924448137,28,29.701515197753906,99.76890185070653,0.6138075347764684,4,2319.1284309470248,3.4028234663852886E38,1.57542003E9,,,,0,,1,,1.57542003E9
Raw,19579418,22612000000,,,-1219930642388495390,0.0,7.285095559539814,,,0,14,0.0,16431,49064925392159,17,35.8258056640625,-155.62940904553295,0.3385748568284068,1,-3602.635476258072,0.0014691815013065934,1.57542003E9,,,,0,,1,,1.57542003E9
Raw,19579418,22612000000,,,-1219930642388495390,0.0,7.285095559539814,,,0,15,0.0,16431,49064914904337,91,15.18134880065918,594.5670225772533,1.268643690476611,4,13007.950932390188,3.4028234663852886E38,1.57542003E9,,,,1,,1,,1.57542003E9
Raw,19579418,22612000000,,,-1219930642388495390,0.0,7.285095559539814,,,0,18,0.0,16431,49064920432375,43,24.38471794128418,-203.26264129233448,0.8557730724663513,4,-4293.931400418989,3.4028234663852886E38,1.57542003E9,,,,0,,1,,1.57542003E9
Raw,19579418,22612000000,,,-1219930642388495390,0.0,7.285095559539814,,,0,20,0.0,16431,49064931915007,24,31.580917358398438,440.2623474930772,0.5306360229296372,4,10221.767308165336,3.4028234663852886E38,1.57542003E9,,,,0,,1,,1.57542003E9
Raw,19579419,22612000000,,,-1219930642388495390,0.0,7.285095559539814,,,0,21,0.0,16431,49064921070374,12,39.85608673095703,693.0186289627391,0.156560343520323,1,16135.591229762444,9.237648919224739E-4,1.57542003E9,,,,0,,1,,1.57542003E9
Raw,19579419,22612000000,,,-1219930642388495390,0.0,7.285095559539814,,,0,24,0.0,16,22020691273,1000000000,13.174528121948242,766.5578682476157,2.99792458E8,2,579.6942808801948,3.4028234663852886E38,1.57542003E9,,,,0,,1,,1.57542003E9
Raw,19579420,22612000000,,,-1219930642388495390,0.0,7.285095559539814,,,0,25,0.0,16431,49064925739281,16,36.38810348510742,-311.8772783471288,0.3133514425788029,1,-6833.531729142431,0.09652392069165384,1.57542003E9,,,,0,,1,,1.57542003E9
Raw,19579420,22612000000,,,-1219930642388495390,0.0,7.285095559539814,,,0,31,0.0,16431,49064926302002,7,48.629356384277344,-447.71338597318095,0.15102979927651805,4,-10395.754910406935,3.4028234663852886E38,1.57542003E9,,,,0,,1,,1.57542003E9
Raw,19579420,22612000000,,,-1219930642388495390,0.0,7.285095559539814,,,0,32,0.0,16431,49064929083067,26,30.512474060058594,-45.387287828396694,0.5781733279724017,4,-985.5093180952381,3.4028234663852886E38,1.57542003E9,,,,0,,1,,1.57542003E9
Raw,19579420,22612000000,,,-1219930642388495390,0.0,7.285095559539814,,,0,10,0.0,16401,49064933339136,12,29.207477569580078,33.51520089736593,0.6376231172428675,1,4275.219204443978,0.003974096849560738,1.17645005E9,,,,0,,1,,1.17645005E9
Raw,19579421,22612000000,,,-1219930642388495390,0.0,7.285095559539814,,,0,25,0.0,16401,49064925739274,13,29.491527557373047,-311.864054353998,0.6234826255545833,4,-39021.572673957126,3.4028234663852886E38,1.17645005E9,,,,0,,1,,1.17645005E9
Raw,19579421,22612000000,,,-1219930642388495390,0.0,7.285095559539814,,,0,32,0.0,16401,49064929083070,11,30.85243034362793,-45.29536318284761,0.5628858817413676,1,-5363.085583678539,0.0034879245795309544,1.17645005E9,,,,0,,1,,1.17645005E9
NMEA,$GPGSA,A,3,10,12,14,20,21,24,25,31,32,,,,1.6,0.8,1.3*3B
,1535895445906
NMEA,$GNGSA,A,3,10,12,14,20,21,24,25,31,32,,,,1.6,0.8,1.3*25
,1535895445906
NMEA,$GNGSA,A,3,68,69,79,80,,,,,,,,,1.6,0.8,1.3*26
,1535895445906
NMEA,$QZGSA,A,3,01,02,,,,,,,,,,,1.6,0.8,1.3*20
,1535895445906
NMEA,$IMGSA,A,3,,,,,,,,,,,,,1.6,0.8,1.3*2C
,1535895445906
NMEA,$BDGSA,A,3,202,203,206,213,,,,,,,,,1.6,0.8,1.3*2B
,1535895445906
NMEA,$GAGSA,A,3,102,107,108,126,127,130,,,,,,,1.6,0.8,1.3*21
,1535895445907
NMEA,$GPRMC,133727.00,A,3045.145369,N,10356.108829,E,000.5,172.9,020918,,,A*52
,1535895445907
Nav,99,769,1,-1,14,112,64,-123,64,0,0,0,0,0,7,56
Nav,102,769,1,-1,14,112,64,-123,73,-3,-96,-6,15,-71,-57,64
Nav,106,769,1,-1,14,112,64,-123,73,-3,-96,-6,15,-71,-57,64
NMEA,$GPGGA,133728.00,3045.145156,N,10356.108826,E,1,31,0.4,525.3,M,-32.4,M,,*4B
,1535895446907
NMEA,$GPGSV,4,1,12,10,83,020,41,20,61,136,36,32,52,321,38,14,37,293,43*75
,1535895446915
NMEA,$GPGSV,4,2,12,25,35,124,39,31,33,223,48,12,27,074,43,24,17,044,32*7E
,1535895446915
NMEA,$GPGSV,4,3,12,21,16,186,40*42
,1535895446915
NMEA,$GPGSV,4,4,12,10,,,35,32,,,35,25,,,36,8*6C
,1535895446915
NMEA,$GLGSV,1,1,04,79,70,078,33,69,49,357,38,68,43,079,39,80,31,192,40*66
,1535895446916
NMEA,$QZGSV,2,1,04,01,58,119,36,02,57,079,32*6D
,1535895446916
NMEA,$QZGSV,2,2,04,01,,,33,02,,,30,8*75
,1535895446917
NMEA,$BDGSV,1,1,04,206,60,041,32,203,52,168,34,202,48,215,,213,19,201,40*61
,1535895446917
NMEA,$GAGSV,4,1,12,107,62,002,34,130,59,102,36,108,36,083,38,127,36,178,43*65
,1535895446917
NMEA,$GAGSV,4,2,12,102,24,044,38,126,22,249,41*6C
,1535895446917
NMEA,$GAGSV,4,3,12,107,,,33,130,,,34,127,,,36,108,,,33,1*7A
,1535895446917
NMEA,$GAGSV,4,4,12,102,,,34,126,,,22,1*77
,1535895446918
NMEA,$GPGSA,A,3,10,12,14,20,21,24,25,31,32,,,,1.6,0.8,1.3*3B
,1535895446918
NMEA,$GNGSA,A,3,10,12,14,20,21,24,25,31,32,,,,1.6,0.8,1.3*25
,1535895446918
NMEA,$GNGSA,A,3,68,69,79,80,,,,,,,,,1.6,0.8,1.3*26
,1535895446918
Fix,gps,30.752419,103.935147,492.964585,0.040612,4.000000,1535895448000
Raw,19580407,23612000000,,,-1219930642388495012,0.0,7.116940224550057,,,0,10,0.0,16431,49065933338990,17,35.4808464050293,33.37356272867126,0.355516766681351,1,806.3211225570104,0.001528704073280096,1.57542003E9,,,,0,,1,,1.57542003E9
Raw,19580408,23612000000,,,-1219930642388495012,0.0,7.116940224550057,,,0,12,0.0,16431,49065924447822,17,35.71833038330078,99.62410253416937,0.34323806246427435,1,2418.9463908229664,0.09663430965793109,1.57542003E9,,,,0,,1,,1.57542003E9
Raw,19580408,23612000000,,,-1219930642388495012,0.0,7.116940224550057,,,0,14,0.0,16431,49065925392703,22,32.2642936706543,-155.8470255304311,0.4987321809323708,1,-3758.3734941521175,0.0020872512832283974,1.57542003E9,,,,1,,1,,1.57542003E9
Raw,19580408,23612000000,,,-1219930642388495012,0.0,7.116940224550057,,,0,15,0.0,16431,49065914902349,75,17.578529357910156,591.9201108387788,1.1608450076674313,4,13601.393939354924,3.4028234663852886E38,1.57542003E9,,,,1,,1,,1.57542003E9
Raw,19580408,23612000000,,,-1219930642388495012,0.0,7.116940224550057,,,0,18,0.0,16431,49065920433036,57,20.831485748291016,-202.66338650052217,1.0155580191058844,4,-4497.453329430676,3.4028234663852886E38,1.57542003E9,,,,0,,1,,1.57542003E9
Raw,19580408,23612000000,,,-1219930642388495012,0.0,7.116940224550057,,,0,20,0.0,16431,49065931913567,28,29.442434310913086,440.08027901033233,0.6268009387874067,4,10661.937106023011,3.4028234663852886E38,1.57542003E9,,,,0,,1,,1.57542003E9
Raw,19580408,23612000000,,,-1219930642388495012,0.0,7.116940224550057,,,0,21,0.0,16431,49065921068074,13,38.420021057128906,692.9527134918239,0.22113814458421588,1,16828.592748945168,0.0010898447362706065,1.57542003E9,,,,0,,1,,1.57542003E9
Raw,19580409,23612000000,,,-1219930642388495012,0.0,7.116940224550057,,,0,24,0.0,16,23020688719,1000000000,20.71031379699707,766.5578682476157,2.99792458E8,2,579.7122646423177,3.4028234663852886E38,1.57542003E9,,,,0,,1,,1.57542003E9
Raw,19580409,23612000000,,,-1219930642388495012,0.0,7.116940224550057,,,0,25,0.0,16431,49065925740319,13,39.23735809326172,-312.04946291748206,0.18522385587425128,1,-7145.3800591173485,0.0961388047207964,1.57542003E9,,,,0,,1,,1.57542003E9
Raw,19580409,23612000000,,,-1219930642388495012,0.0,7.116940224550057,,,0,31,0.0,16431,49065926303500,9,46.02391052246094,-447.7023773397241,0.15103006554570964,4,-10843.556107060518,3.4028234663852886E38,1.57542003E9,,,,0,,1,,1.57542003E9
Raw,19580409,23612000000,,,-1219930642388495012,0.0,7.116940224550057,,,0,32,0.0,16431,49065929083198,35,26.729312896728516,-46.05948759778195,0.7482978401576488,4,-1031.0115318627848,3.4028234663852886E38,1.57542003E9,,,,0,,1,,1.57542003E9
Raw,19580409,23612000000,,,-1219930642388495012,0.0,7.116940224550057,,,0,10,0.0,16401,49065933339019,12,28.062318801879883,33.25138990295818,0.6891195788953013,1,4308.634354724698,0.004534154664725065,1.17645005E9,,,,0,,1,,1.17645005E9
Raw,19580409,23612000000,,,-1219930642388495012,0.0,7.116940224550057,,,0,25,0.0,16401,49065925740317,9,36.32950973510742,-312.0200838399594,0.3159864757823716,4,-39333.458013188465,3.4028234663852886E38,1.17645005E9,,,,0,,1,,1.17645005E9
Raw,19580410,23612000000,,,-1219930642388495012,0.0,7.116940224550057,,,0,32,0.0,16401,49065929083229,21,28.014780044555664,-45.735712781429385,0.6904917971741318,1,-5408.642297038535,0.004559039603918791,1.17645005E9,,,,0,,1,,1.17645005E9
NMEA,$QZGSA,A,3,01,02,,,,,,,,,,,1.6,0.8,1.3*20
,1535895446918
NMEA,$IMGSA,A,3,,,,,,,,,,,,,1.6,0.8,1.3*2C
,1535895446919
NMEA,$BDGSA,A,3,203,206,213,,,,,,,,,,1.6,0.8,1.3*1B
,1535895446919
NMEA,$GAGSA,A,3,102,107,108,126,127,130,,,,,,,1.6,0.8,1.3*21
,1535895446919
NMEA,$GPRMC,133728.00,A,3045.145156,N,10356.108826,E,000.1,207.0,020918,,,A*50
,1535895446919
NMEA,$GPGGA,133729.00,3045.145221,N,10356.109054,E,1,32,0.4,525.3,M,-32.4,M,,*46
,1535895447907
NMEA,$GPGSV,4,1,12,10,83,020,40,20,61,136,36,32,52,321,37,14,37,293,41*79
,1535895447914
NMEA,$GPGSV,4,2,12,25,35,124,41,31,33,223,48,12,27,074,43,24,17,044,31*72
,1535895447914
NMEA,$GPGSV,4,3,12,21,16,186,40*42
,1535895447914
NMEA,$GPGSV,4,4,12,10,,,34,32,,,34,25,,,36,8*6C
,1535895447914
NMEA,$GLGSV,1,1,04,79,70,078,33,69,49,357,37,68,43,079,41,80,31,192,39*68
,1535895447915
NMEA,$QZGSV,2,1,04,01,58,119,36,02,57,079,32*6D
,1535895447915
NMEA,$QZGSV,2,2,04,01,,,35,02,,,30,8*73
,1535895447915
NMEA,$BDGSV,1,1,04,206,60,041,31,203,52,168,34,202,48,215,,213,19,201,40*62
,1535895447915
NMEA,$GAGSV,4,1,12,107,62,002,32,130,59,102,36,108,36,083,39,127,36,178,43*62
,1535895447915
NMEA,$GAGSV,4,2,12,102,24,044,38,126,22,249,40*6D
,1535895447915
NMEA,$GAGSV,4,3,12,107,,,32,130,,,36,127,,,36,108,,,35,1*7F
,1535895447915
NMEA,$GAGSV,4,4,12,102,,,32,126,,,22,1*71
,1535895447915
Raw,19581411,24612000000,,,-1219930642388494632,0.0,7.017484251360488,,,0,10,0.0,16431,49066933338903,16,36.241363525390625,33.40405161618445,0.32131715171424347,1,839.6822524655506,0.0014005462871864438,1.57542003E9,,,,0,,1,,1.57542003E9
Raw,19581412,24612000000,,,-1219930642388494632,0.0,7.017484251360488,,,0,12,0.0,16431,49066924447483,11,43.130393981933594,99.70198946793812,0.15069621390493615,1,2518.520149282168,0.09581475696814036,1.57542003E9,,,,0,,1,,1.57542003E9
Raw,19581413,24612000000,,,-1219930642388494632,0.0,7.017484251360488,,,0,14,0.0,16431,49066925393227,34,27.33898162841797,-157.01513356283738,0.7202179565880247,4,-3914.175693772763,3.4028234663852886E38,1.57542003E9,,,,1,,1,,1.57542003E9
Raw,19581413,24612000000,,,-1219930642388494632,0.0,7.017484251360488,,,0,15,0.0,16431,49066914900628,47,23.123838424682617,588.9407588193808,0.9114782515282669,4,14191.674180321877,3.4028234663852886E38,1.57542003E9,,,,1,,1,,1.57542003E9
Raw,19581413,24612000000,,,-1219930642388494632,0.0,7.017484251360488,,,0,18,0.0,16431,49066920433654,64,19.454158782958984,-203.07517074023076,1.0774950288949405,4,-4700.4858242607625,3.4028234663852886E38,1.57542003E9,,,,0,,1,,1.57542003E9
Raw,19581414,24612000000,,,-1219930642388494632,0.0,7.017484251360488,,,0,20,0.0,16431,49066931912101,26,30.627578735351562,440.0797677734845,0.5735060284477136,4,11102.053682363645,3.4028234663852886E38,1.57542003E9,,,,0,,1,,1.57542003E9
Raw,19581414,24612000000,,,-1219930642388494632,0.0,7.017484251360488,,,0,21,0.0,16431,49066921065762,14,37.62740707397461,693.0895886372195,0.2567807388678175,1,17521.652460256686,0.0011939754476770759,1.57542003E9,,,,0,,1,,1.57542003E9
Raw,19581414,24612000000,,,-1219930642388494632,0.0,7.017484251360488,,,0,24,0.0,16,24020686166,1000000000,28.48897933959961,766.1865739662562,2.99792458E8,2,579.72282743177,3.4028234663852886E38,1.57542003E9,,,,0,,1,,1.57542003E9
Raw,19581414,24612000000,,,-1219930642388494632,0.0,7.017484251360488,,,0,25,0.0,16431,49066925741360,11,40.69849395751953,-311.8842311682595,0.15092894982020544,1,-7457.38022135705,0.0959852165315186,1.57542003E9,,,,0,,1,,1.57542003E9
Raw,19581414,24612000000,,,-1219930642388494632,0.0,7.017484251360488,,,0,31,0.0,16431,49066926304988,11,40.70381546020508,-447.7271893680727,0.15103033181490122,4,-11291.107384734305,3.4028234663852886E38,1.57542003E9,,,,0,,1,,1.57542003E9
Raw,19581415,24612000000,,,-1219930642388494632,0.0,7.017484251360488,,,0,32,0.0,16431,49066929083347,38,25.86764907836914,-45.75527185116641,0.787045865455402,1,-1076.6736257964935,0.09950603885863697,1.57542003E9,,,,0,,1,,1.57542003E9
Raw,19581415,24612000000,,,-1219930642388494632,0.0,7.017484251360488,,,0,10,0.0,16401,49066933338911,12,28.573049545288086,33.39471515325073,0.6661525963424819,1,4341.992596747261,0.004275233019143343,1.17645005E9,,,,0,,1,,1.17645005E9
Raw,19581415,24612000000,,,-1219930642388494632,0.0,7.017484251360488,,,0,25,0.0,16401,49066925741360,9,35.379058837890625,-311.9348776986524,0.35872740730982744,4,-39645.45193559553,3.4028234663852886E38,1.17645005E9,,,,0,,1,,1.17645005E9
Raw,19581415,24612000000,,,-1219930642388494632,0.0,7.017484251360488,,,0,32,0.0,16401,49066929083379,27,25.433914184570312,-45.776449837588274,0.8065504831427508,1,-5454.4145992408485,0.006136441603302956,1.17645005E9,,,,1,,1,,1.17645005E9
NMEA,$GPGSA,A,3,10,12,14,20,21,24,25,31,32,,,,1.9,0.9,1.6*30
,1535895447915
NMEA,$GNGSA,A,3,10,12,14,20,21,24,25,31,32,,,,1.9,0.9,1.6*2E
,1535895447915
NMEA,$GNGSA,A,3,68,69,79,80,,,,,,,,,1.9,0.9,1.6*2D
,1535895447915
NMEA,$QZGSA,A,3,01,02,,,,,,,,,,,1.9,0.9,1.6*2B
,1535895447915
NMEA,$IMGSA,A,3,,,,,,,,,,,,,1.9,0.9,1.6*27
,1535895447915
NMEA,$BDGSA,A,3,203,206,213,,,,,,,,,,1.9,0.9,1.6*10
,1535895447915
NMEA,$GAGSA,A,3,102,107,108,126,127,130,,,,,,,1.9,0.9,1.6*2A
,1535895447915
NMEA,$GPRMC,133729.00,A,3045.145221,N,10356.109054,E,000.5,046.0,020918,,,A*5D
,1535895447915
Fix,gps,30.752420,103.935151,492.969019,0.257201,4.000000,1535895449000
Nav,99,769,1,-1,15,120,0,0,0,0,0,0,0,0,0,0
Nav,100,769,1,-1,15,123,-119,-92,47,-68,121,-24,-128,96,7,16
Nav,101,769,1,-1,15,120,0,0,0,0,0,0,0,0,0,0
Nav,106,769,1,-1,15,123,-119,-92,47,-68,121,-24,-128,96,7,16
NMEA,$GPGGA,133730.00,3045.145349,N,10356.109058,E,1,29,0.4,525.2,M,-32.4,M,,*46
,1535895448905
NMEA,$GPGSV,4,1,12,10,83,020,40,20,61,136,35,32,52,321,36,14,37,293,40*7A
,1535895448911
NMEA,$GPGSV,4,2,12,25,35,124,41,31,33,223,46,12,27,074,48,24,17,044,39*7F
,1535895448911
NMEA,$GPGSV,4,3,12,21,16,186,39*4C
,1535895448911
NMEA,$GPGSV,4,4,12,10,,,34,32,,,34,25,,,37,8*6D
,1535895448911
NMEA,$GLGSV,1,1,04,79,70,078,33,69,49,357,38,68,43,079,43,80,31,192,38*64
,1535895448911
NMEA,$QZGSV,2,1,04,01,58,119,35,02,57,079,32*6E
,1535895448911
NMEA,$QZGSV,2,2,04,01,,,34,02,,,31,8*73
,1535895448911
NMEA,$BDGSV,1,1,04,206,60,041,31,203,52,168,33,202,48,215,,213,19,201,39*6B
,1535895448912
NMEA,$GAGSV,4,1,12,107,62,002,32,130,59,102,36,108,36,083,44,127,36,178,42*69
,1535895448912
NMEA,$GAGSV,4,2,12,102,24,044,40,126,22,249,39*6C
,1535895448912
NMEA,$GAGSV,4,3,12,107,,,32,130,,,36,127,,,35,108,,,35,1*7C
,1535895448912
NMEA,$GAGSV,4,4,12,102,,,32,126,,,22,1*71
,1535895448912
NMEA,$GPGSA,A,3,10,12,14,20,21,24,25,31,32,,,,1.8,0.9,1.6*31
,1535895448912
NMEA,$GNGSA,A,3,10,12,14,20,21,24,25,31,32,,,,1.8,0.9,1.6*2F
,1535895448912
Raw,19582397,25612000000,,,-1219930642388494252,0.0,6.919895592737352,,,0,10,0.0,16431,49067933338784,14,37.751182556152344,33.52551936107821,0.25342221898706485,1,873.0389785199775,0.0011770814890041947,1.57542003E9,,,,0,,1,,1.57542003E9
Raw,19582397,25612000000,,,-1219930642388494252,0.0,6.919895592737352,,,0,12,0.0,16431,49067924447147,7,48.28163528442383,99.98000006579468,0.15069616397946273,1,2618.270516769804,0.09551595221910415,1.57542003E9,,,,0,,1,,1.57542003E9
Raw,19582397,25612000000,,,-1219930642388494252,0.0,6.919895592737352,,,0,14,0.0,16431,49067925393769,40,25.371538162231445,-155.99928890494675,0.8086917534141751,1,-4070.2535018001213,0.09976227131028449,1.57542003E9,,,,1,,1,,1.57542003E9
Raw,19582397,25612000000,,,-1219930642388494252,0.0,6.919895592737352,,,0,15,0.0,16431,49067914898682,58,20.64141082763672,589.4999837660071,1.0231100124849006,4,14781.063356211982,3.4028234663852886E38,1.57542003E9,,,,1,,1,,1.57542003E9
Raw,19582397,25612000000,,,-1219930642388494252,0.0,6.919895592737352,,,0,18,0.0,16431,49067920434327,80,16.63249397277832,-203.81585068538448,1.2043821506450225,4,-4902.981073808318,3.4028234663852886E38,1.57542003E9,,,,1,,1,,1.57542003E9
Raw,19582397,25612000000,,,-1219930642388494252,0.0,6.919895592737352,,,0,20,0.0,16431,49067931910612,34,27.17300796508789,440.3668102223196,0.7288539318459812,1,11542.282923688228,0.09889776693944609,1.57542003E9,,,,0,,1,,1.57542003E9
Raw,19582398,25612000000,,,-1219930642388494252,0.0,6.919895592737352,,,0,21,0.0,16431,49067921063410,20,33.73744201660156,692.8722788944301,0.4317075989833594,1,18214.50376508395,0.0017616408877074718,1.57542003E9,,,,1,,1,,1.57542003E9
Raw,19582398,25612000000,,,-1219930642388494252,0.0,6.919895592737352,,,0,24,0.0,16,25020683613,1000000000,39.12902069091797,765.6295984617605,2.99792458E8,2,579.6817605521644,3.4028234663852886E38,1.57542003E9,,,,0,,1,,1.57542003E9
Raw,19582398,25612000000,,,-1219930642388494252,0.0,6.919895592737352,,,0,25,0.0,16431,49067925742399,11,40.665679931640625,-311.6891091046664,0.15092913288027465,1,-7769.34465642317,0.09598838989677629,1.57542003E9,,,,0,,1,,1.57542003E9
Raw,19582398,25612000000,,,-1219930642388494252,0.0,6.919895592737352,,,0,31,0.0,16431,49067926306462,24,35.01890563964844,-446.8417271476101,299.79358196416206,4,-11738.22713605236,3.4028234663852886E38,1.57542003E9,,,,1,,1,,1.57542003E9
Raw,19582398,25612000000,,,-1219930642388494252,0.0,6.919895592737352,,,0,32,0.0,16431,49067929083543,20,33.70798873901367,-45.735291011029915,0.434474734989603,1,-1122.4751578149044,0.09702168548301583,1.57542003E9,,,,0,,1,,1.57542003E9
Raw,19582399,25612000000,,,-1219930642388494252,0.0,6.919895592737352,,,0,10,0.0,16401,49067933338797,9,31.399572372436523,33.52039421167859,0.5390470340043538,1,4375.345758314611,0.003087690332904458,1.17645005E9,,,,0,,1,,1.17645005E9
Raw,19582399,25612000000,,,-1219930642388494252,0.0,6.919895592737352,,,0,25,0.0,16401,49067925742396,8,36.83129119873047,-311.7166136470803,0.2934222919491216,4,-39957.44091513197,3.4028234663852886E38,1.17645005E9,,,,0,,1,,1.17645005E9
Raw,19582399,25612000000,,,-1219930642388494252,0.0,6.919895592737352,,,0,32,0.0,16401,49067929083534,17,28.060781478881836,-45.59223842038955,0.68842321839201,1,-5500.13708842101,0.004534957464784384,1.17645005E9,,,,0,,1,,1.17645005E9
NMEA,$GNGSA,A,3,68,69,79,80,,,,,,,,,1.8,0.9,1.6*2C
,1535895448912
NMEA,$QZGSA,A,3,01,02,,,,,,,,,,,1.8,0.9,1.6*2A
,1535895448912
NMEA,$IMGSA,A,3,,,,,,,,,,,,,1.8,0.9,1.6*26
,1535895448912
NMEA,$BDGSA,A,3,203,206,213,,,,,,,,,,1.8,0.9,1.6*11
,1535895448912
NMEA,$GAGSA,A,3,102,107,108,126,127,130,,,,,,,1.8,0.9,1.6*2B
,1535895448912
NMEA,$GPRMC,133730.00,A,3045.145349,N,10356.109058,E,000.2,000.6,020918,,,A*55
,1535895448912
Fix,gps,30.752422,103.935151,492.863450,0.088512,4.000000,1535895450000
Nav,10,257,1,-1,3,34,-61,-31,45,3,-2,75,111,0,13,28,-107,62,-52,80,-72,63,-2,9,-62,12,51,21,-54,7,-78,99,-66,22,-40,38,55,63,-23,-64,-39,23,-1,80,79
Nav,20,257,1,-1,3,34,-61,-31,45,3,-2,75,60,0,2,27,-82,33,-74,-80,-95,63,-12,-119,93,54,-1,-90,-56,7,96,21,72,7,97,-103,15,63,-24,-113,55,10,-65,-84,44
Nav,21,257,1,-1,3,34,-61,-31,45,3,-2,75,111,63,-47,-47,-90,19,-63,-125,-40,0,7,-119,-109,31,-63,-108,-122,6,100,-16,126,39,-119,-98,-71,63,-24,5,14,11,3,21,28
Nav,25,257,1,-1,3,34,-61,-31,45,3,-2,75,60,63,-3,-4,-29,14,-88,-58,-7,0,17,-55,-63,42,88,-42,66,9,108,-56,-40,20,62,18,79,63,-23,30,-118,11,64,-81,-32
NMEA,$GPGGA,133731.00,3045.145428,N,10356.108904,E,1,31,0.6,525.1,M,-32.4,M,,*4E
,1535895449904
NMEA,$GPGSV,4,1,12,10,83,020,40,20,61,136,34,32,52,321,39,14,37,293,39*7A
,1535895449911
NMEA,$GPGSV,4,2,12,25,35,124,40,31,33,223,45,12,27,074,48,24,17,044,39*7D
,1535895449911
NMEA,$GPGSV,4,3,12,21,16,186,38*4D
,1535895449911
NMEA,$GPGSV,4,4,12,10,,,34,32,,,34,25,,,37,8*6D
,1535895449911
NMEA,$GLGSV,1,1,04,79,70,078,32,69,49,357,41,68,43,079,42,80,31,192,37*65
,1535895449911
NMEA,$QZGSV,2,1,04,01,58,119,35,02,57,079,32*6E
,1535895449911
NMEA,$QZGSV,2,2,04,01,,,34,02,,,31,8*73
,1535895449912
