# 
# Header Description:
# 
# Version: v2.0.0.1 Platform: 8.0.0 Manufacturer: HUAWEI Model: VKY-TL00
# 
# Raw,ElapsedRealtimeMillis,TimeNanos,LeapSecond,TimeUncertaintyNanos,FullBiasNanos,BiasNanos,BiasUncertaintyNanos,DriftNanosPerSecond,DriftUncertaintyNanosPerSecond,HardwareClockDiscontinuityCount,Svid,TimeOffsetNanos,State,ReceivedSvTimeNanos,ReceivedSvTimeUncertaintyNanos,Cn0DbHz,PseudorangeRateMetersPerSecond,PseudorangeRateUncertaintyMetersPerSecond,AccumulatedDeltaRangeState,AccumulatedDeltaRangeMeters,AccumulatedDeltaRangeUncertaintyMeters,CarrierFrequencyHz,CarrierCycles,CarrierPhase,CarrierPhaseUncertainty,MultipathIndicator,SnrInDb,ConstellationType,AgcDb,CarrierFrequencyHz
# 
# Fix,Provider,Latitude,Longitude,Altitude,Speed,Accuracy,(UTC)TimeInMs
# 
# Nav,Svid,Type,Status,MessageId,Sub-messageId,Data(Bytes)
# 
Raw,505749610,13093000000,,,-1222339788907024854,0.0,19.028245590685692,,,0,1,0.0,16431,39001930643478,8,41.27898406982422,-451.5416638196491,0.0421657193458794,4,-4521.318943339124,3.4028234663852886E38,,,,,0,,1,,
Raw,505749611,13093000000,,,-1222339788907024854,0.0,19.028245590685692,,,0,3,0.0,16431,39001919771960,10,39.14106750488281,-824.5441238176122,0.05504079998480735,4,-9071.51435994538,3.4028234663852886E38,,,,,0,,1,,
Raw,505749612,13093000000,,,-1222339788907024854,0.0,19.028245590685692,,,0,8,0.0,16431,39001928629637,8,40.93135452270508,359.5285061309744,0.04344711486764288,4,3580.2952778422627,3.4028234663852886E38,,,,,0,,1,,
Raw,505749613,13093000000,,,-1222339788907024854,0.0,19.028245590685692,,,0,10,0.0,16,3059798,1000000000,7.5616302490234375,481.24674003895234,2.99792458E8,4,3354.8454290099353,3.4028234663852886E38,,,,,1,,1,,
Raw,505749614,13093000000,,,-1222339788907024854,0.0,19.028245590685692,,,0,11,0.0,16431,39001932616983,12,37.38987350463867,-304.8876822458874,0.06525413729188576,4,-3365.0228745507147,3.4028234663852886E38,,,,,0,,1,,
Raw,505749614,13093000000,,,-1222339788907024854,0.0,19.028245590685692,,,0,14,0.0,16431,39001921217956,60,23.830917358398438,-578.6951633991457,0.3002613495676705,4,-6375.508720997338,3.4028234663852886E38,,,,,0,,1,,
Raw,505749615,13093000000,,,-1222339788907024854,0.0,19.028245590685692,,,0,18,0.0,16431,39001934009346,9,40.066871643066406,-118.06916161790673,0.048799029927999726,4,-1189.4438460089239,3.4028234663852886E38,,,,,0,,1,,
Raw,505749615,13093000000,,,-1222339788907024854,0.0,19.028245590685692,,,0,22,0.0,16431,39001925312638,12,37.615230560302734,-650.4927209907937,0.06232711911746408,4,-7160.206548582071,3.4028234663852886E38,,,,,0,,1,,
Raw,505749616,13093000000,,,-1222339788907024854,0.0,19.028245590685692,,,0,27,0.0,16431,39001921017473,62,22.429340362548828,599.6992270453711,4.200182949353145,4,5979.579641732105,3.4028234663852886E38,,,,,0,,1,,
Raw,505749616,13093000000,,,-1222339788907024854,0.0,19.028245590685692,,,0,28,0.0,16431,39001924782674,21,32.83700942993164,-216.529339741208,0.1072446764724393,4,-1736.172068755951,3.4028234663852886E38,,,,,0,,1,,
Raw,505749617,13093000000,,,-1222339788907024854,0.0,19.028245590685692,,,0,32,0.0,16431,39001923627763,45,26.421072006225586,-358.0433290055364,0.22332927376176437,4,-3587.2586867692376,3.4028234663852886E38,,,,,0,,1,,
Raw,505749617,13093000000,,,-1222339788907024854,0.0,19.028245590685692,,,0,2,0.0,99,1932105824,33,36.23994827270508,-649.3596156412364,0.0740779529831368,4,-6494.347908668902,3.4028234663852886E38,,,,,0,,3,,
Raw,505749618,13093000000,,,-1222339788907024854,0.0,19.028245590685692,,,0,18,0.0,17,894194,166,15.522929191589355,-712.2729674559964,4.201600300259949,4,-2842.909282281727,3.4028234663852886E38,,,,,1,,3,,
Raw,505749618,13093000000,,,-1222339788907024854,0.0,19.028245590685692,,,0,1,0.0,99,1931720478,80,27.38530731201172,272.90765317737134,0.2013879767767528,4,1896.337474952129,3.4028234663852886E38,,,,,0,,3,,
Raw,505749619,13093000000,,,-1222339788907024854,0.0,19.028245590685692,,,0,24,0.0,99,1929049136,85,26.888578414916992,493.543213197991,0.21263606944597735,4,1967.4362074648975,3.4028234663852886E38,,,,,0,,3,,
Raw,505749619,13093000000,,,-1222339788907024854,0.0,19.028245590685692,,,0,17,0.0,99,1936190213,48,31.805095672607422,-118.34207688851313,0.12271691352243308,4,-1195.3299526251399,3.4028234663852886E38,,,,,0,,3,,
Raw,505750576,14093000000,,,-1222339788907025177,0.0,18.117150366348454,,,0,1,0.0,16431,39002930644988,7,41.521400451660156,-451.2054403860516,0.041058143520291024,4,-4972.703361177693,3.4028234663852886E38,,,,,0,,1,,
Raw,505750577,14093000000,,,-1222339788907025177,0.0,18.117150366348454,,,0,3,0.0,16431,39002919774689,13,37.035057067871094,-824.3826411386071,0.06916779099298692,4,-9895.951911946018,3.4028234663852886E38,,,,,0,,1,,
Raw,505750577,14093000000,,,-1222339788907025177,0.0,18.117150366348454,,,0,8,0.0,16431,39002928628429,8,41.25965118408203,359.72386677176314,0.04189295568229395,4,3939.961565667705,3.4028234663852886E38,,,,,0,,1,,
Raw,505750578,14093000000,,,-1222339788907025177,0.0,18.117150366348454,,,0,10,0.0,16,3058190,1000000000,8.868635177612305,481.2309939440388,2.99792458E8,4,3835.965431611803,3.4028234663852886E38,,,,,1,,1,,
Raw,505750578,14093000000,,,-1222339788907025177,0.0,18.117150366348454,,,0,11,0.0,16431,39002932618009,15,35.68304443359375,-304.66498747496735,0.07893095030621838,4,-3669.7814669124723,3.4028234663852886E38,,,,,0,,1,,
Raw,505750578,14093000000,,,-1222339788907025177,0.0,18.117150366348454,,,0,14,0.0,16431,39002921219808,55,24.53534507751465,-578.7766886351483,0.2768888223942435,4,-6954.486482197181,3.4028234663852886E38,,,,,0,,1,,
Raw,505750579,14093000000,,,-1222339788907025177,0.0,18.117150366348454,,,0,18,0.0,16431,39002934009729,10,38.9589729309082,-117.84715701673127,0.0550950564930488,4,-1307.3748760732312,3.4028234663852886E38,,,,,0,,1,,
Raw,505750579,14093000000,,,-1222339788907025177,0.0,18.117150366348454,,,0,22,0.0,16431,39002925314820,12,37.54460144042969,-650.2186980403503,0.06282858305388386,1,-7810.537139736048,0.0012054124381393194,,,,,0,,1,,
Raw,505750579,14093000000,,,-1222339788907025177,0.0,18.117150366348454,,,0,27,0.0,16431,39002921015524,56,24.394054412841797,600.4020754637845,0.28138932091222846,4,6579.627883139339,3.4028234663852886E38,,,,,0,,1,,
Raw,505750580,14093000000,,,-1222339788907025177,0.0,18.117150366348454,,,0,28,0.0,16431,39002924783396,22,32.343013763427734,-216.3653008779637,0.11347059935189152,4,-1952.5820159979212,3.4028234663852886E38,,,,,0,,1,,
Raw,505750580,14093000000,,,-1222339788907025177,0.0,18.117150366348454,,,0,32,0.0,16431,39002923628844,45,26.252843856811523,-357.7513446005055,0.22768428945019736,4,-3945.168376976511,3.4028234663852886E38,,,,,0,,1,,
Raw,505750581,14093000000,,,-1222339788907025177,0.0,18.117150366348454,,,0,2,0.0,99,932107979,33,37.88285446166992,-649.0982713646194,0.061687407384682424,4,-7143.592904763952,3.4028234663852886E38,,,,,0,,3,,
Raw,505750581,14093000000,,,-1222339788907025177,0.0,18.117150366348454,,,0,18,0.0,17,896603,166,15.647892951965332,-712.0909671381646,4.201600566529141,4,-3554.6755564666378,3.4028234663852886E38,,,,,1,,3,,
Raw,505750581,14093000000,,,-1222339788907025177,0.0,18.117150366348454,,,0,1,0.0,99,931719637,79,27.483266830444336,273.173087348771,0.1991529631080663,4,2169.3668779335962,3.4028234663852886E38,,,,,0,,3,,
Raw,505750582,14093000000,,,-1222339788907025177,0.0,18.117150366348454,,,0,24,0.0,99,929047540,74,28.124128341674805,493.7350292633014,0.18465735152733087,4,2461.099218385239,3.4028234663852886E38,,,,,0,,3,,
Raw,505750582,14093000000,,,-1222339788907025177,0.0,18.117150366348454,,,0,17,0.0,99,936190637,47,31.974246978759766,-118.06523361479248,0.12040644582158133,4,-1313.5189689493259,3.4028234663852886E38,,,,,0,,3,,
Raw,505751585,15093000000,,,-1222339788907025501,0.0,17.241602512748205,,,0,1,0.0,16431,39003930646503,8,41.395790100097656,-451.13008407467964,0.04162860862143625,4,-5423.882907214752,3.4028234663852886E38,,,,,0,,1,,
Raw,505751586,15093000000,,,-1222339788907025501,0.0,17.241602512748205,,,0,3,0.0,16431,39003919777465,20,33.24140548706055,-824.2388131720809,0.10510235776607313,4,-10720.227532273313,3.4028234663852886E38,,,,,0,,1,,
Raw,505751586,15093000000,,,-1222339788907025501,0.0,17.241602512748205,,,0,8,0.0,16431,39003928627233,7,41.84380340576172,359.97161214822745,0.03926891440379032,4,4299.872413976382,3.4028234663852886E38,,,,,0,,1,,
Raw,505751587,15093000000,,,-1222339788907025501,0.0,17.241602512748205,,,0,10,0.0,16,3056552,1000000000,11.808683395385742,481.88060556536357,2.99792458E8,4,4318.085000684598,3.4028234663852886E38,,,,,1,,1,,
Raw,505751588,15093000000,,,-1222339788907025501,0.0,17.241602512748205,,,0,11,0.0,16431,39003932619020,14,36.393760681152344,-304.4237859301554,0.07290815753629615,4,-3974.271179309436,3.4028234663852886E38,,,,,0,,1,,
Raw,505751588,15093000000,,,-1222339788907025501,0.0,17.241602512748205,,,0,14,0.0,16431,39003921221799,51,25.32587242126465,-578.8854798363691,0.25282060039050425,4,-7533.223825094521,3.4028234663852886E38,,,,,0,,1,,
Raw,505751588,15093000000,,,-1222339788907025501,0.0,17.241602512748205,,,0,18,0.0,16431,39003934010141,11,38.208038330078125,-117.6180973470556,0.059842773474051564,1,-1425.047144929279,0.0011167700868099928,,,,,0,,1,,
Raw,505751588,15093000000,,,-1222339788907025501,0.0,17.241602512748205,,,0,22,0.0,16431,39003925316973,11,38.51909637451172,-650.0737794352153,0.05626256784948039,4,-8460.682671244103,3.4028234663852886E38,,,,,0,,1,,
Raw,505751589,15093000000,,,-1222339788907025501,0.0,17.241602512748205,,,0,27,0.0,16431,39003921013488,40,27.311845779418945,600.2182346933005,0.20115452526303113,4,7179.8157170963,3.4028234663852886E38,,,,,0,,1,,
Raw,505751589,15093000000,,,-1222339788907025501,0.0,17.241602512748205,,,0,28,0.0,16431,39003924784130,20,33.40098190307617,-216.17072413367498,0.10055691800109606,4,-2168.746463377025,3.4028234663852886E38,,,,,0,,1,,
Raw,505751589,15093000000,,,-1222339788907025501,0.0,17.241602512748205,,,0,32,0.0,16431,39003923630154,42,27.00381088256836,-357.5484858192817,0.20888035914050307,4,-4302.829805138766,3.4028234663852886E38,,,,,0,,1,,
Raw,505751590,15093000000,,,-1222339788907025501,0.0,17.241602512748205,,,0,2,0.0,99,1932110135,33,38.52947998046875,-648.8663061655252,0.057418467372885224,4,-7792.55981775924,3.4028234663852886E38,,,,,0,,3,,
Raw,505751590,15093000000,,,-1222339788907025501,0.0,17.241602512748205,,,0,18,0.0,17,898989,166,19.09178924560547,-711.613403757367,4.201601099067524,4,-4266.984678035236,3.4028234663852886E38,,,,,1,,3,,
Raw,505751591,15093000000,,,-1222339788907025501,0.0,17.241602512748205,,,0,1,0.0,99,1931718659,50,31.38051986694336,273.3869206809951,0.1279142717984435,1,2442.715104381498,0.0022716678213328123,,,,,0,,3,,
Raw,505751591,15093000000,,,-1222339788907025501,0.0,17.241602512748205,,,0,24,0.0,99,1929045834,54,30.71713638305664,493.9851604117223,0.13741838447191224,4,2954.9961562965304,3.4028234663852886E38,,,,,0,,3,,
Raw,505751592,15093000000,,,-1222339788907025501,0.0,17.241602512748205,,,0,17,0.0,99,1936191007,34,34.76136016845703,-117.79086131916972,0.08815572995589055,4,-1431.456352454016,3.4028234663852886E38,,,,,0,,3,,
Raw,505752616,16093000000,,,-1222339788907025824,0.0,16.56913863798686,,,0,1,0.0,16431,39004930647995,8,41.33131408691406,-450.82634122214836,0.04192476236931994,4,-5874.825821049381,3.4028234663852886E38,,,,,0,,1,,
Raw,505752616,16093000000,,,-1222339788907025824,0.0,16.56913863798686,,,0,3,0.0,16431,39004919780190,26,31.030296325683594,-824.022253243335,0.13454054704926743,1,-11544.32283082223,0.0024058835115283728,,,,,0,,1,,
Raw,505752617,16093000000,,,-1222339788907025824,0.0,16.56913863798686,,,0,8,0.0,16431,39004928626024,7,42.24443054199219,360.26509618134537,0.03756856095089317,4,4660.005956271123,3.4028234663852886E38,,,,,0,,1,,
Raw,505752617,16093000000,,,-1222339788907025824,0.0,16.56913863798686,,,0,10,0.0,16,3054881,1000000000,12.397224426269531,481.3928174476091,2.99792458E8,4,4798.964213424626,3.4028234663852886E38,,,,,0,,1,,
Raw,505752617,16093000000,,,-1222339788907025824,0.0,16.56913863798686,,,0,11,0.0,16431,39004932620045,14,36.468544006347656,-304.09141381414497,0.07230280285014112,1,-4278.514518920904,0.0013643900165334344,,,,,0,,1,,
Raw,505752618,16093000000,,,-1222339788907025824,0.0,16.56913863798686,,,0,14,0.0,16431,39004921223642,54,24.735328674316406,-578.5295908253579,0.2705922050444256,4,-8111.728790367122,3.4028234663852886E38,,,,,0,,1,,
Raw,505752618,16093000000,,,-1222339788907025824,0.0,16.56913863798686,,,0,18,0.0,16431,39004934010529,12,37.87186813354492,-117.2941776802628,0.06210487587252567,1,-1542.471297242869,0.00116083980537951,,,,,0,,1,,
Raw,505752618,16093000000,,,-1222339788907025824,0.0,16.56913863798686,,,0,22,0.0,16431,39004925319139,10,39.30131912231445,-649.7860553372498,0.05149994811466113,4,-9110.6087788559,3.4028234663852886E38,,,,,0,,1,,
Raw,505752619,16093000000,,,-1222339788907025824,0.0,16.56913863798686,,,0,27,0.0,16431,39004921011496,41,27.194263458251953,600.5026187105268,0.203893270316722,4,7780.195030076742,3.4028234663852886E38,,,,,0,,1,,
Raw,505752620,16093000000,,,-1222339788907025824,0.0,16.56913863798686,,,0,28,0.0,16431,39004924784846,20,33.305458068847656,-215.76950545548846,0.10165952208162282,4,-2384.6538700498086,3.4028234663852886E38,,,,,0,,1,,
Raw,505752620,16093000000,,,-1222339788907025824,0.0,16.56913863798686,,,0,32,0.0,16431,39004923631293,42,26.971908569335938,-357.32129216410067,0.2096467650830055,4,-4660.243868060768,3.4028234663852886E38,,,,,0,,1,,
Raw,505752621,16093000000,,,-1222339788907025824,0.0,16.56913863798686,,,0,2,0.0,99,932112289,33,38.871971130371094,-648.5637221165157,0.055283071665500255,4,-8441.261183473247,3.4028234663852886E38,,,,,0,,3,,
Raw,505752621,16093000000,,,-1222339788907025824,0.0,16.56913863798686,,,0,18,0.0,17,901426,166,19.7216854095459,-711.7720916749372,4.201601365336716,4,-4978.717396769359,3.4028234663852886E38,,,,,1,,3,,
Raw,505752621,16093000000,,,-1222339788907025824,0.0,16.56913863798686,,,0,1,0.0,99,931717759,46,32.18354034423828,273.80601560762784,0.11680459750428168,1,2716.3596628006503,0.0020710655953735113,,,,,0,,3,,
Raw,505752622,16093000000,,,-1222339788907025824,0.0,16.56913863798686,,,0,24,0.0,99,929044239,50,31.452743530273438,494.19711920883765,0.12639145332903529,4,3449.0913814204987,3.4028234663852886E38,,,,,0,,3,,
Raw,505752622,16093000000,,,-1222339788907025824,0.0,16.56913863798686,,,0,17,0.0,99,936191427,33,35.263938903808594,-117.57354305576615,0.08336350857578811,4,-1549.1486176460426,3.4028234663852886E38,,,,,0,,3,,
Raw,505752622,16093000000,,,-1222339788907025824,0.0,16.56913863798686,,,0,3,0.0,17,350815,81,27.32839584350586,-967.3687028238405,0.20227170758179713,6,-976.3624361499819,3.4028234663852886E38,,,,,0,,3,,
Raw,505753579,17093000000,,,-1222339788907026147,0.0,16.017536459954332,,,0,1,0.0,16431,39005930649499,8,41.217403411865234,-450.68002523629593,0.042453198542756004,4,-6325.55506850212,3.4028234663852886E38,,,,,0,,1,,
Raw,505753580,17093000000,,,-1222339788907026147,0.0,16.017536459954332,,,0,3,0.0,16431,39005919782967,35,28.561857223510742,-823.5952000631041,0.17759304681452603,4,-12368.259774583303,3.4028234663852886E38,,,,,0,,1,,
Raw,505753580,17093000000,,,-1222339788907026147,0.0,16.017536459954332,,,0,8,0.0,16431,39005928624823,7,42.11884689331055,360.37910199841417,0.038092869951859676,4,5020.349134462701,3.4028234663852886E38,,,,,0,,1,,
Raw,505753581,17093000000,,,-1222339788907026147,0.0,16.017536459954332,,,0,10,0.0,16,3053315,1000000000,12.544118881225586,481.86431415114566,2.99792458E8,4,5281.074203195119,3.4028234663852886E38,,,,,0,,1,,
Raw,505753581,17093000000,,,-1222339788907026147,0.0,16.017536459954332,,,0,11,0.0,16431,39005932621058,14,36.22072219848633,-303.9683079811846,0.07432988524293688,1,-4582.525832318048,0.0014038787921890616,,,,,0,,1,,
Raw,505753581,17093000000,,,-1222339788907026147,0.0,16.017536459954332,,,0,14,0.0,16431,39005921225627,59,23.997310638427734,-578.2079887656087,0.294569679179308,4,-8689.439866247076,3.4028234663852886E38,,,,,0,,1,,
Raw,505753582,17093000000,,,-1222339788907026147,0.0,16.017536459954332,,,0,18,0.0,16431,39005934010916,12,37.51060104370117,-117.13064153325223,0.06463547330660763,1,-1659.6596816041429,0.001210140297189355,,,,,0,,1,,
Raw,505753582,17093000000,,,-1222339788907026147,0.0,16.017536459954332,,,0,22,0.0,16431,39005925321318,10,38.87288284301758,-649.6776049605942,0.05405590768924151,4,-9760.341275740637,3.4028234663852886E38,,,,,0,,1,,
Raw,505753584,17093000000,,,-1222339788907026147,0.0,16.017536459954332,,,0,27,0.0,16431,39005921009494,38,27.881460189819336,600.5811446903554,0.1883970690394856,4,8380.716019079102,3.4028234663852886E38,,,,,0,,1,,
Raw,505753584,17093000000,,,-1222339788907026147,0.0,16.017536459954332,,,0,28,0.0,16431,39005924785558,20,33.41495132446289,-215.5494691161772,0.10039697342607617,4,-2600.314641726801,3.4028234663852886E38,,,,,0,,1,,
Raw,505753585,17093000000,,,-1222339788907026147,0.0,16.017536459954332,,,0,32,0.0,16431,39005923632485,43,26.78213882446289,-357.1609001237043,0.21426330704304786,4,-5017.411990804802,3.4028234663852886E38,,,,,0,,1,,
Raw,505753585,17093000000,,,-1222339788907026147,0.0,16.017536459954332,,,0,2,0.0,99,1932114464,33,38.48400115966797,-648.38342592151,0.05770923749055157,4,-9089.704606511805,3.4028234663852886E38,,,,,0,,3,,
Raw,505753586,17093000000,,,-1222339788907026147,0.0,16.017536459954332,,,0,18,0.0,17,903813,166,19.552827835083008,-711.504271731581,4.201601897875099,4,-5690.106110480467,3.4028234663852886E38,,,,,1,,3,,
Raw,505753586,17093000000,,,-1222339788907026147,0.0,16.017536459954332,,,0,1,0.0,99,1931716869,47,32.02204513549805,274.00752813181896,0.11895691794715674,1,2990.2792138591694,0.0021099327132105827,,,,,0,,3,,
Raw,505753586,17093000000,,,-1222339788907026147,0.0,16.017536459954332,,,0,24,0.0,99,1929042592,50,31.519773483276367,494.3509333351251,0.1254320438271953,4,3943.387377172718,3.4028234663852886E38,,,,,0,,3,,
Raw,505753587,17093000000,,,-1222339788907026147,0.0,16.017536459954332,,,0,17,0.0,99,1936191780,33,35.22813415527344,-117.43803120863146,0.0836958541314467,4,-1666.5895674709827,3.4028234663852886E38,,,,,0,,3,,
Raw,505753587,17093000000,,,-1222339788907026147,0.0,16.017536459954332,,,0,3,0.0,65,1919354056,82,27.199331283569336,-967.3727927186233,0.20707388909384727,4,-18.383276409810946,3.4028234663852886E38,,,,,0,,3,,
Raw,505754602,18093000000,,,-1222339788907026469,0.0,15.531091472052942,,,0,1,0.0,16431,39006930651015,8,41.233306884765625,-450.4968320324858,0.042379313002547436,4,-6776.113304887138,3.4028234663852886E38,,,,,0,,1,,
Raw,505754603,18093000000,,,-1222339788907026469,0.0,15.531091472052942,,,0,3,0.0,16431,39006919785710,39,27.50348663330078,-823.784834851197,0.20014563129611762,4,-13192.080750960109,3.4028234663852886E38,,,,,0,,1,,
Raw,505754604,18093000000,,,-1222339788907026469,0.0,15.531091472052942,,,0,8,0.0,16431,39006928623631,7,42.40678787231445,360.63069869246556,0.036901144740818376,4,5380.879717392154,3.4028234663852886E38,,,,,0,,1,,
Raw,505754604,18093000000,,,-1222339788907026469,0.0,15.531091472052942,,,0,10,0.0,17,51677,109,13.263076782226562,482.19406191800385,4.200549069491574,4,5763.731138987041,3.4028234663852886E38,,,,,0,,1,,
Raw,505754604,18093000000,,,-1222339788907026469,0.0,15.531091472052942,,,0,11,0.0,16431,39006932622066,14,36.55876922607422,-303.71170116602434,0.07157944098664076,1,-4886.324333995995,0.0013502907240763307,,,,,0,,1,,
Raw,505754604,18093000000,,,-1222339788907026469,0.0,15.531091472052942,,,0,14,0.0,16431,39006921227478,65,23.211410522460938,-577.6738485069832,0.32244473517330574,4,-9267.655593474294,3.4028234663852886E38,,,,,0,,1,,
Raw,505754605,18093000000,,,-1222339788907026469,0.0,15.531091472052942,,,0,18,0.0,16431,39006934011295,12,37.71949005126953,-116.86091297233071,0.06315954317765499,1,-1776.6348230270253,0.00118138431571424,,,,,0,,1,,
Raw,505754605,18093000000,,,-1222339788907026469,0.0,15.531091472052942,,,0,22,0.0,16431,39006925323480,10,38.75556945800781,-649.4671117091093,0.05477833345011521,4,-10409.909261483,3.4028234663852886E38,,,,,0,,1,,
Raw,505754605,18093000000,,,-1222339788907026469,0.0,15.531091472052942,,,0,27,0.0,16431,39006921007519,37,27.959766387939453,600.7541472396651,0.18670752445158434,4,8981.377366177447,3.4028234663852886E38,,,,,0,,1,,
Raw,505754606,18093000000,,,-1222339788907026469,0.0,15.531091472052942,,,0,28,0.0,16431,39006924786294,19,33.536842346191406,-215.3443268103664,0.09901002713258616,4,-2815.770045695375,3.4028234663852886E38,,,,,0,,1,,
Raw,505754606,18093000000,,,-1222339788907026469,0.0,15.531091472052942,,,0,32,0.0,16431,39006923633734,42,27.0025634765625,-356.88050375389116,0.20891093017206186,4,-5374.361871566578,3.4028234663852886E38,,,,,0,,1,,
Raw,505754606,18093000000,,,-1222339788907026469,0.0,15.531091472052942,,,0,2,0.0,99,932116611,33,38.56765365600586,-648.0823415005875,0.05717738142218609,1,-9737.91738217626,0.0010551819577813148,,,,,0,,3,,
Raw,505754607,18093000000,,,-1222339788907026469,0.0,15.531091472052942,,,0,18,0.0,17,906167,166,19.737857818603516,-711.6658225754991,4.201602430413482,4,-6401.3418214372505,3.4028234663852886E38,,,,,1,,3,,
Raw,505754607,18093000000,,,-1222339788907026469,0.0,15.531091472052942,,,0,1,0.0,99,931715974,45,32.39225387573242,274.27364395234906,0.11408108804089678,1,3264.439989507673,0.0020218926947563887,,,,,0,,3,,
Raw,505754607,18093000000,,,-1222339788907026469,0.0,15.531091472052942,,,0,24,0.0,99,929040900,50,31.38571548461914,494.57931987628444,0.12735735314242014,1,4437.855183266743,0.0022695132065564394,,,,,0,,3,,
Raw,505754607,18093000000,,,-1222339788907026469,0.0,15.531091472052942,,,0,17,0.0,99,936192176,33,35.76125717163086,-117.06647278823391,0.07888674129950313,1,-1783.8055829252382,0.0014535407535731792,,,,,0,,3,,
Raw,505754608,18093000000,,,-1222339788907026469,0.0,15.531091472052942,,,0,3,0.0,65,919357221,80,27.422016143798828,-967.2145137905313,0.2019211641910762,4,-985.6883667084054,3.4028234663852886E38,,,,,0,,3,,
Raw,505755600,19093000000,,,-1222339788907026788,0.0,14.36141135364584,,,0,1,0.0,16431,39007930652518,8,40.69565200805664,-450.30695866719725,0.04496340142094504,4,-7226.483210521766,3.4028234663852886E38,,,,,0,,1,,
Raw,505755601,19093000000,,,-1222339788907026788,0.0,14.36141135364584,,,0,3,0.0,16431,39007919788506,41,27.149307250976562,-823.6507544672363,0.2083278672097898,4,-14015.779265008596,3.4028234663852886E38,,,,,0,,1,,
Raw,505755601,19093000000,,,-1222339788907026788,0.0,14.36141135364584,,,0,8,0.0,16431,39007928622417,7,42.27992248535156,360.7794686151876,0.03742102701647479,4,5741.5977406752145,3.4028234663852886E38,,,,,0,,1,,
Raw,505755602,19093000000,,,-1222339788907026788,0.0,14.36141135364584,,,0,10,0.0,17,50079,107,13.678279876708984,482.4431705927291,4.200548536953191,4,6246.1294570684395,3.4028234663852886E38,,,,,0,,1,,
Raw,505755602,19093000000,,,-1222339788907026788,0.0,14.36141135364584,,,0,11,0.0,16431,39007932623077,13,36.63644027709961,-303.47114718788634,0.07096262008342313,1,-5189.908043110486,0.0013382697943598032,,,,,0,,1,,
Raw,505755603,19093000000,,,-1222339788907026788,0.0,14.36141135364584,,,0,14,0.0,16431,39007921229406,59,22.920392990112305,-577.824561129727,4.2002212921167335,4,-9845.664658426409,3.4028234663852886E38,,,,,0,,1,,
Raw,505755603,19093000000,,,-1222339788907026788,0.0,14.36141135364584,,,0,18,0.0,16431,39007934011700,12,37.65130615234375,-116.69879976787996,0.06363750469746132,1,-1893.4035940389895,0.001190694747492671,,,,,0,,1,,
Raw,505755603,19093000000,,,-1222339788907026788,0.0,14.36141135364584,,,0,22,0.0,16431,39007925325637,10,38.905517578125,-649.3189211881481,0.053857553783335566,4,-11059.30757162046,3.4028234663852886E38,,,,,0,,1,,
Raw,505755604,19093000000,,,-1222339788907026788,0.0,14.36141135364584,,,0,27,0.0,16431,39007921005470,37,27.992019653320312,600.8290604791023,0.18601580701732134,1,9582.163567151758,0.0034134103916585445,,,,,0,,1,,
Raw,505755604,19093000000,,,-1222339788907026788,0.0,14.36141135364584,,,0,28,0.0,16431,39007924787025,19,33.468997955322266,-215.1133500025113,0.09977977808180788,4,-3031.009867001825,3.4028234663852886E38,,,,,0,,1,,
Raw,505755604,19093000000,,,-1222339788907026788,0.0,14.36141135364584,,,0,32,0.0,16431,39007923634911,44,26.454729080200195,-356.6735891603412,0.22246932412389342,4,-5731.10303886647,3.4028234663852886E38,,,,,0,,1,,
Raw,505755605,19093000000,,,-1222339788907026788,0.0,14.36141135364584,,,0,2,0.0,99,1932118782,33,38.8506965637207,-647.9013636564514,0.055414471351091066,1,-10385.900759385615,0.0010213513160124421,,,,,0,,3,,
Raw,505755606,19093000000,,,-1222339788907026788,0.0,14.36141135364584,,,0,18,0.0,17,908549,166,20.86066436767578,-711.6663678948034,4.201602696682674,4,-7112.413998464969,3.4028234663852886E38,,,,,1,,3,,
Raw,505755607,19093000000,,,-1222339788907026788,0.0,14.36141135364584,,,0,1,0.0,99,1931715062,47,31.971172332763672,274.5210314630199,0.11964300212383527,1,3538.854791146725,0.002122326288372278,,,,,0,,3,,
Raw,505755607,19093000000,,,-1222339788907026788,0.0,14.36141135364584,,,0,24,0.0,99,1929039284,50,31.453765869140625,494.6947571565272,0.12637585993950312,1,4932.49655259145,0.002251801546663046,,,,,0,,3,,
Raw,505755608,19093000000,,,-1222339788907026788,0.0,14.36141135364584,,,0,17,0.0,99,1936192569,33,35.52232360839844,-116.9380074889853,0.08100571984704447,1,-1900.8149696632402,0.0014940801775082946,,,,,0,,3,,
Raw,505755608,19093000000,,,-1222339788907026788,0.0,14.36141135364584,,,0,3,0.0,99,1919360423,80,27.408702850341797,-967.173683007617,0.20222615890821172,4,-1952.8874185404952,3.4028234663852886E38,,,,,0,,3,,
Raw,505756581,20093000000,,,-1222339788907027107,0.0,13.177859187546103,,,0,1,0.0,16431,39008930654021,8,41.01805877685547,-450.14857749173575,0.04339511332661766,1,-7676.697662044541,8.518078248016536E-4,,,,,0,,1,,
Raw,505756582,20093000000,,,-1222339788907027107,0.0,13.177859187546103,,,0,3,0.0,16431,39008919791203,41,27.178752899169922,-823.5821123997994,0.20763536760977652,4,-14839.379588820391,3.4028234663852886E38,,,,,0,,1,,
Raw,505756583,20093000000,,,-1222339788907027107,0.0,13.177859187546103,,,0,8,0.0,16431,39008928621222,7,42.42047882080078,360.91859320271374,0.03684502850869195,1,6102.471281356854,7.248040055856109E-4,,,,,0,,1,,
Raw,505756583,20093000000,,,-1222339788907027107,0.0,13.177859187546103,,,0,10,0.0,17,48474,104,14.232860565185547,482.67816913045385,4.200548270683999,4,6727.99566334932,3.4028234663852886E38,,,,,0,,1,,
Raw,505756583,20093000000,,,-1222339788907027107,0.0,13.177859187546103,,,0,11,0.0,16431,39008932624083,13,36.883846282958984,-303.3160038457945,0.06903379518277816,1,-5493.321664358379,0.0013006890658289194,,,,,0,,1,,
Raw,505756584,20093000000,,,-1222339788907027107,0.0,13.177859187546103,,,0,14,0.0,16431,39008921231363,65,21.93822479248047,-578.233891432566,4.200221558385925,4,-10423.526544553488,3.4028234663852886E38,,,,,0,,1,,
Raw,505756584,20093000000,,,-1222339788907027107,0.0,13.177859187546103,,,0,18,0.0,16431,39008934012073,12,37.852882385253906,-116.53281820461387,0.06223553499692738,1,-2009.9921285406774,0.0011633798712864518,,,,,0,,1,,
Raw,505756584,20093000000,,,-1222339788907027107,0.0,13.177859187546103,,,0,22,0.0,16431,39008925327808,10,39.23369598388672,-649.215719509797,0.05189652279187723,1,-11708.573945993345,9.923866018652916E-4,,,,,0,,1,,
Raw,505756585,20093000000,,,-1222339788907027107,0.0,13.177859187546103,,,0,27,0.0,16431,39008921003505,36,28.30787467956543,600.8396942055374,0.17937914726802562,1,10183.045361592986,0.0032915144693106413,,,,,0,,1,,
Raw,505756585,20093000000,,,-1222339788907027107,0.0,13.177859187546103,,,0,28,0.0,16431,39008924787722,19,33.865501403808594,-214.95841115515861,0.09536587529747353,1,-3246.0654215417276,0.0018411562778055668,,,,,0,,1,,
Raw,505756585,20093000000,,,-1222339788907027107,0.0,13.177859187546103,,,0,32,0.0,16431,39008923636096,42,26.971696853637695,-356.43116064709443,0.20965270621434273,1,-6087.644526546252,0.003838880453258753,,,,,0,,1,,
Raw,505756586,20093000000,,,-1222339788907027107,0.0,13.177859187546103,,,0,2,0.0,99,932120949,33,38.43467712402344,-647.7322465071852,0.05802662620646412,1,-11033.684047206863,0.0010714603122323751,,,,,0,,3,,
Raw,505756586,20093000000,,,-1222339788907027107,0.0,13.177859187546103,,,0,18,0.0,17,910874,71,20.749784469604492,-711.4662357101015,4.201603229221057,4,-7823.3553277446545,3.4028234663852886E38,,,,,0,,3,,
Raw,505756586,20093000000,,,-1222339788907027107,0.0,13.177859187546103,,,0,1,0.0,99,931714076,44,32.557472229003906,274.7090302931997,0.1119709795858001,1,3813.4831494380505,0.001983796712011099,,,,,0,,3,,
Raw,505756587,20093000000,,,-1222339788907027107,0.0,13.177859187546103,,,0,24,0.0,99,929037604,49,31.592485427856445,494.8784956796417,0.12439905249844341,1,5427.2906060783325,0.002216124441474676,,,,,0,,3,,
Raw,505756587,20093000000,,,-1222339788907027107,0.0,13.177859187546103,,,0,17,0.0,99,936192927,33,35.59683609008789,-116.70217393107572,0.08033873216394988,1,-2017.6257904127006,0.0014813177986070514,,,,,0,,3,,
Raw,505756587,20093000000,,,-1222339788907027107,0.0,13.177859187546103,,,0,3,0.0,99,919363754,79,27.493860244750977,-967.0653689607875,0.20028778576077477,4,-2920.0079286225036,3.4028234663852886E38,,,,,0,,3,,
Raw,505757586,21093000000,,,-1222339788907027433,0.0,11.42729472656809,,,0,1,0.0,16431,39009930655535,8,40.797203063964844,-450.2072333994115,0.04446358502514819,1,-8126.85662148963,8.737440221011639E-4,,,,,0,,1,,
Raw,505757587,21093000000,,,-1222339788907027433,0.0,11.42729472656809,,,0,3,0.0,16431,39009919793951,41,27.233131408691406,-823.6090375404524,0.20636221811203992,4,-15662.961205246298,3.4028234663852886E38,,,,,0,,1,,
Raw,505757587,21093000000,,,-1222339788907027433,0.0,11.42729472656809,,,0,8,0.0,16431,39009928620007,7,42.338111877441406,360.87152533025574,0.0371810976725766,1,6463.409746299852,7.317096460610628E-4,,,,,0,,1,,
Raw,505757588,21093000000,,,-1222339788907027433,0.0,11.42729472656809,,,0,10,0.0,17,46846,105,14.198793411254883,482.30196697535507,4.200548004414808,4,7211.553773970929,3.4028234663852886E38,,,,,0,,1,,
Raw,505757588,21093000000,,,-1222339788907027433,0.0,11.42729472656809,,,0,11,0.0,16431,39009932625112,13,36.766510009765625,-303.412389032841,0.06994199363025544,1,-5796.653950060033,0.0013183788396418095,,,,,0,,1,,
Raw,505757588,21093000000,,,-1222339788907027433,0.0,11.42729472656809,,,0,14,0.0,16431,39009921233330,72,20.511337280273438,-577.207327842099,4.200221824655117,4,-11001.33015329596,3.4028234663852886E38,,,,,0,,1,,
Raw,505757589,21093000000,,,-1222339788907027433,0.0,11.42729472656809,,,0,18,0.0,16431,39009934012473,12,37.48705291748047,-116.54832572233175,0.06480439614593125,1,-2126.4912814467166,0.0012134253047406673,,,,,0,,1,,
Raw,505757589,21093000000,,,-1222339788907027433,0.0,11.42729472656809,,,0,22,0.0,16431,39009925329960,10,39.05577850341797,-649.2917233878429,0.05295108192514747,1,-12357.79139807115,0.0010129237780347466,,,,,0,,1,,
Raw,505757589,21093000000,,,-1222339788907027433,0.0,11.42729472656809,,,0,27,0.0,16431,39009921001463,35,28.592727661132812,600.85250920919,0.1735972781910139,1,10783.963809165994,0.003185319947078824,,,,,0,,1,,
Raw,505757590,21093000000,,,-1222339788907027433,0.0,11.42729472656809,,,0,28,0.0,16431,39009924788428,19,33.701114654541016,-215.01086405574722,0.09717158814111576,1,-3461.032955125697,0.001876333262771368,,,,,0,,1,,
Raw,505757590,21093000000,,,-1222339788907027433,0.0,11.42729472656809,,,0,32,0.0,16431,39009923637234,40,27.419343948364258,-356.4992914776835,0.19915457736504028,1,-6444.1144900172,0.003646047553047538,,,,,0,,1,,
Raw,505757590,21093000000,,,-1222339788907027433,0.0,11.42729472656809,,,0,2,0.0,99,1932123128,33,38.17384338378906,-647.7266569843155,0.059729509216681326,1,-11681.362957214687,0.0011041240068152547,,,,,0,,3,,
Raw,505757591,21093000000,,,-1222339788907027433,0.0,11.42729472656809,,,0,18,0.0,17,913212,69,21.11109161376953,-710.9209164057365,4.201603495490248,4,-8534.286238321696,3.4028234663852886E38,,,,,0,,3,,
Raw,505757591,21093000000,,,-1222339788907027433,0.0,11.42729472656809,,,0,1,0.0,99,1931713168,42,33.01494598388672,274.72525354250456,0.10633416065090401,1,4088.243217934007,0.0018820170080289245,,,,,0,,3,,
Raw,505757592,21093000000,,,-1222339788907027433,0.0,11.42729472656809,,,0,24,0.0,99,1929035961,48,31.78392791748047,494.7531744870073,0.12172238145004066,1,5922.120601859614,0.0021678139455616474,,,,,0,,3,,
Raw,505757592,21093000000,,,-1222339788907027433,0.0,11.42729472656809,,,0,17,0.0,99,1936193367,33,35.35649490356445,-116.81007898842694,0.08251113096805285,1,-2134.3583277913954,0.0015228785341605544,,,,,0,,3,,
Raw,505757592,21093000000,,,-1222339788907027433,0.0,11.42729472656809,,,0,3,0.0,99,1919366972,81,27.243526458740234,-967.28274686849,0.20604294470950568,1,-3887.1578126792224,0.00365245807915926,,,,,0,,3,,
Raw,505758586,22093000000,,,-1222339788907027757,0.0,10.443351171055413,,,0,1,0.0,16431,39010930657039,8,40.75982666015625,-450.1878063991935,0.04464733989053429,1,-8577.097476295925,8.775122696533799E-4,,,,,0,,1,,
Raw,505758587,22093000000,,,-1222339788907027757,0.0,10.443351171055413,,,0,3,0.0,16431,39010919796693,40,27.354677200317383,-823.717556082021,0.20354459081034215,1,-16486.694993287972,0.00367329316213727,,,,,0,,1,,
Raw,505758587,22093000000,,,-1222339788907027757,0.0,10.443351171055413,,,0,8,0.0,16431,39010928618805,7,42.50438690185547,360.88352235495177,0.03650528566205466,1,6824.265573561177,7.178358500823379E-4,,,,,0,,1,,
Raw,505758587,22093000000,,,-1222339788907027757,0.0,10.443351171055413,,,0,10,0.0,17,45251,103,14.546934127807617,482.54920111497154,4.200547738145616,4,7694.056981495065,3.4028234663852886E38,,,,,0,,1,,
Raw,505758588,22093000000,,,-1222339788907027757,0.0,10.443351171055413,,,0,11,0.0,16431,39010932626100,13,36.83494567871094,-303.31235702294657,0.06941107366451663,1,-6100.033021317095,0.001308032195083797,,,,,0,,1,,
Raw,505758588,22093000000,,,-1222339788907027757,0.0,10.443351171055413,,,0,14,0.0,16431,39010921235268,71,20.727087020874023,-577.2285271300561,4.200222090924308,4,-11579.2613205047,3.4028234663852886E38,,,,,0,,1,,
Raw,505758588,22093000000,,,-1222339788907027757,0.0,10.443351171055413,,,0,18,0.0,16431,39010934012877,12,37.37699508666992,-116.53612420289659,0.06559866882351545,1,-2243.0560428063545,0.001228898297995329,,,,,0,,1,,
Raw,505758589,22093000000,,,-1222339788907027757,0.0,10.443351171055413,,,0,22,0.0,16431,39010925332132,10,39.34851837158203,-649.3211024653656,0.05122837018106946,1,-13007.115609565062,9.793542558327317E-4,,,,,0,,1,,
Raw,505758589,22093000000,,,-1222339788907027757,0.0,10.443351171055413,,,0,27,0.0,16431,39010920999469,34,28.796646118164062,600.8023398331884,0.1695730354058267,1,11384.728480458572,0.003111409256234765,,,,,0,,1,,
Raw,505758589,22093000000,,,-1222339788907027757,0.0,10.443351171055413,,,0,28,0.0,16431,39010924789159,20,33.45991516113281,-214.95980853587605,0.09988368963382371,1,-3676.048639042726,0.0019291674252599478,,,,,0,,1,,
Raw,505758590,22093000000,,,-1222339788907027757,0.0,10.443351171055413,,,0,32,0.0,16431,39010923638415,39,27.656694412231445,-356.4946221811399,0.193803981169273,1,-6800.635943742958,0.003547764616087079,,,,,0,,1,,
Raw,505758590,22093000000,,,-1222339788907027757,0.0,10.443351171055413,,,0,2,0.0,99,932125273,33,38.450782775878906,-647.6683759836615,0.057923950309915484,1,-12329.090902591159,0.0010694755474105477,,,,,0,,3,,
Raw,505758590,22093000000,,,-1222339788907027757,0.0,10.443351171055413,,,0,18,0.0,17,915624,64,22.129697799682617,-711.4125217586216,4.2016040280286315,4,-9245.312351483559,3.4028234663852886E38,,,,,0,,3,,
Raw,505758591,22093000000,,,-1222339788907027757,0.0,10.443351171055413,,,0,1,0.0,99,931712270,40,33.26441955566406,274.81916775145316,0.10338300767053887,1,4362.987354756535,0.0018287308048456907,,,,,0,,3,,
Raw,505758591,22093000000,,,-1222339788907027757,0.0,10.443351171055413,,,0,24,0.0,99,929034332,48,31.806785583496094,494.79823149453046,0.12140643641240123,1,6416.852510949305,0.002162116812542081,,,,,0,,3,,
Raw,505758591,22093000000,,,-1222339788907027757,0.0,10.443351171055413,,,0,17,0.0,99,936193744,33,35.471160888671875,-116.70703068113022,0.08146728084883165,1,-2251.128729787126,0.001502906670793891,,,,,0,,3,,
Raw,505758591,22093000000,,,-1222339788907027757,0.0,10.443351171055413,,,0,3,0.0,99,919370194,81,27.3151912689209,-967.3512526061008,0.20437912838224126,1,-4854.470292901425,0.003622445510700345,,,,,0,,3,,
Raw,505759597,23093000000,,,-1222339788907028079,0.0,9.780441775510909,,,0,1,0.0,16431,39011930658527,8,40.535858154296875,-449.93041568753324,0.045763756685374496,1,-9027.170393308881,9.004331077449024E-4,,,,,0,,1,,
Raw,505759597,23093000000,,,-1222339788907028079,0.0,9.780441775510909,,,0,3,0.0,16431,39011919799442,47,25.938371658325195,-823.6121049615394,0.23896323606199676,4,-17310.314715420463,3.4028234663852886E38,,,,,0,,1,,
Raw,505759598,23093000000,,,-1222339788907028079,0.0,9.780441775510909,,,0,8,0.0,16431,39011928617594,6,42.609901428222656,361.1973195321573,0.0360830243287629,1,7185.302974425064,7.09168438334018E-4,,,,,0,,1,,
Raw,505759598,23093000000,,,-1222339788907028079,0.0,9.780441775510909,,,0,10,0.0,17,43651,102,14.754508972167969,482.7309969380642,4.200547471876424,4,8176.463210709265,3.4028234663852886E38,,,,,0,,1,,
Raw,505759599,23093000000,,,-1222339788907028079,0.0,9.780441775510909,,,0,11,0.0,16431,39011932627131,13,36.70231246948242,-303.06968993250416,0.07044436038565294,1,-6403.227780856469,0.001328159007243812,,,,,0,,1,,
Raw,505759599,23093000000,,,-1222339788907028079,0.0,9.780441775510909,,,0,14,0.0,16431,39011921237120,76,19.78635025024414,-577.4379979078453,4.200222623462691,4,-12157.04333786948,3.4028234663852886E38,,,,,0,,1,,
Raw,505759599,23093000000,,,-1222339788907028079,0.0,9.780441775510909,,,0,18,0.0,16431,39011934013238,13,37.136863708496094,-116.23328453546316,0.06736691675981052,1,-2359.422630243368,0.0012633465230464935,,,,,0,,1,,
Raw,505759600,23093000000,,,-1222339788907028079,0.0,9.780441775510909,,,0,22,0.0,16431,39011925334309,10,39.260643005371094,-649.0431259499655,0.05173992322357662,1,-13656.2846416381,9.893126552924514E-4,,,,,0,,1,,
Raw,505759600,23093000000,,,-1222339788907028079,0.0,9.780441775510909,,,0,27,0.0,16431,39011920997450,33,29.05205726623535,600.9595281226716,0.16466411323160013,1,11985.607967443006,0.003021249547600746,,,,,0,,1,,
Raw,505759600,23093000000,,,-1222339788907028079,0.0,9.780441775510909,,,0,28,0.0,16431,39011924789841,19,33.689308166503906,-214.6384280120942,0.09730286717347914,1,-3890.866313792046,0.0018788855522871017,,,,,0,,1,,
Raw,505759601,23093000000,,,-1222339788907028079,0.0,9.780441775510909,,,0,32,0.0,16431,39011923639620,37,27.92601203918457,-356.15430885275964,0.18790723357791705,1,-7156.942096196314,0.0034394494723528624,,,,,0,,1,,
Raw,505759601,23093000000,,,-1222339788907028079,0.0,9.780441775510909,,,0,2,0.0,99,1932127421,33,38.63689422607422,-647.3699499943477,0.056742647041451044,1,-12976.603466598115,0.001046803779900074,,,,,0,,3,,
Raw,505759601,23093000000,,,-1222339788907028079,0.0,9.780441775510909,,,0,18,0.0,17,917890,67,21.509971618652344,-710.7866996919497,4.201604560567015,4,-9956.229855593996,3.4028234663852886E38,,,,,0,,3,,
Raw,505759602,23093000000,,,-1222339788907028079,0.0,9.780441775510909,,,0,1,0.0,99,1931711348,42,33.001461029052734,275.09884838967935,0.10649578605019577,1,4637.9615401723795,0.0018849410116672516,,,,,0,,3,,
Raw,505759602,23093000000,,,-1222339788907028079,0.0,9.780441775510909,,,0,24,0.0,99,1929032704,49,31.55729103088379,494.9985000090585,0.12489666801295357,1,6911.733393626717,0.0022251224145293236,,,,,0,,3,,
Raw,505759602,23093000000,,,-1222339788907028079,0.0,9.780441775510909,,,0,17,0.0,99,1936194154,33,35.411895751953125,-116.47617316187296,0.08200518622039343,1,-2367.701850471102,0.0015131960390135646,,,,,0,,3,,
Raw,505759603,23093000000,,,-1222339788907028079,0.0,9.780441775510909,,,0,3,0.0,99,1919373326,77,27.722537994384766,-967.1162199859195,0.19517570019336927,1,-5821.687019311066,0.003456484293565154,,,,,0,,3,,
Raw,505760585,24093000000,,,-1222339788907028401,0.0,9.290344867469377,,,0,1,0.0,16431,39012930660046,8,40.72126388549805,-449.66821934950326,0.044838009433989356,1,-9476.96115762383,8.814167231321335E-4,,,,,0,,1,,
Raw,505760586,24093000000,,,-1222339788907028401,0.0,9.290344867469377,,,0,3,0.0,16431,39012919802212,54,24.776748657226562,-823.2224061536576,0.27264783648710655,4,-18133.692654826693,3.4028234663852886E38,,,,,0,,1,,
Raw,505760586,24093000000,,,-1222339788907028401,0.0,9.290344867469377,,,0,8,0.0,16431,39012928616391,6,42.677852630615234,361.45430125433927,0.03581370136238746,1,7546.622422025277,7.036423194222152E-4,,,,,0,,1,,
Raw,505760586,24093000000,,,-1222339788907028401,0.0,9.290344867469377,,,0,10,0.0,17,42049,103,14.537972450256348,482.7662041156523,4.200547205607233,4,8659.481932590921,3.4028234663852886E38,,,,,0,,1,,
Raw,505760588,24093000000,,,-1222339788907028401,0.0,9.290344867469377,,,0,11,0.0,16431,39012932628143,13,36.99906921386719,-302.725082214602,0.06815474489086715,1,-6706.105524916849,0.0012835485395044088,,,,,0,,1,,
Raw,505760588,24093000000,,,-1222339788907028401,0.0,9.290344867469377,,,0,14,0.0,16431,39012921239011,72,20.522485733032227,-576.6504205025162,4.200222889731883,4,-12734.520011255227,3.4028234663852886E38,,,,,0,,1,,
Raw,505760588,24093000000,,,-1222339788907028401,0.0,9.290344867469377,,,0,18,0.0,16431,39012934013628,12,37.36915588378906,-115.92110627494247,0.06565575444191749,1,-2475.483393554407,0.0012300079688429832,,,,,0,,1,,
Raw,505760589,24093000000,,,-1222339788907028401,0.0,9.290344867469377,,,0,22,0.0,16431,39012925336459,10,39.319969177246094,-648.7699891433917,0.051394646970301716,1,-14305.184343176763,9.825786110013723E-4,,,,,0,,1,,
Raw,505760589,24093000000,,,-1222339788907028401,0.0,9.290344867469377,,,0,27,0.0,16431,39012920995450,34,28.701784133911133,601.1448003563296,0.1714324264543099,1,12586.720618439662,0.003145576221868396,,,,,0,,1,,
Raw,505760589,24093000000,,,-1222339788907028401,0.0,9.290344867469377,,,0,28,0.0,16431,39012924790577,19,33.76153564453125,-214.36005954844416,0.0965043591515663,1,-4105.374098959934,0.001863326644524932,,,,,0,,1,,
Raw,505760590,24093000000,,,-1222339788907028401,0.0,9.290344867469377,,,0,32,0.0,16431,39012923640849,39,27.657333374023438,-355.8536334213154,0.1937902017386085,1,-7512.945922885947,0.003547503612935543,,,,,0,,1,,
Raw,505760590,24093000000,,,-1222339788907028401,0.0,9.290344867469377,,,0,2,0.0,99,932129598,33,38.7216682434082,-647.0528468188595,0.05621311666805581,1,-13623.786707464484,0.0010366365313529968,,,,,0,,3,,
Raw,505760590,24093000000,,,-1222339788907028401,0.0,9.290344867469377,,,0,18,0.0,17,920395,66,21.68442726135254,-710.3186793989785,4.201604826836206,4,-10666.882838239433,3.4028234663852886E38,,,,,0,,3,,
Raw,505760590,24093000000,,,-1222339788907028401,0.0,9.290344867469377,,,0,1,0.0,99,931710444,42,32.866573333740234,275.4961135029092,0.10812938082421536,1,4913.294622929111,0.0019144418183714151,,,,,0,,3,,
Raw,505760591,24093000000,,,-1222339788907028401,0.0,9.290344867469377,,,0,24,0.0,99,929031012,49,31.593154907226562,495.26458174713207,0.12438840173078003,1,7406.895232058512,0.002215953543782234,,,,,0,,3,,
Raw,505760591,24093000000,,,-1222339788907028401,0.0,9.290344867469377,,,0,17,0.0,99,936194528,33,35.61854934692383,-116.06165380502841,0.08014569532096338,1,-2483.9527019167167,0.0014776195166632533,,,,,0,,3,,
Raw,505760591,24093000000,,,-1222339788907028401,0.0,9.290344867469377,,,0,3,0.0,99,919376450,81,27.33719825744629,-966.939127541827,0.20387190221409734,1,-6788.718679031702,0.003613279666751623,,,,,0,,3,,
Raw,505761600,25093000000,,,-1222339788907028723,0.0,8.97157168506184,,,0,1,0.0,16431,39013930661547,8,40.76830291748047,-449.40465971321237,0.044606475890538316,1,-9926.542324965387,8.766561513766646E-4,,,,,0,,1,,
Raw,505761601,25093000000,,,-1222339788907028723,0.0,8.97157168506184,,,0,3,0.0,16431,39013919805007,57,24.25175666809082,-823.1269752753938,0.2894139421063071,4,-18956.941872538577,3.4028234663852886E38,,,,,0,,1,,
Raw,505761602,25093000000,,,-1222339788907028723,0.0,8.97157168506184,,,0,8,0.0,16431,39013928615179,6,42.828102111816406,361.7225642696303,0.03522587883831582,1,7908.160460983304,6.915751146152616E-4,,,,,0,,1,,
Raw,505761602,25093000000,,,-1222339788907028723,0.0,8.97157168506184,,,0,10,0.0,17,40468,101,14.985776901245117,482.909997999722,4.200546939338041,4,9142.227733554748,3.4028234663852886E38,,,,,0,,1,,
Raw,505761602,25093000000,,,-1222339788907028723,0.0,8.97157168506184,,,0,11,0.0,16431,39013932629132,13,37.01696014404297,-302.4831308557466,0.06801935532785869,1,-7008.751202063037,0.0012809074250981212,,,,,0,,1,,
Raw,505761603,25093000000,,,-1222339788907028723,0.0,8.97157168506184,,,0,14,0.0,16431,39013921240964,70,20.917423248291016,-576.9211033722204,4.2002231560010745,4,-13311.845975390295,3.4028234663852886E38,,,,,0,,1,,
Raw,505761603,25093000000,,,-1222339788907028723,0.0,8.97157168506184,,,0,18,0.0,16431,39013934014017,12,37.48494338989258,-115.65893549875489,0.06481979399402585,1,-2591.3019400462767,0.0012137200683355331,,,,,0,,1,,
Raw,505761603,25093000000,,,-1222339788907028723,0.0,8.97157168506184,,,0,22,0.0,16431,39013925338624,10,39.430538177490234,-648.5280718669928,0.050757094514245565,1,-14953.889361565849,9.70149936620146E-4,,,,,0,,1,,
Raw,505761604,25093000000,,,-1222339788907028723,0.0,8.97157168506184,,,0,27,0.0,16431,39013920993436,38,27.842891693115234,601.4376368227736,0.18923182295510288,1,13188.015655950045,0.003472521435469389,,,,,0,,1,,
Raw,505761604,25093000000,,,-1222339788907028723,0.0,8.97157168506184,,,0,28,0.0,16431,39013924791291,18,34.16270065307617,-214.0638148363479,0.09218761965942357,1,-4319.632635603409,0.001779224374331534,,,,,0,,1,,
Raw,505761604,25093000000,,,-1222339788907028723,0.0,8.97157168506184,,,0,32,0.0,16431,39013923641992,40,27.28673553466797,-355.5838026130243,0.2022091842472482,1,-7868.708491950162,0.003702139016240835,,,,,0,,1,,
Raw,505761604,25093000000,,,-1222339788907028723,0.0,8.97157168506184,,,0,2,0.0,99,1932131748,33,38.63595962524414,-646.7508762540674,0.056749303771240656,1,-14270.708383195273,0.0010469163535162807,,,,,0,,3,,
Raw,505761605,25093000000,,,-1222339788907028723,0.0,8.97157168506184,,,0,18,0.0,65,1928922870,64,22.095745086669922,-709.9784001530547,4.2016053593745895,4,-11377.364361887994,3.4028234663852886E38,,,,,0,,3,,
Raw,505761605,25093000000,,,-1222339788907028723,0.0,8.97157168506184,,,0,1,0.0,99,1931709488,45,32.32469177246094,275.78451925000525,0.11495428457104906,1,5188.8974101667645,0.002037681406363845,,,,,0,,3,,
Raw,505761605,25093000000,,,-1222339788907028723,0.0,8.97157168506184,,,0,24,0.0,99,1929029346,49,31.70969009399414,495.5479432906627,0.12275202777207328,1,7902.257032786778,0.0021864217706024647,,,,,0,,3,,
Raw,505761606,25093000000,,,-1222339788907028723,0.0,8.97157168506184,,,0,17,0.0,99,1936194940,33,35.40653610229492,-115.87505235556603,0.08205412982617155,1,-2599.96375761439,0.001514130155555904,,,,,0,,3,,
Raw,505761606,25093000000,,,-1222339788907028723,0.0,8.97157168506184,,,0,3,0.0,99,1919379760,84,27.01547622680664,-966.8416517161718,0.21143393061327143,1,-7755.611347352045,0.0037496238946914673,,,,,0,,3,,
Raw,505762564,26093000000,,,-1222339788907029044,0.0,8.831780762902763,,,0,1,0.0,16431,39014930663049,8,40.66230010986328,-449.1286940627472,0.045130913865644495,1,-10375.807901230048,8.874207269400358E-4,,,,,0,,1,,
Raw,505762564,26093000000,,,-1222339788907029044,0.0,8.831780762902763,,,0,3,0.0,16431,39014919807742,54,24.825754165649414,-822.8222781140798,0.27113491158234815,4,-19779.898781287204,3.4028234663852886E38,,,,,0,,1,,
Raw,505762565,26093000000,,,-1222339788907029044,0.0,8.831780762902763,,,0,8,0.0,16431,39014928613963,7,42.56031036376953,361.9994501464216,0.036280092653728224,1,8270.013095682298,7.132289465516806E-4,,,,,0,,1,,
Raw,505762565,26093000000,,,-1222339788907029044,0.0,8.831780762902763,,,0,10,0.0,17,38869,100,15.025482177734375,483.34424257827914,4.20054667306885,4,9625.404143324604,3.4028234663852886E38,,,,,0,,1,,
Raw,505762565,26093000000,,,-1222339788907029044,0.0,8.831780762902763,,,0,11,0.0,16431,39014932630147,13,36.75673294067383,-302.14700966951864,0.07001910352395585,1,-7311.052436944037,0.001319863717071712,,,,,0,,1,,
Raw,505762566,26093000000,,,-1222339788907029044,0.0,8.831780762902763,,,0,14,0.0,16431,39014921242921,73,20.22357177734375,-577.9540744645137,4.200223688539458,4,-13888.72990937317,3.4028234663852886E38,,,,,0,,1,,
Raw,505762566,26093000000,,,-1222339788907029044,0.0,8.831780762902763,,,0,18,0.0,16431,39014934014406,12,37.284305572509766,-115.33723971225021,0.06627567904539952,1,-2706.7878782373195,0.001242082566022873,,,,,0,,1,,
Raw,505762567,26093000000,,,-1222339788907029044,0.0,8.831780762902763,,,0,22,0.0,16431,39014925340779,10,39.4001579284668,-648.2744983904631,0.05093195016399418,1,-15602.299521097993,9.735490311868489E-4,,,,,0,,1,,
Raw,505762567,26093000000,,,-1222339788907029044,0.0,8.831780762902763,,,0,27,0.0,16431,39014920991436,37,28.104135513305664,601.8606682731347,0.1836299851352512,4,13789.564081604318,3.4028234663852886E38,,,,,0,,1,,
Raw,505762569,26093000000,,,-1222339788907029044,0.0,8.831780762902763,,,0,28,0.0,16431,39014924792010,19,33.784324645996094,-213.7295170615439,0.09625400786509125,1,-4533.547485587084,0.0018584438366815448,,,,,0,,1,,
Raw,505762569,26093000000,,,-1222339788907029044,0.0,8.831780762902763,,,0,32,0.0,16431,39014923643176,39,27.602493286132812,-355.27757174116687,0.1950138917340083,1,-8224.117562106077,0.003569972002878785,,,,,0,,1,,
Raw,505762569,26093000000,,,-1222339788907029044,0.0,8.831780762902763,,,0,2,0.0,99,932133888,33,38.56995391845703,-646.393214955317,0.05716593184694796,1,-14917.272157115849,0.0010549024445936084,,,,,0,,3,,
Raw,505762570,26093000000,,,-1222339788907029044,0.0,8.831780762902763,,,0,18,0.0,65,928924982,66,21.739023208618164,-710.4213357580252,4.201605625643781,4,-12087.55724937399,3.4028234663852886E38,,,,,0,,3,,
Raw,505762570,26093000000,,,-1222339788907029044,0.0,8.831780762902763,,,0,1,0.0,99,931708602,46,32.214412689208984,276.14746332951665,0.11639601575070757,1,5464.878315293282,0.0020637172274291515,,,,,0,,3,,
Raw,505762570,26093000000,,,-1222339788907029044,0.0,8.831780762902763,,,0,24,0.0,99,929027722,50,31.487319946289062,495.77973807747435,0.12589281434231997,1,8397.917666987218,0.0022431197576224804,,,,,0,,3,,
Raw,505762571,26093000000,,,-1222339788907029044,0.0,8.831780762902763,,,0,17,0.0,99,936195297,33,35.40782928466797,-115.59148631729624,0.08204241398174184,1,-2715.6294871585455,0.001513904775492847,,,,,0,,3,,
Raw,505762571,26093000000,,,-1222339788907029044,0.0,8.831780762902763,,,0,3,0.0,99,919383041,80,27.36012840270996,-966.5931906081205,0.20334475578205802,1,-8722.261164854053,0.003603753400966525,,,,,0,,3,,
Raw,505763573,27093000000,,,-1222339788907029365,0.0,8.683446956130128,,,0,1,0.0,16431,39015930664531,8,40.83744812011719,-448.85388721580375,0.04426853036094422,1,-10824.793199796308,8.697049925103784E-4,,,,,0,,1,,
Raw,505763574,27093000000,,,-1222339788907029365,0.0,8.683446956130128,,,0,3,0.0,16431,39015919810485,59,24.004106521606445,-822.3655050317611,0.2976823660289303,4,-20602.644662964773,3.4028234663852886E38,,,,,0,,1,,
Raw,505763574,27093000000,,,-1222339788907029365,0.0,8.683446956130128,,,0,8,0.0,16431,39015928612769,6,42.73183822631836,362.24051536140746,0.03560074009504943,1,8632.148415568128,6.992823327891529E-4,,,,,0,,1,,
Raw,505763574,27093000000,,,-1222339788907029365,0.0,8.683446956130128,,,0,10,0.0,17,37208,166,14.80125617980957,483.4244385984773,4.200546406799658,4,10109.5574778491,3.4028234663852886E38,,,,,1,,1,,
Raw,505763575,27093000000,,,-1222339788907029365,0.0,8.683446956130128,,,0,11,0.0,16431,39015932631155,13,37.154300689697266,-301.90584220716323,0.06698828196937742,1,-7613.0553032790285,0.0012608132092282176,,,,,0,,1,,
Raw,505763575,27093000000,,,-1222339788907029365,0.0,8.683446956130128,,,0,14,0.0,16431,39015921244774,76,19.666336059570312,-576.1938519149367,4.200223954808649,4,-14465.476792992133,3.4028234663852886E38,,,,,0,,1,,
Raw,505763575,27093000000,,,-1222339788907029365,0.0,8.683446956130128,,,0,18,0.0,16431,39015934014786,12,37.59238052368164,-115.04851870243135,0.06405409948951968,1,-2821.9637355288064,0.0011987999314442277,,,,,0,,1,,
Raw,505763576,27093000000,,,-1222339788907029365,0.0,8.683446956130128,,,0,22,0.0,16431,39015925342939,9,39.74617004394531,-648.0697309916741,0.04898081689764178,1,-16250.44941871309,9.355288930237293E-4,,,,,0,,1,,
Raw,505763576,27093000000,,,-1222339788907029365,0.0,8.683446956130128,,,0,27,0.0,16431,39015920989416,35,28.496408462524414,601.8738922662656,0.17552884483224096,4,14391.33435626742,3.4028234663852886E38,,,,,0,,1,,
Raw,505763576,27093000000,,,-1222339788907029365,0.0,8.683446956130128,,,0,28,0.0,16431,39015924792720,19,33.78579330444336,-213.50835600116739,0.096237990109035,1,-4747.1623743236705,0.0018581298645585775,,,,,0,,1,,
Raw,505763577,27093000000,,,-1222339788907029365,0.0,8.683446956130128,,,0,32,0.0,16431,39015923644373,38,27.720090866088867,-355.0684417879429,0.19240044297678238,1,-8579.229880176777,0.003521963953971863,,,,,0,,1,,
Raw,505763577,27093000000,,,-1222339788907029365,0.0,8.683446956130128,,,0,2,0.0,99,1932136062,33,38.7624626159668,-646.1303028857001,0.05596110535958948,1,-15563.517168106026,0.0010317794512957335,,,,,0,,3,,
Raw,505763577,27093000000,,,-1222339788907029365,0.0,8.683446956130128,,,0,18,0.0,65,1928927425,65,21.910037994384766,-710.27014598089,4.201606158182164,4,-12797.497378432547,3.4028234663852886E38,,,,,0,,3,,
Raw,505763578,27093000000,,,-1222339788907029365,0.0,8.683446956130128,,,0,1,0.0,99,1931707679,45,32.4255256652832,276.49084407898397,0.11365149598392421,1,5741.204818319044,0.00201416271738708,,,,,0,,3,,
Raw,505763578,27093000000,,,-1222339788907029365,0.0,8.683446956130128,,,0,24,0.0,99,1929026058,49,31.539499282836914,495.9959912641116,0.1251482091898785,1,8893.84161802761,0.002229684730991721,,,,,0,,3,,
Raw,505763578,27093000000,,,-1222339788907029365,0.0,8.683446956130128,,,0,17,0.0,99,1936195691,33,35.3517951965332,-115.22113782410526,0.08255460773449125,1,-2830.9689875466606,0.0015237025218084455,,,,,0,,3,,
Raw,505763579,27093000000,,,-1222339788907029365,0.0,8.683446956130128,,,0,3,0.0,99,1919386237,84,26.951200485229492,-966.3644973248524,0.21297957334494577,1,-9688.69624717553,0.003777473932132125,,,,,0,,3,,
Raw,505764600,28093000000,,,-1222339788907029685,0.0,8.533688009790607,,,0,1,0.0,16431,39016930666034,8,40.952186584472656,-448.7539574532789,0.04371304706228174,1,-11273.623674688744,8.582922164350748E-4,,,,,0,,1,,
Raw,505764602,28093000000,,,-1222339788907029685,0.0,8.533688009790607,,,0,3,0.0,16431,39016919813286,61,23.665708541870117,-822.5858140307246,0.3093677559198589,4,-21425.27743275717,3.4028234663852886E38,,,,,0,,1,,
Raw,505764603,28093000000,,,-1222339788907029685,0.0,8.533688009790607,,,0,8,0.0,16431,39016928611553,6,42.883331298828125,362.36702944002013,0.03501177344554521,1,8994.445375976577,6.871918449178338E-4,,,,,0,,1,,
Raw,505764604,28093000000,,,-1222339788907029685,0.0,8.533688009790607,,,0,10,0.0,17,35598,101,14.917365074157715,483.68925928565955,4.2005461405304665,4,10592.868055123863,3.4028234663852886E38,,,,,0,,1,,
Raw,505764604,28093000000,,,-1222339788907029685,0.0,8.533688009790607,,,0,11,0.0,16431,39016932632155,13,37.16598129272461,-301.7233988173966,0.06690149901520148,1,-7914.86415444934,0.0012591187842190266,,,,,0,,1,,
Raw,505764604,28093000000,,,-1222339788907029685,0.0,8.533688009790607,,,0,14,0.0,16431,39016921246638,78,19.41156578063965,-576.169039886588,4.200224221077841,4,-15042.037289414617,3.4028234663852886E38,,,,,0,,1,,
Raw,505764605,28093000000,,,-1222339788907029685,0.0,8.533688009790607,,,0,18,0.0,16431,39016934015178,12,37.408897399902344,-114.86743009031153,0.06536784671806067,1,-2936.9470384655147,0.0012243930250406265,,,,,0,,1,,
Raw,505764605,28093000000,,,-1222339788907029685,0.0,8.533688009790607,,,0,22,0.0,16431,39016925345120,9,39.795860290527344,-647.923244593539,0.04870727938921829,1,-16898.448059806222,9.301921236328781E-4,,,,,0,,1,,
Raw,505764605,28093000000,,,-1222339788907029685,0.0,8.533688009790607,,,0,27,0.0,16431,39016920987410,37,28.119338989257812,601.9666647129206,0.1833084484445885,4,14993.220632263701,3.4028234663852886E38,,,,,0,,1,,
Raw,505764606,28093000000,,,-1222339788907029685,0.0,8.533688009790607,,,0,28,0.0,16431,39016924793423,19,33.861122131347656,-213.33811413083595,0.09541456927588454,1,-4960.574844290281,0.0018420848064124584,,,,,0,,1,,
Raw,505764606,28093000000,,,-1222339788907029685,0.0,8.533688009790607,,,0,32,0.0,16431,39016923645532,38,27.810041427612305,-354.75788244410705,0.190425191546311,1,-8934.12476955558,0.003485678927972913,,,,,0,,1,,
Raw,505764606,28093000000,,,-1222339788907029685,0.0,8.533688009790607,,,0,2,0.0,99,932138187,33,39.0655632019043,-645.8890672584316,0.054117232812428306,1,-16209.543820805326,9.963955963030457E-4,,,,,0,,3,,
Raw,505764607,28093000000,,,-1222339788907029685,0.0,8.533688009790607,,,0,18,0.0,65,928929892,65,21.840003967285156,-709.1058892660708,4.201606690720547,4,-13507.317005854891,3.4028234663852886E38,,,,,0,,3,,
Raw,505764608,28093000000,,,-1222339788907029685,0.0,8.533688009790607,,,0,1,0.0,99,931706744,47,31.913110733032227,276.6733556336636,0.1204298192640551,1,6017.753085858318,0.002136560855433345,,,,,0,,3,,
Raw,505764609,28093000000,,,-1222339788907029685,0.0,8.533688009790607,,,0,24,0.0,99,929024367,50,31.51596450805664,496.1538271202687,0.1254830759819449,1,9389.912108210749,0.002235734136775136,,,,,0,,3,,
Raw,505764609,28093000000,,,-1222339788907029685,0.0,8.533688009790607,,,0,17,0.0,99,936196076,33,35.27607727050781,-114.96634589975486,0.08325198338907541,1,-2946.100493230953,0.0015370437176898122,,,,,0,,3,,
Raw,505764609,28093000000,,,-1222339788907029685,0.0,8.533688009790607,,,0,3,0.0,99,919389478,81,27.28816032409668,-966.2630679342406,0.20500875516939165,1,-10655.056650975646,0.0036337370984256268,,,,,0,,3,,
Raw,505765602,29093000000,,,-1222339788907030005,0.0,8.388780263985687,,,0,1,0.0,16431,39017930667523,8,40.893009185791016,-448.5145963611192,0.0439990326554118,1,-11722.222288100676,8.641595486551523E-4,,,,,0,,1,,
Raw,505765603,29093000000,,,-1222339788907030005,0.0,8.388780263985687,,,0,3,0.0,16431,39017919816015,61,23.7634220123291,-822.4900423278955,0.30594732845206285,4,-22247.760359406813,3.4028234663852886E38,,,,,0,,1,,
Raw,505765604,29093000000,,,-1222339788907030005,0.0,8.388780263985687,,,0,8,0.0,16431,39017928610343,6,42.66417694091797,362.60806057254945,0.035866597401478156,1,9356.971727892338,7.04751000739634E-4,,,,,0,,1,,
Raw,505765604,29093000000,,,-1222339788907030005,0.0,8.388780263985687,,,0,10,0.0,17,33967,166,14.696592330932617,483.85469552962127,4.200545874261275,4,11076.192665689618,3.4028234663852886E38,,,,,1,,1,,
Raw,505765604,29093000000,,,-1222339788907030005,0.0,8.388780263985687,,,0,11,0.0,16431,39017932633180,13,37.185890197753906,-301.472177030367,0.06675371129295987,1,-8216.427205942817,0.0012562358751893044,,,,,0,,1,,
Raw,505765605,29093000000,,,-1222339788907030005,0.0,8.388780263985687,,,0,14,0.0,16431,39017921248625,80,18.915660858154297,-576.091263720803,4.2002244873470325,4,-15618.715588038365,3.4028234663852886E38,,,,,0,,1,,
Raw,505765605,29093000000,,,-1222339788907030005,0.0,8.388780263985687,,,0,18,0.0,16431,39017934015557,12,37.48960494995117,-114.65545425196791,0.0647866476401297,1,-3051.6918970138054,0.001213068957440555,,,,,0,,1,,
Raw,505765605,29093000000,,,-1222339788907030005,0.0,8.388780263985687,,,0,22,0.0,16431,39017925347272,9,39.50337219238281,-647.7208629667066,0.050342829577613574,1,-17546.242817756167,9.620489436201751E-4,,,,,0,,1,,
