# 
# Header Description:
# 
# Version: v2.0.0.1 Platform: 8.0.0 Manufacturer: HUAWEI Model: VKY-TL00
# 
# Raw,ElapsedRealtimeMillis,TimeNanos,LeapSecond,TimeUncertaintyNanos,FullBiasNanos,BiasNanos,BiasUncertaintyNanos,DriftNanosPerSecond,DriftUncertaintyNanosPerSecond,HardwareClockDiscontinuityCount,Svid,TimeOffsetNanos,State,ReceivedSvTimeNanos,ReceivedSvTimeUncertaintyNanos,Cn0DbHz,PseudorangeRateMetersPerSecond,PseudorangeRateUncertaintyMetersPerSecond,AccumulatedDeltaRangeState,AccumulatedDeltaRangeMeters,AccumulatedDeltaRangeUncertaintyMeters,CarrierFrequencyHz,CarrierCycles,CarrierPhase,CarrierPhaseUncertainty,MultipathIndicator,SnrInDb,ConstellationType,AgcDb,CarrierFrequencyHz
# 
# Fix,Provider,Latitude,Longitude,Altitude,Speed,Accuracy,(UTC)TimeInMs
# 
# Nav,Svid,Type,Status,MessageId,Sub-messageId,Data(Bytes)
# 
Raw,505308075,45476000000,,,-1222339314523872681,0.0,7.030631800088038,,,0,1,0.0,16431,38559929941982,9,39.584590911865234,-481.9039861305382,0.05070971107951189,1,-20423.577899948414,9.530949173495173E-4,,,,,0,,1,,
Raw,505308076,45476000000,,,-1222339314523872681,0.0,7.030631800088038,,,0,3,0.0,16431,38559918538854,29,30.147951126098633,-829.8179068101258,0.1483222410018915,4,-35098.87636233158,3.4028234663852886E38,,,,,0,,1,,
Raw,505308076,45476000000,,,-1222339314523872681,0.0,7.030631800088038,,,0,8,0.0,16431,38559929121679,7,41.45885467529297,325.5757333552333,0.041067030254560155,1,13778.854015537545,8.096583187580109E-4,,,,,0,,1,,
Raw,505308077,45476000000,,,-1222339314523872681,0.0,7.030631800088038,,,0,10,0.0,16431,38559923740566,170,12.633106231689453,461.1629027188428,299.79313889222726,4,17187.183449928427,3.4028234663852886E38,,,,,1,,1,,
Raw,505308077,45476000000,,,-1222339314523872681,0.0,7.030631800088038,,,0,11,0.0,16431,38559932123226,10,38.80381774902344,-346.6791473622227,0.055703306856662305,1,-14716.297087061572,0.0010427370434626937,,,,,0,,1,,
Raw,505308078,45476000000,,,-1222339314523872681,0.0,7.030631800088038,,,0,14,0.0,16431,38559920332919,10,38.698482513427734,-602.8718265932534,0.05783305266463834,1,-25525.721432692,0.001055459608323872,,,,,0,,1,,
Raw,505308078,45476000000,,,-1222339314523872681,0.0,7.030631800088038,,,0,18,0.0,16431,38559933790587,10,38.97555923461914,-160.74717959331338,0.05495534421613321,1,-6841.8621659580795,0.0010223222197964787,,,,,0,,1,,
Raw,505308079,45476000000,,,-1222339314523872681,0.0,7.030631800088038,,,0,20,0.0,16,45015874472,1000000000,7.0,612.4665152588159,2.99792458E8,2,9.174462168067445,3.4028234663852886E38,,,,,0,,1,,
Raw,505308079,45476000000,,,-1222339314523872681,0.0,7.030631800088038,,,0,22,0.0,16431,38559924323270,11,38.59703063964844,-673.270231179727,0.055589792971924956,1,-28509.64973648823,0.0010678597027435899,,,,,0,,1,,
Raw,505308080,45476000000,,,-1222339314523872681,0.0,7.030631800088038,,,0,24,0.0,16,45015743851,1000000000,13.879007339477539,-292.77351614678923,2.99792458E8,2,-4.385610351801006,3.4028234663852886E38,,,,,0,,1,,
Raw,505308080,45476000000,,,-1222339314523872681,0.0,7.030631800088038,,,0,27,0.0,16431,38559921881408,11,38.05838394165039,589.4973253343983,0.05865730974946862,1,25004.549606531233,0.0011361785000190139,,,,,0,,1,,
Raw,505308081,45476000000,,,-1222339314523872681,0.0,7.030631800088038,,,0,28,0.0,16431,38559924417291,19,33.724098205566406,-260.9466536378867,0.09685033436146911,1,-11089.996520595503,0.0018713751342147589,,,,,0,,1,,
Raw,505308081,45476000000,,,-1222339314523872681,0.0,7.030631800088038,,,0,32,0.0,16431,38559923054003,60,23.820022583007812,-401.8685965499574,0.3009682277040293,4,-17052.80629917742,3.4028234663852886E38,,,,,0,,1,,
Raw,505308081,45476000000,,,-1222339314523872681,0.0,7.030631800088038,,,0,2,0.0,32995,49341931098588,33,35.076576232910156,-698.2627602180778,0.08420169070724703,1,-26805.759851347302,0.001577179878950119,,,,,0,,3,,
Raw,505308081,45476000000,,,-1222339314523872681,0.0,7.030631800088038,,,0,18,0.0,99,1927819476,77,27.76670265197754,-727.4693123458219,0.19212527040910432,4,-22506.90493078443,3.4028234663852886E38,,,,,0,,3,,
Raw,505308082,45476000000,,,-1222339314523872681,0.0,7.030631800088038,,,0,9,0.0,16,45002728581,1000000000,7.909097671508789,-489.2491645006821,2.99792458E8,2,-0.9935305961722711,3.4028234663852886E38,,,,,0,,3,,
Raw,505308082,45476000000,,,-1222339314523872681,0.0,7.030631800088038,,,0,16,0.0,99,1925677397,166,17.73578643798828,274.5942235384026,4.201021431037445,4,10474.352206489366,3.4028234663852886E38,,,,,1,,3,,
Raw,505308082,45476000000,,,-1222339314523872681,0.0,7.030631800088038,,,0,15,0.0,16,45007824745,1000000000,7.0,712.7023382432708,2.99792458E8,2,4.973156820535637,3.4028234663852886E38,,,,,0,,3,,
Raw,505308083,45476000000,,,-1222339314523872681,0.0,7.030631800088038,,,0,1,0.0,32995,49341932064181,48,31.78160858154297,210.71717322423183,0.1222991205190126,1,8852.535264459933,0.0023007350973784924,,,,,0,,3,,
Raw,505308083,45476000000,,,-1222339314523872681,0.0,7.030631800088038,,,0,24,0.0,32995,49341929743895,33,35.00140380859375,466.5254364281418,0.08467254616800296,4,17917.2055823858,3.4028234663852886E38,,,,,0,,3,,
Raw,505308083,45476000000,,,-1222339314523872681,0.0,7.030631800088038,,,0,17,0.0,32995,49341935968631,33,36.35664367675781,-164.14700687883328,0.07381323148122843,1,-6988.88127885914,0.0013572436291724443,,,,,0,,3,,
Raw,505308083,45476000000,,,-1222339314523872681,0.0,7.030631800088038,,,0,3,0.0,16,17904684,1000000000,11.265522003173828,-960.5111080767119,2.99792458E8,4,-30719.08071573595,3.4028234663852886E38,,,,,1,,3,,
Raw,505308084,45476000000,,,-1222339314523872681,0.0,7.030631800088038,,,0,8,0.0,16,1523119,1000000000,7.0,673.1638939153759,2.99792458E8,4,6749.693076150695,3.4028234663852886E38,,,,,0,,3,,
Raw,505308084,45476000000,,,-1222339314523872681,0.0,7.030631800088038,,,0,5,0.0,16,1057706,1000000000,7.0,-80.9375436841255,2.99792458E8,4,-48.64147937139213,3.4028234663852886E38,,,,,0,,5,,
Raw,505308084,45476000000,,,-1222339314523872681,0.0,7.030631800088038,,,0,6,0.0,16,7127149,1000000000,7.0,53.95792222435358,2.99792458E8,4,161.36427591674536,3.4028234663852886E38,,,,,1,,5,,
Raw,505308085,45476000000,,,-1222339314523872681,0.0,7.030631800088038,,,0,9,0.0,16,11709124,1000000000,7.0,-125.15341322152614,2.99792458E8,6,-26.507151879370213,3.4028234663852886E38,,,,,0,,5,,
Raw,505308085,45476000000,,,-1222339314523872681,0.0,7.030631800088038,,,0,11,0.0,16431,38545925356505,6,39.09148406982422,-363.7664551048467,0.05274262643178579,1,-3259.689477574164,0.0010180232347920537,,,,,0,,5,,
Raw,505308086,45476000000,,,-1222339314523872681,0.0,7.030631800088038,,,0,12,0.0,16431,38545925314456,7,35.699066162109375,260.3031427762795,0.0774760304806642,1,1832.909377548691,0.0015044526662677526,,,,,0,,5,,
Raw,505308086,45476000000,,,-1222339314523872681,0.0,7.030631800088038,,,0,1,0.0,16,45007389188,1000000000,9.6383695602417,-390.05524221212954,2.99792458E8,2,-1.548043636297002,3.4028234663852886E38,,,,,0,,6,,
Raw,505308086,45476000000,,,-1222339314523872681,0.0,7.030631800088038,,,0,3,0.0,16,45007348751,1000000000,35.980247497558594,-542.2900215467623,2.99792458E8,2,-2.1522299158509712,3.4028234663852886E38,,,,,0,,6,,
Raw,505308087,45476000000,,,-1222339314523872681,0.0,7.030631800088038,,,0,8,0.0,16,45007217781,1000000000,7.0,-718.2883165375333,2.99792458E8,2,-2.850728509618344,3.4028234663852886E38,,,,,0,,6,,
Raw,505308087,45476000000,,,-1222339314523872681,0.0,7.030631800088038,,,0,27,0.0,16,45004992633,1000000000,7.0,482.1387120086108,2.99792458E8,2,1.9135027031973015,3.4028234663852886E38,,,,,0,,6,,
Raw,505309074,46476000000,,,-1222339314523872988,0.0,6.838238753837118,,,0,1,0.0,16431,38560929943598,10,39.082603454589844,-482.30510256135517,0.053620644930579414,1,-20905.67822656025,0.00100980035495013,,,,,0,,1,,
Raw,505309075,46476000000,,,-1222339314523872988,0.0,6.838238753837118,,,0,3,0.0,16431,38560918541547,32,29.330215454101562,-830.1085619993523,0.16263582430653,1,-35928.85206799182,0.002926029497757554,,,,,0,,1,,
Raw,505309075,46476000000,,,-1222339314523872988,0.0,6.838238753837118,,,0,8,0.0,16431,38560929120577,8,41.4162483215332,325.2410436321793,0.04126070364733278,1,14104.264104253689,8.136394899338484E-4,,,,,0,,1,,
Raw,505309075,46476000000,,,-1222339314523872988,0.0,6.838238753837118,,,0,10,0.0,16430,38560923739035,1000000000,11.772897720336914,459.2879927030665,2.99792458E8,4,17653.173896167464,3.4028234663852886E38,,,,,0,,1,,
Raw,505309076,46476000000,,,-1222339314523872988,0.0,6.838238753837118,,,0,11,0.0,16431,38560932124399,12,37.41817092895508,-346.9923651376673,0.06496066287774238,1,-15063.110919749579,0.0012230867287144065,,,,,0,,1,,
Raw,505309077,46476000000,,,-1222339314523872988,0.0,6.838238753837118,,,0,14,0.0,16431,38560920334914,13,36.62700271606445,-603.2245800182645,0.07242446290795851,1,-26128.77636078464,0.0013397249858826399,,,,,0,,1,,
Raw,505309077,46476000000,,,-1222339314523872988,0.0,6.838238753837118,,,0,18,0.0,16431,38560933791111,10,38.75223922729492,-161.08633411817186,0.05632208733471175,1,-7002.756063252476,0.001048947568051517,,,,,0,,1,,
Raw,505309077,46476000000,,,-1222339314523872988,0.0,6.838238753837118,,,0,20,0.0,16,46015872435,1000000000,7.0,612.0952209774564,2.99792458E8,2,9.164113945722608,3.4028234663852886E38,,,,,0,,1,,
Raw,505309078,46476000000,,,-1222339314523872988,0.0,6.838238753837118,,,0,22,0.0,16431,38560924325504,12,37.50648498535156,-673.5786092463454,0.06292275913858239,1,-29183.068713326626,0.0012107137590646744,,,,,0,,1,,
Raw,505309078,46476000000,,,-1222339314523872988,0.0,6.838238753837118,,,0,24,0.0,16,46015744829,1000000000,7.0,-292.959163287469,2.99792458E8,2,-4.386100605146595,3.4028234663852886E38,,,,,0,,1,,
Raw,505309078,46476000000,,,-1222339314523872988,0.0,6.838238753837118,,,0,27,0.0,16431,38560921879423,15,35.90642547607422,589.1657711973444,0.07505292259086,1,25593.881284106465,0.0014556081732735038,,,,,0,,1,,
Raw,505309078,46476000000,,,-1222339314523872988,0.0,6.838238753837118,,,0,28,0.0,16431,38560924418142,18,34.253204345703125,-261.32362264825724,0.09117384131702694,1,-11351.141127742278,0.0017607816262170672,,,,,0,,1,,
Raw,505309079,46476000000,,,-1222339314523872988,0.0,6.838238753837118,,,0,32,0.0,16431,38560923055410,64,23.31856918334961,-402.0443597782455,0.31882264207653344,4,-17454.803762215754,3.4028234663852886E38,,,,,0,,1,,
Raw,505309079,46476000000,,,-1222339314523872988,0.0,6.838238753837118,,,0,2,0.0,32995,49342931100916,33,35.65581130981445,-698.5536199020435,0.07889885654772022,1,-27504.129794805136,0.001475432887673378,,,,,0,,3,,
Raw,505309079,46476000000,,,-1222339314523872988,0.0,6.838238753837118,,,0,18,0.0,99,927821806,76,27.81525421142578,-727.8991602874876,0.19106259006549076,1,-23234.59574367681,0.003429401433095336,,,,,0,,3,,
Raw,505309079,46476000000,,,-1222339314523872988,0.0,6.838238753837118,,,0,9,0.0,16,46002730210,1000000000,17.769725799560547,-489.4316760553618,2.99792458E8,2,-0.9862389202448276,3.4028234663852886E38,,,,,0,,3,,
Raw,505309080,46476000000,,,-1222339314523872988,0.0,6.838238753837118,,,0,16,0.0,99,925676485,166,17.81850814819336,274.16401773094344,4.201021164768253,4,10748.589187145726,3.4028234663852886E38,,,,,1,,3,,
Raw,505309080,46476000000,,,-1222339314523872988,0.0,6.838238753837118,,,0,15,0.0,16,46007822368,1000000000,12.0894775390625,712.3375196286506,2.99792458E8,2,5.0040674028656635,3.4028234663852886E38,,,,,0,,3,,
Raw,505309080,46476000000,,,-1222339314523872988,0.0,6.838238753837118,,,0,1,0.0,32995,49342932063488,49,31.545175552368164,210.41890060597245,0.1256138640804863,1,9063.092322285118,0.0023642221931368113,,,,,0,,3,,
Raw,505309080,46476000000,,,-1222339314523872988,0.0,6.838238753837118,,,0,24,0.0,32995,49342929742379,37,33.9378662109375,466.17707964002216,0.0954730985725597,4,18383.593984467578,3.4028234663852886E38,,,,,0,,3,,
Raw,505309080,46476000000,,,-1222339314523872988,0.0,6.838238753837118,,,0,17,0.0,32995,49342935969137,33,36.402862548828125,-164.4652177341585,0.07343684333709932,1,-7153.148382204348,0.00135004089679569,,,,,0,,3,,
Raw,505309081,46476000000,,,-1222339314523872988,0.0,6.838238753837118,,,0,3,0.0,17,907861,167,12.072021484375,-962.005351135585,4.2032213470983155,4,-31681.878260195786,3.4028234663852886E38,,,,,1,,3,,
Raw,505309081,46476000000,,,-1222339314523872988,0.0,6.838238753837118,,,0,8,0.0,16,1520872,1000000000,7.0,673.21344980716,2.99792458E8,4,7422.6116916311485,3.4028234663852886E38,,,,,0,,3,,
Raw,505309081,46476000000,,,-1222339314523872988,0.0,6.838238753837118,,,0,5,0.0,16,1058012,1000000000,7.0,-80.9375436841255,2.99792458E8,4,-130.3273586706071,3.4028234663852886E38,,,,,0,,5,,
Raw,505309081,46476000000,,,-1222339314523872988,0.0,6.838238753837118,,,0,6,0.0,16,7126971,1000000000,9.323263168334961,53.20872166506916,2.99792458E8,4,214.19624498350797,3.4028234663852886E38,,,,,1,,5,,
Raw,505309082,46476000000,,,-1222339314523872988,0.0,6.838238753837118,,,0,9,0.0,16,11709525,1000000000,7.0,-125.15341322152614,2.99792458E8,4,-1.373774213336958,3.4028234663852886E38,,,,,0,,5,,
Raw,505309082,46476000000,,,-1222339314523872988,0.0,6.838238753837118,,,0,11,0.0,16431,38546925357708,6,38.2196044921875,-364.1178452315969,0.05821017720950042,1,-3623.6195802972593,0.001125515904277563,,,,,0,,5,,
Raw,505309082,46476000000,,,-1222339314523872988,0.0,6.838238753837118,,,0,12,0.0,16431,38546925313590,9,34.27561950683594,259.9210443562023,0.09110204016533374,1,2093.0164225593962,0.001772355753928423,,,,,0,,5,,
Raw,505309082,46476000000,,,-1222339314523872988,0.0,6.838238753837118,,,0,1,0.0,16,46007390490,1000000000,7.0,-390.2408893528093,2.99792458E8,2,-1.5579356056341491,3.4028234663852886E38,,,,,0,,6,,
Raw,505309083,46476000000,,,-1222339314523872988,0.0,6.838238753837118,,,0,3,0.0,16,46007350561,1000000000,31.090726852416992,-542.4756686874421,2.99792458E8,2,-2.165693496547632,3.4028234663852886E38,,,,,0,,6,,
Raw,505309083,46476000000,,,-1222339314523872988,0.0,6.838238753837118,,,0,9,0.0,16,46005079566,1000000000,7.0,402.4939073797814,2.99792458E8,2,1.606852618877241,3.4028234663852886E38,,,,,0,,6,,
Raw,505309083,46476000000,,,-1222339314523872988,0.0,6.838238753837118,,,0,27,0.0,16,46004991026,1000000000,19.860595703125,481.95306486793106,2.99792458E8,2,1.9240727618011695,3.4028234663852886E38,,,,,0,,6,,
Raw,505310058,47476000000,,,-1222339314523873296,0.0,6.641485989335265,,,0,1,0.0,16431,38561929945212,13,36.75267791748047,-482.6613664793881,0.06956779388604467,1,-21388.141104447153,0.0013204801362007856,,,,,0,,1,,
Raw,505310059,47476000000,,,-1222339314523873296,0.0,6.641485989335265,,,0,3,0.0,16431,38561918544310,34,28.767475128173828,-830.4291415854059,0.17329875714359877,1,-36759.25053218761,0.0031218761578202248,,,,,0,,1,,
Raw,505310059,47476000000,,,-1222339314523873296,0.0,6.641485989335265,,,0,8,0.0,16431,38561929119506,7,41.640480041503906,324.7755795234473,0.040250777887301886,1,14429.317015212506,7.929036510176957E-4,,,,,0,,1,,
Raw,505310059,47476000000,,,-1222339314523873296,0.0,6.641485989335265,,,0,10,0.0,16431,38561923737598,166,13.72576904296875,459.0182982246015,4.2006723521272775,4,18111.882873245973,3.4028234663852886E38,,,,,1,,1,,
Raw,505310060,47476000000,,,-1222339314523873296,0.0,6.641485989335265,,,0,11,0.0,16431,38561932125567,14,36.561100006103516,-347.3554455470048,0.0714715437176634,1,-15410.272508406126,0.0013499283231794834,,,,,0,,1,,
Raw,505310060,47476000000,,,-1222339314523873296,0.0,6.641485989335265,,,0,14,0.0,16431,38561920336917,15,35.90017318725586,-603.7117546518016,0.07842677791286545,1,-26732.211223505703,0.0014566562604159117,,,,,0,,1,,
Raw,505310060,47476000000,,,-1222339314523873296,0.0,6.641485989335265,,,0,18,0.0,16431,38561933791642,11,38.570716857910156,-161.38535655047474,0.05745924400330271,1,-7163.981191382261,0.0010710997739806771,,,,,0,,1,,
Raw,505310061,47476000000,,,-1222339314523873296,0.0,6.641485989335265,,,0,20,0.0,16,47015870392,1000000000,7.0,611.9096079192332,2.99792458E8,2,9.175690727956095,3.4028234663852886E38,,,,,0,,1,,
Raw,505310061,47476000000,,,-1222339314523873296,0.0,6.641485989335265,,,0,22,0.0,16431,38561924327784,13,36.777862548828125,-673.9592421207922,0.06836109935388898,1,-29856.905369703163,0.0013166565913707018,,,,,0,,1,,
Raw,505310061,47476000000,,,-1222339314523873296,0.0,6.641485989335265,,,0,24,0.0,16,47015745807,1000000000,7.0,-293.14481042814873,2.99792458E8,2,-4.395757227934231,3.4028234663852886E38,,,,,0,,1,,
Raw,505310062,47476000000,,,-1222339314523873296,0.0,6.641485989335265,,,0,27,0.0,16431,38561921877459,11,38.14680480957031,588.7021134588081,0.05806593003541566,1,26182.800115211558,0.0011246709618717432,,,,,0,,1,,
Raw,505310063,47476000000,,,-1222339314523873296,0.0,6.641485989335265,,,0,28,0.0,16431,38561924419008,18,34.115325927734375,-261.59692986711366,0.09262010739385462,1,-11612.590874211945,0.0017889549490064383,,,,,0,,1,,
Raw,505310063,47476000000,,,-1222339314523873296,0.0,6.641485989335265,,,0,32,0.0,16431,38561923056669,38,27.852867126464844,-402.479933572607,0.1893859096079079,4,-17857.151403446693,3.4028234663852886E38,,,,,0,,1,,
Raw,505310063,47476000000,,,-1222339314523873296,0.0,6.641485989335265,,,0,2,0.0,32995,49343931103241,33,37.369930267333984,-698.8729725196622,0.06512668171869529,1,-28202.80544057012,0.0012111932737752795,,,,,0,,3,,
Raw,505310064,47476000000,,,-1222339314523873296,0.0,6.641485989335265,,,0,18,0.0,99,1927824362,88,26.58656883239746,-728.3887888578943,0.21988155370183093,1,-23962.67537499755,0.003950505051761866,,,,,0,,3,,
Raw,505310064,47476000000,,,-1222339314523873296,0.0,6.641485989335265,,,0,9,0.0,16,2731791,1000000000,7.0,-489.4316760553618,2.99792458E8,4,-294.63750994192304,3.4028234663852886E38,,,,,0,,3,,
Raw,505310064,47476000000,,,-1222339314523873296,0.0,6.641485989335265,,,0,16,0.0,99,1925675510,166,18.229724884033203,273.96090333129575,4.201020898499062,4,11022.469733314158,3.4028234663852886E38,,,,,1,,3,,
Raw,505310065,47476000000,,,-1222339314523873296,0.0,6.641485989335265,,,0,15,0.0,16,47007820000,1000000000,7.0,712.0639056676855,2.99792458E8,2,4.990997486476421,3.4028234663852886E38,,,,,0,,3,,
Raw,505310065,47476000000,,,-1222339314523873296,0.0,6.641485989335265,,,0,1,0.0,32995,49343932062844,33,35.50341796875,210.1749724646387,0.08043305802506867,1,9273.347334960596,0.0014989121118560433,,,,,0,,3,,
Raw,505310065,47476000000,,,-1222339314523873296,0.0,6.641485989335265,,,0,24,0.0,32995,49343929740890,54,30.756420135498047,465.8696558821864,0.13693063755931517,1,18849.632979606322,0.0024400425609201193,,,,,0,,3,,
Raw,505310066,47476000000,,,-1222339314523873296,0.0,6.641485989335265,,,0,17,0.0,32995,49343935969715,34,34.86967086791992,-164.78082128155972,0.08705959954508419,1,-7317.747002635523,0.0016106698894873261,,,,,0,,3,,
Raw,505310066,47476000000,,,-1222339314523873296,0.0,6.641485989335265,,,0,3,0.0,17,911196,167,12.374675750732422,-962.0385474482382,4.203221879636699,4,-32643.429912206437,3.4028234663852886E38,,,,,1,,3,,
Raw,505310067,47476000000,,,-1222339314523873296,0.0,6.641485989335265,,,0,8,0.0,16,47001518635,1000000000,7.162725448608398,672.6178929618804,2.99792458E8,2,0.6709074952914307,3.4028234663852886E38,,,,,0,,3,,
Raw,505310067,47476000000,,,-1222339314523873296,0.0,6.641485989335265,,,0,5,0.0,16,1058288,1000000000,12.574508666992188,-81.68696577937732,2.99792458E8,4,-82.064746218221,3.4028234663852886E38,,,,,0,,5,,
Raw,505310067,47476000000,,,-1222339314523873296,0.0,6.641485989335265,,,0,6,0.0,16,7126795,1000000000,7.0,52.83423215341065,2.99792458E8,4,266.8783569839504,3.4028234663852886E38,,,,,1,,5,,
Raw,505310067,47476000000,,,-1222339314523873296,0.0,6.641485989335265,,,0,9,0.0,16,11709921,1000000000,10.449092864990234,-118.19852158163906,2.99792458E8,4,-117.20187157261076,3.4028234663852886E38,,,,,0,,5,,
Raw,505310068,47476000000,,,-1222339314523873296,0.0,6.641485989335265,,,0,11,0.0,16431,38547925358929,7,36.530147552490234,-364.5354916538274,0.07050181628464952,1,-3987.921933064794,0.001367176417261362,,,,,0,,5,,
Raw,505310068,47476000000,,,-1222339314523873296,0.0,6.641485989335265,,,0,12,0.0,16431,38547925312715,10,33.332820892333984,259.56580291186503,0.10143746189675362,1,2352.7298213882755,0.0018625787924975157,,,,,0,,5,,
Raw,505310068,47476000000,,,-1222339314523873296,0.0,6.641485989335265,,,0,1,0.0,16,47007391797,1000000000,7.0,-390.42653649348904,2.99792458E8,2,-1.5556235302016481,3.4028234663852886E38,,,,,0,,6,,
Raw,505310069,47476000000,,,-1222339314523873296,0.0,6.641485989335265,,,0,3,0.0,16,47007352376,1000000000,30.424301147460938,-542.6613158281218,2.99792458E8,2,-2.162191045967121,3.4028234663852886E38,,,,,0,,6,,
Raw,505310069,47476000000,,,-1222339314523873296,0.0,6.641485989335265,,,0,8,0.0,16,47007222583,1000000000,11.138257026672363,-718.845223877116,2.99792458E8,2,-2.8641818411735827,3.4028234663852886E38,,,,,0,,6,,
Raw,505310069,47476000000,,,-1222339314523873296,0.0,6.641485989335265,,,0,27,0.0,16,47004989420,1000000000,25.333576202392578,481.58177058657157,2.99792458E8,2,1.918824378020667,3.4028234663852886E38,,,,,0,,6,,
Raw,505311046,48476000000,,,-1222339314523873606,0.0,6.535420056597604,,,0,1,0.0,16431,38562929946810,14,36.460479736328125,-482.90631709441755,0.07188699854474528,1,-21870.93563673509,0.0013656571973115206,,,,,0,,1,,
Raw,505311046,48476000000,,,-1222339314523873606,0.0,6.535420056597604,,,0,3,0.0,16431,38562918547081,38,27.872272491455078,-831.08679666647,0.19175082935843868,4,-37590.05899226736,3.4028234663852886E38,,,,,0,,1,,
Raw,505311046,48476000000,,,-1222339314523873606,0.0,6.535420056597604,,,0,8,0.0,16431,38562929118438,7,41.56511688232422,324.616039544464,0.040587046753080225,1,14754.065880197864,7.998131914064288E-4,,,,,0,,1,,
Raw,505311047,48476000000,,,-1222339314523873606,0.0,6.535420056597604,,,0,10,0.0,16431,38562923736017,75,19.855316162109375,458.0533557155277,4.200672085858086,4,18570.963769067654,3.4028234663852886E38,,,,,0,,1,,
Raw,505311047,48476000000,,,-1222339314523873606,0.0,6.535420056597604,,,0,11,0.0,16431,38562932126695,17,34.74010467529297,-347.620913800861,0.08763345957842211,1,-15757.748025703904,0.0016647939337417483,,,,,0,,1,,
Raw,505311047,48476000000,,,-1222339314523873606,0.0,6.535420056597604,,,0,14,0.0,16431,38562920338916,15,35.681251525878906,-603.9517633106352,0.08033556189638758,1,-27335.991070169,0.0014938366366550326,,,,,0,,1,,
Raw,505311047,48476000000,,,-1222339314523873606,0.0,6.535420056597604,,,0,18,0.0,16431,38562933792185,13,36.80124282836914,-161.67526192565776,0.06988185839751854,1,-7325.516185680033,0.0013131174491718411,,,,,0,,1,,
Raw,505311048,48476000000,,,-1222339314523873606,0.0,6.535420056597604,,,0,20,0.0,16,48015868355,1000000000,7.0,611.5383136378737,2.99792458E8,2,9.165340138889334,3.4028234663852886E38,,,,,0,,1,,
Raw,505311048,48476000000,,,-1222339314523873606,0.0,6.535420056597604,,,0,22,0.0,16431,38562924330032,10,38.821678161621094,-674.3511222058914,0.054191563521441555,1,-30531.052947175976,0.0010405952343717217,,,,,0,,1,,
Raw,505311048,48476000000,,,-1222339314523873606,0.0,6.535420056597604,,,0,24,0.0,16,48015746785,1000000000,7.0,-293.3304575688285,2.99792458E8,2,-4.396247024161094,3.4028234663852886E38,,,,,0,,1,,
Raw,505311049,48476000000,,,-1222339314523873606,0.0,6.535420056597604,,,0,27,0.0,16431,38562921875491,9,39.96181869506836,588.2961914016214,0.04717957238387083,1,26771.34393293654,9.125879732891917E-4,,,,,0,,1,,
Raw,505311049,48476000000,,,-1222339314523873606,0.0,6.535420056597604,,,0,28,0.0,16431,38562924419895,16,35.23097229003906,-261.926882128711,0.08155194613084327,1,-11874.379697898748,0.0015733202453702688,,,,,0,,1,,
Raw,505311049,48476000000,,,-1222339314523873606,0.0,6.535420056597604,,,0,32,0.0,16431,38562923058000,31,29.46002197265625,-402.5173901923256,0.15748777575643613,4,-18259.717880686174,3.4028234663852886E38,,,,,0,,1,,
Raw,505311049,48476000000,,,-1222339314523873606,0.0,6.535420056597604,,,0,2,0.0,32995,49344931105584,33,39.22376251220703,-699.1941655899332,0.05299417176916685,1,-28901.792866772266,9.784122230485082E-4,,,,,0,,3,,
Raw,505311050,48476000000,,,-1222339314523873606,0.0,6.535420056597604,,,0,18,0.0,99,927826831,87,26.630830764770508,-728.6825796331209,0.21877152736758876,1,-24691.13056586288,0.003930424805730581,,,,,0,,3,,
Raw,505311050,48476000000,,,-1222339314523873606,0.0,6.535420056597604,,,0,9,0.0,16,2733484,1000000000,7.0,-489.4316760553618,2.99792458E8,4,-0.9707222495022165,3.4028234663852886E38,,,,,0,,3,,
Raw,505311050,48476000000,,,-1222339314523873606,0.0,6.535420056597604,,,0,16,0.0,99,925674540,166,18.161163330078125,273.97605298322014,4.201020898499062,4,11295.381477502831,3.4028234663852886E38,,,,,1,,3,,
Raw,505311051,48476000000,,,-1222339314523873606,0.0,6.535420056597604,,,0,15,0.0,16,48007817623,1000000000,13.027904510498047,711.7903598716334,2.99792458E8,2,4.977936564300661,3.4028234663852886E38,,,,,0,,3,,
Raw,505311051,48476000000,,,-1222339314523873606,0.0,6.535420056597604,,,0,1,0.0,32995,49344932062122,33,38.97258758544922,209.94120089534874,0.05466244810539031,1,9483.358603507446,0.0010053509613499045,,,,,0,,3,,
Raw,505311052,48476000000,,,-1222339314523873606,0.0,6.535420056597604,,,0,24,0.0,32995,49344929739307,166,26.77347183227539,465.11547928424966,0.2155751321408621,4,19315.403125368714,3.4028234663852886E38,,,,,1,,3,,
Raw,505311053,48476000000,,,-1222339314523873606,0.0,6.535420056597604,,,0,17,0.0,32995,49344935970281,33,36.79450988769531,-165.04625545295937,0.0703259704463447,1,-7482.649118097536,0.0012905193725600839,,,,,0,,3,,
Raw,505311053,48476000000,,,-1222339314523873606,0.0,6.535420056597604,,,0,3,0.0,17,914349,106,13.940107345581055,-962.7882251619139,4.203222412175082,4,-33606.08273385864,3.4028234663852886E38,,,,,0,,3,,
Raw,505311053,48476000000,,,-1222339314523873606,0.0,6.535420056597604,,,0,8,0.0,16,48001516388,1000000000,7.0,672.4358926440486,2.99792458E8,2,0.6601985798437349,3.4028234663852886E38,,,,,0,,3,,
Raw,505311054,48476000000,,,-1222339314523873606,0.0,6.535420056597604,,,0,5,0.0,16,1058566,1000000000,13.560564041137695,-82.06167682700323,2.99792458E8,4,-164.5007850790966,3.4028234663852886E38,,,,,0,,5,,
Raw,505311054,48476000000,,,-1222339314523873606,0.0,6.535420056597604,,,0,6,0.0,16,7126621,1000000000,7.0,52.834010617443255,2.99792458E8,4,319.490677590305,3.4028234663852886E38,,,,,1,,5,,
Raw,505311054,48476000000,,,-1222339314523873606,0.0,6.535420056597604,,,0,9,0.0,16,11710316,1000000000,9.884500503540039,-119.00171727266974,2.99792458E8,4,-234.92604703875088,3.4028234663852886E38,,,,,1,,5,,
Raw,505311054,48476000000,,,-1222339314523873606,0.0,6.535420056597604,,,0,11,0.0,16431,38548925360146,6,36.73293685913086,-364.83224760277153,0.06889733638254725,1,-4352.563140015507,0.0013356267008930445,,,,,0,,5,,
Raw,505311055,48476000000,,,-1222339314523873606,0.0,6.535420056597604,,,0,12,0.0,16431,38548925311849,9,33.82059860229492,259.1449868211779,0.09595001997833641,1,2612.1158985832194,0.0018676779000088573,,,,,0,,5,,
Raw,505311055,48476000000,,,-1222339314523873606,0.0,6.535420056597604,,,0,1,0.0,16,48007393100,1000000000,7.0,-390.6121836341688,2.99792458E8,2,-1.5533086726729213,3.4028234663852886E38,,,,,0,,6,,
Raw,505311055,48476000000,,,-1222339314523873606,0.0,6.535420056597604,,,0,3,0.0,16,48007354186,1000000000,26.687381744384766,-542.8469629688016,2.99792458E8,2,-2.158685448755774,3.4028234663852886E38,,,,,0,,6,,
Raw,505311055,48476000000,,,-1222339314523873606,0.0,6.535420056597604,,,0,9,0.0,16,48005076883,1000000000,16.829614639282227,401.93696595774213,2.99792458E8,2,1.5983427531197676,3.4028234663852886E38,,,,,0,,6,,
Raw,505311056,48476000000,,,-1222339314523873606,0.0,6.535420056597604,,,0,27,0.0,16,48004987817,1000000000,26.490190505981445,481.3960893634353,2.99792458E8,2,1.9143200115496324,3.4028234663852886E38,,,,,0,,6,,
Raw,505312057,49476000000,,,-1222339314523873917,0.0,6.360405839802818,,,0,1,0.0,16431,38563929948432,15,35.958473205566406,-483.22294311551445,0.07605798061723223,1,-22354.046492051624,0.001446911715902388,,,,,0,,1,,
Raw,505312058,49476000000,,,-1222339314523873917,0.0,6.360405839802818,,,0,3,0.0,16431,38563918549885,36,28.17911720275879,-831.4783359270041,0.1852114743568426,4,-38421.25224135944,3.4028234663852886E38,,,,,0,,1,,
Raw,505312058,49476000000,,,-1222339314523873917,0.0,6.360405839802818,,,0,8,0.0,16431,38563929117340,6,42.768394470214844,324.29682325667136,0.03554850140802546,1,15078.496105516298,6.963455816730857E-4,,,,,0,,1,,
Raw,505312058,49476000000,,,-1222339314523873917,0.0,6.360405839802818,,,0,10,0.0,16431,38563923734493,80,18.95562744140625,458.08137149478944,4.200671819588894,4,19028.91904605728,3.4028234663852886E38,,,,,0,,1,,
Raw,505312058,49476000000,,,-1222339314523873917,0.0,6.360405839802818,,,0,11,0.0,16431,38563932127870,16,35.203330993652344,-347.89306221619563,0.08319584219421228,1,-16105.503263712677,0.0015783350681886077,,,,,0,,1,,
Raw,505312059,49476000000,,,-1222339314523873917,0.0,6.360405839802818,,,0,14,0.0,16431,38563920340961,16,35.24330139160156,-604.278682233602,0.08430121713851396,1,-27940.118423256663,0.0015710884472355247,,,,,0,,1,,
Raw,505312059,49476000000,,,-1222339314523873917,0.0,6.360405839802818,,,0,18,0.0,16431,38563933792729,13,36.74009704589844,-161.98950217479808,0.07035812245122852,1,-7487.334687712859,0.0013223938876762986,,,,,0,,1,,
Raw,505312059,49476000000,,,-1222339314523873917,0.0,6.360405839802818,,,0,20,0.0,16,49015866317,1000000000,16.024024963378906,610.9813381333779,2.99792458E8,2,9.152215037843828,3.4028234663852886E38,,,,,0,,1,,
Raw,505312060,49476000000,,,-1222339314523873917,0.0,6.360405839802818,,,0,22,0.0,16431,38563924332261,9,39.565250396728516,-674.662772188336,0.04980971289104419,1,-31205.541432481154,9.552194969728589E-4,,,,,0,,1,,
Raw,505312060,49476000000,,,-1222339314523873917,0.0,6.360405839802818,,,0,24,0.0,16,49015747768,1000000000,7.0,-293.701751850188,2.99792458E8,2,-4.399515151066888,3.4028234663852886E38,,,,,0,,1,,
Raw,505312060,49476000000,,,-1222339314523873917,0.0,6.360405839802818,,,0,27,0.0,16431,38563921873521,9,39.78589630126953,588.0510703743093,0.04813761309564782,1,27359.558079750426,9.312600013799965E-4,,,,,0,,1,,
Raw,505312061,49476000000,,,-1222339314523873917,0.0,6.360405839802818,,,0,28,0.0,16431,38563924420748,16,35.328880310058594,-262.22307571712247,0.08064693043229665,1,-12136.440030061052,0.0015556853031739593,,,,,0,,1,,
Raw,505312061,49476000000,,,-1222339314523873917,0.0,6.360405839802818,,,0,32,0.0,16431,38563923059371,30,29.73052978515625,-402.9188815301643,0.15267575892612184,4,-18662.65755156107,3.4028234663852886E38,,,,,0,,1,,
Raw,505312061,49476000000,,,-1222339314523873917,0.0,6.360405839802818,,,0,2,0.0,32995,49345931107928,33,38.8517951965332,-699.4012505957658,0.055225911158888086,1,-29601.04411204123,0.0010212220950052142,,,,,0,,3,,
Raw,505312062,49476000000,,,-1222339314523873917,0.0,6.360405839802818,,,0,18,0.0,99,1927829199,89,26.497703552246094,-728.9291321236069,0.22212913194799533,1,-25419.93063169545,0.003991130273789167,,,,,0,,3,,
Raw,505312062,49476000000,,,-1222339314523873917,0.0,6.360405839802818,,,0,9,0.0,16,2735121,1000000000,9.597528457641602,-489.7966991647211,2.99792458E8,4,-491.12426156855497,3.4028234663852886E38,,,,,0,,3,,
Raw,505312062,49476000000,,,-1222339314523873917,0.0,6.360405839802818,,,0,16,0.0,99,1925673489,166,17.332427978515625,273.7854127626598,4.20102063222987,4,11568.702376299347,3.4028234663852886E38,,,,,1,,3,,
Raw,505312063,49476000000,,,-1222339314523873917,0.0,6.360405839802818,,,0,15,0.0,16,49007815255,1000000000,9.819770812988281,711.1519272960481,2.99792458E8,2,4.962338198518606,3.4028234663852886E38,,,,,0,,3,,
Raw,505312063,49476000000,,,-1222339314523873917,0.0,6.360405839802818,,,0,1,0.0,32995,49345932061437,33,39.24102783203125,209.67736859940567,0.05306482047451522,1,9693.13376613253,9.747555013746023E-4,,,,,0,,3,,
Raw,505312063,49476000000,,,-1222339314523873917,0.0,6.360405839802818,,,0,24,0.0,32995,49345929737671,108,24.782203674316406,464.59415402927675,0.27066855773511245,4,19780.771017807514,3.4028234663852886E38,,,,,0,,3,,
Raw,505312064,49476000000,,,-1222339314523873917,0.0,6.360405839802818,,,0,17,0.0,32995,49345935970816,33,37.25529479980469,-165.32571455521816,0.06684094357639661,1,-7647.837891232373,0.001223841798491776,,,,,0,,3,,
Raw,505312064,49476000000,,,-1222339314523873917,0.0,6.360405839802818,,,0,3,0.0,17,917507,106,13.989509582519531,-962.538741580167,4.203222944713465,4,-34568.70168858325,3.4028234663852886E38,,,,,0,,3,,
Raw,505312064,49476000000,,,-1222339314523873917,0.0,6.360405839802818,,,0,8,0.0,16,49001514150,1000000000,7.0,671.8898235256402,2.99792458E8,2,0.6912189655934153,3.4028234663852886E38,,,,,0,,3,,
Raw,505312065,49476000000,,,-1222339314523873917,0.0,6.360405839802818,,,0,5,0.0,16,58846,1000000000,10.657732009887695,-82.43638787462913,2.99792458E8,4,-247.61094375076192,3.4028234663852886E38,,,,,0,,5,,
Raw,505312066,49476000000,,,-1222339314523873917,0.0,6.360405839802818,,,0,6,0.0,16,7126727,1000000000,7.0,52.45907803384995,2.99792458E8,4,371.2037352310334,3.4028234663852886E38,,,,,1,,5,,
Raw,505312066,49476000000,,,-1222339314523873917,0.0,6.360405839802818,,,0,9,0.0,17,710977,166,12.577981948852539,-118.50751313247486,4.202106477993151,4,-353.96450445699827,3.4028234663852886E38,,,,,1,,5,,
Raw,505312066,49476000000,,,-1222339314523873917,0.0,6.360405839802818,,,0,11,0.0,16431,38549925361365,6,36.65806198120117,-365.1163589603457,0.0694856789636337,1,-4717.52903421505,0.0013471897691488266,,,,,0,,5,,
Raw,505312067,49476000000,,,-1222339314523873917,0.0,6.360405839802818,,,0,12,0.0,16431,38549925310982,9,34.23664855957031,258.9250016055514,0.09150694407569909,1,2871.187693929372,0.0017803258961066604,,,,,0,,5,,
Raw,505312067,49476000000,,,-1222339314523873917,0.0,6.360405839802818,,,0,1,0.0,16,49007394407,1000000000,15.535079956054688,-391.16915913866455,2.99792458E8,2,-1.552464548727773,3.4028234663852886E38,,,,,0,,6,,
Raw,505312067,49476000000,,,-1222339314523873917,0.0,6.360405839802818,,,0,3,0.0,16,49007356002,1000000000,28.1837100982666,-543.5895515315206,2.99792458E8,2,-2.157387586471573,3.4028234663852886E38,,,,,0,,6,,
Raw,505312067,49476000000,,,-1222339314523873917,0.0,6.360405839802818,,,0,9,0.0,16,49005075545,1000000000,12.755911827087402,401.3800245357029,2.99792458E8,2,1.5929891554720386,3.4028234663852886E38,,,,,0,,6,,
Raw,505312068,49476000000,,,-1222339314523873917,0.0,6.360405839802818,,,0,27,0.0,16,49004986215,1000000000,20.99764633178711,480.6535008007163,2.99792458E8,2,1.907608153264265,3.4028234663852886E38,,,,,0,,6,,
Raw,505313068,50476000000,,,-1222339314523874229,0.0,6.286397196892958,,,0,1,0.0,16431,38564929950037,15,35.90264129638672,-483.5580418280467,0.07653719859478636,1,-22837.464462454645,0.0014562425203621387,,,,,0,,1,,
Raw,505313068,50476000000,,,-1222339314523874229,0.0,6.286397196892958,,,0,3,0.0,16431,38564918552673,43,26.751754760742188,-831.7342951754904,0.21769566669899176,4,-39252.79970641363,3.4028234663852886E38,,,,,0,,1,,
Raw,505313069,50476000000,,,-1222339314523874229,0.0,6.286397196892958,,,0,8,0.0,16431,38564929116256,6,43.17781448364258,323.96704140735665,0.03398706766515332,1,15402.630096371156,6.642839289270341E-4,,,,,0,,1,,
Raw,505313069,50476000000,,,-1222339314523874229,0.0,6.286397196892958,,,0,10,0.0,16431,38564923732945,69,21.169628143310547,458.131540870791,4.200671553319703,4,19486.388032779367,3.4028234663852886E38,,,,,0,,1,,
Raw,505313069,50476000000,,,-1222339314523874229,0.0,6.286397196892958,,,0,11,0.0,16431,38564932129029,15,35.43234634399414,-348.1679713105086,0.08108788885538498,1,-16453.53977063041,0.0015372639754787087,,,,,0,,1,,
Raw,505313070,50476000000,,,-1222339314523874229,0.0,6.286397196892958,,,0,14,0.0,16431,38564920342972,16,35.289093017578125,-604.665654444962,0.08387753292922967,1,-28544.573063215918,0.0015628277324140072,,,,,0,,1,,
Raw,505313070,50476000000,,,-1222339314523874229,0.0,6.286397196892958,,,0,18,0.0,16431,38564933793270,13,36.948543548583984,-162.26102006468705,0.06874867496452075,1,-7649.42929991768,0.0012910367222502828,,,,,0,,1,,
Raw,505313070,50476000000,,,-1222339314523874229,0.0,6.286397196892958,,,0,20,0.0,16,50015864283,1000000000,7.0,610.7956569102416,2.99792458E8,2,9.144657298103574,3.4028234663852886E38,,,,,0,,1,,
Raw,505313071,50476000000,,,-1222339314523874229,0.0,6.286397196892958,,,0,22,0.0,16431,38564924334525,12,37.36697769165039,-675.0057780307816,0.06393056722644896,1,-31880.37238572128,0.0012303165858611465,,,,,0,,1,,
Raw,505313071,50476000000,,,-1222339314523874229,0.0,6.286397196892958,,,0,24,0.0,16,50015748750,1000000000,7.0,-294.07304613154747,2.99792458E8,2,-4.402777013732716,3.4028234663852886E38,,,,,0,,1,,
Raw,505313071,50476000000,,,-1222339314523874229,0.0,6.286397196892958,,,0,27,0.0,16431,38564921871562,9,39.708251953125,587.6642344927754,0.04856647707279965,1,27947.4081093945,9.396219393238425E-4,,,,,0,,1,,
Raw,505313071,50476000000,,,-1222339314523874229,0.0,6.286397196892958,,,0,28,0.0,16431,38564924421634,15,35.47195816040039,-262.524944034545,0.07934248598363663,1,-12398.773496011981,0.0015302689280360937,,,,,0,,1,,
Raw,505313072,50476000000,,,-1222339314523874229,0.0,6.286397196892958,,,0,32,0.0,16431,38564923060730,31,29.64551544189453,-403.3855044424181,0.15417225835012438,4,-19065.89199043348,3.4028234663852886E38,,,,,0,,1,,
Raw,505313072,50476000000,,,-1222339314523874229,0.0,6.286397196892958,,,0,2,0.0,32995,49346931110260,33,38.93767166137695,-699.6979042973403,0.05470267139514404,1,-30300.569547116906,0.001011175219900906,,,,,0,,3,,
Raw,505313073,50476000000,,,-1222339314523874229,0.0,6.286397196892958,,,0,18,0.0,99,927831557,90,26.418601989746094,-729.3395530650546,0.2241488004079879,1,-26149.084678078623,0.004027642775326967,,,,,0,,3,,
Raw,505313073,50476000000,,,-1222339314523874229,0.0,6.286397196892958,,,0,9,0.0,17,737352,166,10.07082748413086,-490.055112350077,4.200492087884575,4,-981.5104302067645,3.4028234663852886E38,,,,,1,,3,,
Raw,505313073,50476000000,,,-1222339314523874229,0.0,6.286397196892958,,,0,16,0.0,99,925672806,93,16.5347900390625,273.59615288158864,4.201020365960678,4,11841.71671018003,3.4028234663852886E38,,,,,0,,3,,
Raw,505313073,50476000000,,,-1222339314523874229,0.0,6.286397196892958,,,0,15,0.0,16,50007812887,1000000000,7.0,710.8783814999961,2.99792458E8,2,4.9938169637757595,3.4028234663852886E38,,,,,0,,3,,
Raw,505313074,50476000000,,,-1222339314523874229,0.0,6.286397196892958,,,0,1,0.0,32995,49346932060751,33,39.207969665527344,209.4247494316586,0.053258793420128375,1,9902.676589697838,9.784725261852145E-4,,,,,0,,3,,
Raw,505313074,50476000000,,,-1222339314523874229,0.0,6.286397196892958,,,0,24,0.0,32995,49346929736309,131,23.156320571899414,464.7691674435214,0.32602555654538246,4,20245.821036105834,3.4028234663852886E38,,,,,0,,3,,
Raw,505313074,50476000000,,,-1222339314523874229,0.0,6.286397196892958,,,0,17,0.0,32995,49346935971352,33,37.38746643066406,-165.58136706159576,0.06587501880027505,1,-7813.290056932492,0.0012053598184138536,,,,,0,,3,,
Raw,505313075,50476000000,,,-1222339314523874229,0.0,6.286397196892958,,,0,3,0.0,17,920690,107,13.697708129882812,-963.1835134926655,4.203223477251848,4,-35532.16620794052,3.4028234663852886E38,,,,,0,,3,,
Raw,505313075,50476000000,,,-1222339314523874229,0.0,6.286397196892958,,,0,8,0.0,16,50001511911,1000000000,7.0,671.6168230488925,2.99792458E8,2,0.6804235522842927,3.4028234663852886E38,,,,,0,,3,,
Raw,505313075,50476000000,,,-1222339314523874229,0.0,6.286397196892958,,,0,5,0.0,16,59124,1000000000,7.0,-83.18580996988095,2.99792458E8,4,-330.9469854834787,3.4028234663852886E38,,,,,0,,5,,
Raw,505313075,50476000000,,,-1222339314523874229,0.0,6.286397196892958,,,0,6,0.0,16,7126276,1000000000,7.0,51.71009475022586,2.99792458E8,4,422.7591081211996,3.4028234663852886E38,,,,,1,,5,,
Raw,505313076,50476000000,,,-1222339314523874229,0.0,6.286397196892958,,,0,9,0.0,16,11711382,1000000000,7.526533126831055,-119.72381375840439,2.99792458E8,4,-472.9378248933418,3.4028234663852886E38,,,,,1,,5,,
Raw,505313076,50476000000,,,-1222339314523874229,0.0,6.286397196892958,,,0,11,0.0,16431,38550925362571,7,36.49688720703125,-365.46382960459573,0.07076925040394716,1,-5082.810966356492,0.0013724216260015965,,,,,0,,5,,
Raw,505313077,50476000000,,,-1222339314523874229,0.0,6.286397196892958,,,0,12,0.0,16431,38550925310123,8,34.851261138916016,258.6358460444119,0.08532081179856427,1,3129.951727748699,0.0016587040154263377,,,,,0,,5,,
Raw,505313077,50476000000,,,-1222339314523874229,0.0,6.286397196892958,,,0,1,0.0,16,50007395714,1000000000,7.0,-391.3548062793443,2.99792458E8,2,-1.5623826511428835,3.4028234663852886E38,,,,,0,,6,,
Raw,505313077,50476000000,,,-1222339314523874229,0.0,6.286397196892958,,,0,3,0.0,16,50007357817,1000000000,25.337961196899414,-543.7752668371133,2.99792458E8,2,-2.170881899038039,3.4028234663852886E38,,,,,0,,6,,
Raw,505313078,50476000000,,,-1222339314523874229,0.0,6.286397196892958,,,0,8,0.0,16,50007229793,1000000000,16.671287536621094,-720.1448561092438,2.99792458E8,2,-2.8749917116391694,3.4028234663852886E38,,,,,0,,6,,
Raw,505313079,50476000000,,,-1222339314523874229,0.0,6.286397196892958,,,0,27,0.0,16,50004984612,1000000000,19.083200454711914,480.46785366003655,2.99792458E8,2,1.9181433677896282,3.4028234663852886E38,,,,,0,,6,,
Raw,505314106,51476000000,,,-1222339314523874542,0.0,6.123124078310075,,,0,1,0.0,16431,38565929951647,14,36.32769775390625,-483.779577795445,0.07296768534243975,1,-23321.148209460378,0.001386694610118866,,,,,0,,1,,
Raw,505314106,51476000000,,,-1222339314523874542,0.0,6.123124078310075,,,0,3,0.0,16431,38565918555457,49,25.574291229248047,-831.5019209869179,0.2488163777201593,4,-40084.66488304399,3.4028234663852886E38,,,,,0,,1,,
Raw,505314106,51476000000,,,-1222339314523874542,0.0,6.123124078310075,,,0,8,0.0,16431,38565929115167,6,42.981605529785156,323.80596771782984,0.03472589602427423,1,15726.51803724866,6.794604705646634E-4,,,,,0,,1,,
Raw,505314107,51476000000,,,-1222339314523874542,0.0,6.123124078310075,,,0,10,0.0,16431,38565923731449,66,21.75775909423828,457.8525759641518,4.200671287050511,4,19943.833882547817,3.4028234663852886E38,,,,,0,,1,,
Raw,505314107,51476000000,,,-1222339314523874542,0.0,6.123124078310075,,,0,11,0.0,16431,38565932130198,15,35.55209732055664,-348.34748360901426,0.08000772627516145,1,-16801.819887658366,0.001516215386800468,,,,,0,,1,,
Raw,505314107,51476000000,,,-1222339314523874542,0.0,6.123124078310075,,,0,14,0.0,16431,38565920344977,15,35.778011322021484,-604.8032794044011,0.0794872282519995,1,-29149.29483888924,0.0014772877329960465,,,,,0,,1,,
Raw,505314107,51476000000,,,-1222339314523874542,0.0,6.123124078310075,,,0,18,0.0,16431,38565933793799,13,37.00635528564453,-162.47291069688936,0.06830914357788107,1,-7811.764761112892,0.0012824722798541188,,,,,0,,1,,
Raw,505314108,51476000000,,,-1222339314523874542,0.0,6.123124078310075,,,0,20,0.0,16,51015862246,1000000000,7.0,610.0530683475226,2.99792458E8,2,9.147851177948478,3.4028234663852886E38,,,,,0,,1,,
Raw,505314108,51476000000,,,-1222339314523874542,0.0,6.123124078310075,,,0,22,0.0,16431,38565924336763,13,36.874385833740234,-675.2002525277007,0.06761587429348587,1,-32555.473473897266,0.0013021064223721623,,,,,0,,1,,
Raw,505314108,51476000000,,,-1222339314523874542,0.0,6.123124078310075,,,0,24,0.0,16,51015749737,1000000000,7.0,-294.44434041290697,2.99792458E8,2,-4.415243906200351,3.4028234663852886E38,,,,,0,,1,,
Raw,505314108,51476000000,,,-1222339314523874542,0.0,6.123124078310075,,,0,27,0.0,16431,38565921869622,10,39.47502899169922,587.4195224549417,0.049878672451208445,1,28534.951953781885,9.651932632550597E-4,,,,,0,,1,,
Raw,505314109,51476000000,,,-1222339314523874542,0.0,6.123124078310075,,,0,28,0.0,16431,38565924422520,15,35.491363525390625,-262.64682289907057,0.07916737238560867,1,-12661.338657981607,0.0015268540009856224,,,,,0,,1,,
Raw,505314109,51476000000,,,-1222339314523874542,0.0,6.123124078310075,,,0,32,0.0,16431,38565923062051,31,29.654611587524414,-403.5488616565319,0.15401171466942343,4,-19469.346349818537,3.4028234663852886E38,,,,,0,,1,,
Raw,505314109,51476000000,,,-1222339314523874542,0.0,6.123124078310075,,,0,2,0.0,32995,49347931112564,33,38.83290100097656,-699.8193060074746,0.05534264523666116,1,-31000.317061177422,0.0010234459768980742,,,,,0,,3,,
Raw,505314109,51476000000,,,-1222339314523874542,0.0,6.123124078310075,,,0,18,0.0,99,1927834055,91,26.306570053100586,-729.4756102314936,0.22704081666508458,1,-26878.533013294116,0.004079928155988455,,,,,0,,3,,
Raw,505314110,51476000000,,,-1222339314523874542,0.0,6.123124078310075,,,0,9,0.0,17,738828,166,10.096244812011719,-490.1787635023418,4.200492354153766,4,-1472.2942494776496,3.4028234663852886E38,,,,,1,,3,,
Raw,505314110,51476000000,,,-1222339314523874542,0.0,6.123124078310075,,,0,16,0.0,99,1925672052,89,17.186452865600586,273.35885377804857,4.201020365960678,4,12113.698541605001,3.4028234663852886E38,,,,,0,,3,,
Raw,505314110,51476000000,,,-1222339314523874542,0.0,6.123124078310075,,,0,15,0.0,16,51007810519,1000000000,16.88968849182129,710.2400170893238,2.99792458E8,2,4.978213313592211,3.4028234663852886E38,,,,,0,,3,,
Raw,505314110,51476000000,,,-1222339314523874542,0.0,6.123124078310075,,,0,1,0.0,32995,49347932060069,33,39.18102264404297,209.3000076407851,0.053417419130558697,1,10112.034225718235,9.81512712314725E-4,,,,,0,,3,,
Raw,505314110,51476000000,,,-1222339314523874542,0.0,6.123124078310075,,,0,24,0.0,32995,49347929734783,61,22.608524322509766,464.7642936522386,4.201751008622386,4,20710.610034173667,3.4028234663852886E38,,,,,0,,3,,
Raw,505314111,51476000000,,,-1222339314523874542,0.0,6.123124078310075,,,0,17,0.0,32995,49347935971889,33,37.42138671875,-165.77011570581908,0.06562954356837089,1,-7978.9731938303385,0.0012006618781015277,,,,,0,,3,,
Raw,505314111,51476000000,,,-1222339314523874542,0.0,6.123124078310075,,,0,3,0.0,17,923906,104,14.323639869689941,-963.5875950971999,4.203224276059423,4,-36495.88285330398,3.4028234663852886E38,,,,,0,,3,,
Raw,505314111,51476000000,,,-1222339314523874542,0.0,6.123124078310075,,,0,8,0.0,16,51001509673,1000000000,12.02351188659668,671.1617540893999,2.99792458E8,2,0.6694550822890424,3.4028234663852886E38,,,,,0,,3,,
Raw,505314111,51476000000,,,-1222339314523874542,0.0,6.123124078310075,,,0,5,0.0,16,59406,1000000000,16.35474395751953,-83.18580996988095,2.99792458E8,4,-414.73128062465577,3.4028234663852886E38,,,,,1,,5,,
Raw,505314112,51476000000,,,-1222339314523874542,0.0,6.123124078310075,,,0,6,0.0,16,7126106,1000000000,9.710391998291016,51.70965593859813,2.99792458E8,4,473.8751998887606,3.4028234663852886E38,,,,,1,,5,,
Raw,505314112,51476000000,,,-1222339314523874542,0.0,6.123124078310075,,,0,9,0.0,17,711800,166,12.049568176269531,-119.8321618876904,4.202106744262343,4,-592.712833123924,3.4028234663852886E38,,,,,1,,5,,
Raw,505314112,51476000000,,,-1222339314523874542,0.0,6.123124078310075,,,0,11,0.0,16431,38551925363801,7,36.56572723388672,-365.6583381839714,0.07021841433476905,1,-5448.366071859336,0.0013615872012451291,,,,,0,,5,,
Raw,505314112,51476000000,,,-1222339314523874542,0.0,6.123124078310075,,,0,12,0.0,16431,38551925309256,8,34.93580627441406,258.3925143460673,0.08450344026861012,1,3388.436711274316,0.0016426369547843933,,,,,0,,5,,
Raw,505314113,51476000000,,,-1222339314523874542,0.0,6.123124078310075,,,0,1,0.0,16,51007397022,1000000000,17.1008243560791,-391.91174770138355,2.99792458E8,2,-1.5615413095152664,3.4028234663852886E38,,,,,0,,6,,
Raw,505314113,51476000000,,,-1222339314523874542,0.0,6.123124078310075,,,0,3,0.0,16,51007359632,1000000000,26.405309677124023,-544.3322082591526,2.99792458E8,2,-2.1688486084783625,3.4028234663852886E38,,,,,0,,6,,
Raw,505314113,51476000000,,,-1222339314523874542,0.0,6.123124078310075,,,0,9,0.0,16,51005072874,1000000000,13.617775917053223,400.63740189052737,2.99792458E8,2,1.5963079589679015,3.4028234663852886E38,,,,,0,,6,,
Raw,505314113,51476000000,,,-1222339314523874542,0.0,6.123124078310075,,,0,27,0.0,16,51004983014,1000000000,19.73500633239746,479.9108781555408,2.99792458E8,2,1.9121668154836553,3.4028234663852886E38,,,,,0,,6,,
Raw,505315098,52476000000,,,-1222339314523874856,0.0,5.9374817559506265,,,0,1,0.0,16431,38566929953243,13,36.68211364746094,-483.8678854402956,0.07012211641745009,1,-23805.00589718706,0.0013312511146068573,,,,,0,,1,,
Raw,505315098,52476000000,,,-1222339314523874856,0.0,5.9374817559506265,,,0,3,0.0,16431,38566918558150,58,24.085205078125,-832.3772948002497,0.2947237824739375,4,-40916.751297468225,3.4028234663852886E38,,,,,0,,1,,
Raw,505315098,52476000000,,,-1222339314523874856,0.0,5.9374817559506265,,,0,8,0.0,16431,38566929114098,6,43.060523986816406,323.7326904363058,0.03442644511491662,1,16050.240515952615,6.733151385560632E-4,,,,,0,,1,,
Raw,505315098,52476000000,,,-1222339314523874856,0.0,5.9374817559506265,,,0,10,0.0,16431,38566923729871,65,21.937705993652344,457.14393352812954,4.20067102078132,4,20401.073036487403,3.4028234663852886E38,,,,,0,,1,,
Raw,505315098,52476000000,,,-1222339314523874856,0.0,5.9374817559506265,,,0,11,0.0,16431,38566932131349,15,35.555992126464844,-348.4536163786263,0.07997301975022086,1,-17150.25287240803,0.0015155355213209987,,,,,0,,1,,
Raw,505315098,52476000000,,,-1222339314523874856,0.0,5.9374817559506265,,,0,14,0.0,16431,38566920346983,15,35.6936149597168,-604.9130249144046,0.08022797250116298,1,-29754.22128687651,0.001491712057031691,,,,,0,,1,,
Raw,505315099,52476000000,,,-1222339314523874856,0.0,5.9374817559506265,,,0,18,0.0,16431,38566933794362,12,37.326934814453125,-162.47953973468304,0.0659239707269654,1,-7974.235216219558,0.001236001611687243,,,,,0,,1,,
Raw,505315099,52476000000,,,-1222339314523874856,0.0,5.9374817559506265,,,0,20,0.0,16,52015860215,1000000000,7.0,609.8674552892994,2.99792458E8,2,9.140298708304204,3.4028234663852886E38,,,,,0,,1,,
Raw,505315099,52476000000,,,-1222339314523874856,0.0,5.9374817559506265,,,0,22,0.0,16431,38566924339025,13,37.19464874267578,-675.2769380548771,0.06519678540429213,1,-33230.76992364766,0.0012549699749797583,,,,,0,,1,,
Raw,505315100,52476000000,,,-1222339314523874856,0.0,5.9374817559506265,,,0,24,0.0,16,52015750719,1000000000,10.203912734985352,-294.63002163604324,2.99792458E8,2,-4.41572399730684,3.4028234663852886E38,,,,,0,,1,,
Raw,505315100,52476000000,,,-1222339314523874856,0.0,5.9374817559506265,,,0,27,0.0,16431,38566921867653,10,39.41157913208008,587.3480856260699,0.05024155991523299,1,29122.28638826735,9.722698596306145E-4,,,,,0,,1,,
Raw,505315100,52476000000,,,-1222339314523874856,0.0,5.9374817559506265,,,0,28,0.0,16431,38566924423394,15,35.614501953125,-262.68405798282174,0.0780642940130844,1,-12924.04376812558,0.0015053608221933246,,,,,0,,1,,
Raw,505315100,52476000000,,,-1222339314523874856,0.0,5.9374817559506265,,,0,32,0.0,16431,38566923063406,29,30.047372817993164,-403.5976677342726,0.14722725887697385,4,-19872.957084690006,3.4028234663852886E38,,,,,0,,1,,
Raw,505315100,52476000000,,,-1222339314523874856,0.0,5.9374817559506265,,,0,2,0.0,32995,49348931114917,33,38.88007354736328,-699.8652491588673,0.05505416336985999,1,-31700.207279789196,0.0010179027449339628,,,,,0,,3,,
Raw,505315100,52476000000,,,-1222339314523874856,0.0,5.9374817559506265,,,0,18,0.0,99,927836558,87,26.71255111694336,-729.5942853451061,0.21673782984956458,1,-27608.18869762918,0.0038936191704124212,,,,,0,,3,,
Raw,505315100,52476000000,,,-1222339314523874856,0.0,5.9374817559506265,,,0,9,0.0,17,740192,119,11.420738220214844,-490.97748587095384,4.200492620422958,4,-1963.8770919901729,3.4028234663852886E38,,,,,0,,3,,
Raw,505315101,52476000000,,,-1222339314523874856,0.0,5.9374817559506265,,,0,16,0.0,99,925670928,81,18.75767707824707,272.9145207923607,4.201020099691487,4,12386.236445799397,3.4028234663852886E38,,,,,0,,3,,
Raw,505315101,52476000000,,,-1222339314523874856,0.0,5.9374817559506265,,,0,15,0.0,16,52007808150,1000000000,7.0,709.9664031283587,2.99792458E8,2,4.965180518961091,3.4028234663852886E38,,,,,0,,3,,
Raw,505315101,52476000000,,,-1222339314523874856,0.0,5.9374817559506265,,,0,1,0.0,32995,49348932059336,33,39.157440185546875,209.2754682720887,0.05355661135045947,1,10321.291089059943,9.84181184321642E-4,,,,,0,,3,,
Raw,505315101,52476000000,,,-1222339314523874856,0.0,5.9374817559506265,,,0,24,0.0,32995,49348929733006,65,21.941978454589844,464.2797092853973,4.201750742353195,4,21175.175805317944,3.4028234663852886E38,,,,,0,,3,,
Raw,505315101,52476000000,,,-1222339314523874856,0.0,5.9374817559506265,,,0,17,0.0,32995,49348935972459,33,37.36941909790039,-165.8552366409848,0.06600626454898947,1,-8144.805452900329,0.0012078669387847185,,,,,0,,3,,
Raw,505315101,52476000000,,,-1222339314523874856,0.0,5.9374817559506265,,,0,3,0.0,17,927245,104,14.440168380737305,-964.3160735229185,4.203224808597806,4,-37460.33769937568,3.4028234663852886E38,,,,,0,,3,,
Raw,505315102,52476000000,,,-1222339314523874856,0.0,5.9374817559506265,,,0,8,0.0,16,52001507434,1000000000,7.0,670.8887536126522,2.99792458E8,2,0.658679615841741,3.4028234663852886E38,,,,,0,,3,,
Raw,505315102,52476000000,,,-1222339314523874856,0.0,5.9374817559506265,,,0,5,0.0,16,59688,1000000000,11.303245544433594,-83.93523206513277,2.99792458E8,4,-499.11616179441904,3.4028234663852886E38,,,,,1,,5,,
Raw,505315102,52476000000,,,-1222339314523874856,0.0,5.9374817559506265,,,0,6,0.0,16,7125936,1000000000,7.072183609008789,51.058323153218964,2.99792458E8,4,524.3962923992176,3.4028234663852886E38,,,,,1,,5,,
Raw,505315102,52476000000,,,-1222339314523874856,0.0,5.9374817559506265,,,0,9,0.0,17,712206,166,11.05196762084961,-119.98563518941262,4.202106744262343,4,-714.0617017873611,3.4028234663852886E38,,,,,1,,5,,
Raw,505315102,52476000000,,,-1222339314523874856,0.0,5.9374817559506265,,,0,11,0.0,16431,38552925365017,6,36.7850456237793,-365.7551323604962,0.06849187497106202,1,-5814.102213325346,0.0013276379322633147,,,,,0,,5,,
Raw,505315102,52476000000,,,-1222339314523874856,0.0,5.9374817559506265,,,0,12,0.0,16431,38552925308400,8,35.32459259033203,258.31102319252125,0.08084608314577735,1,3646.7399358822895,0.0015707325655966997,,,,,0,,5,,
Raw,505315102,52476000000,,,-1222339314523874856,0.0,5.9374817559506265,,,0,1,0.0,16,52007398332,1000000000,7.0,-392.0973948420633,2.99792458E8,2,-1.5592147159213687,3.4028234663852886E38,,,,,0,,6,,
Raw,505315103,52476000000,,,-1222339314523874856,0.0,5.9374817559506265,,,0,3,0.0,16,52007361447,1000000000,25.950273513793945,-544.5178553998323,2.99792458E8,2,-2.1653299446159755,3.4028234663852886E38,,,,,0,,6,,
Raw,505315103,52476000000,,,-1222339314523874856,0.0,5.9374817559506265,,,0,9,0.0,16,52005071539,1000000000,7.0,400.2661076091679,2.99792458E8,2,1.5916983785903502,3.4028234663852886E38,,,,,0,,6,,
Raw,505315103,52476000000,,,-1222339314523874856,0.0,5.9374817559506265,,,0,27,0.0,16,52004981415,1000000000,21.9075927734375,479.72523101486104,2.99792458E8,2,1.9076756370408754,3.4028234663852886E38,,,,,0,,6,,
Raw,505316062,53476000000,,,-1222339314523875169,0.0,5.768617032292531,,,0,1,0.0,16431,38567929954871,14,36.32653045654297,-483.7728294690535,0.0729778368553689,1,-24288.81993890033,0.0013868811074644327,,,,,0,,1,,
Raw,505316062,53476000000,,,-1222339314523875169,0.0,5.768617032292531,,,0,3,0.0,16431,38567918560988,55,24.615314483642578,-832.1432164888511,0.27747246782037216,4,-41748.87258080544,3.4028234663852886E38,,,,,0,,1,,
Raw,505316062,53476000000,,,-1222339314523875169,0.0,5.768617032292531,,,0,8,0.0,16431,38567929113012,7,42.478553771972656,323.804740749395,0.0366983100236728,1,16374.01540905817,7.19974166713655E-4,,,,,0,,1,,
Raw,505316062,53476000000,,,-1222339314523875169,0.0,5.768617032292531,,,0,10,0.0,16431,38567923728418,70,20.851482391357422,457.6951150150164,4.200670754512128,4,20858.36424570502,3.4028234663852886E38,,,,,0,,1,,
Raw,505316062,53476000000,,,-1222339314523875169,0.0,5.768617032292531,,,0,11,0.0,16431,38567932132507,16,35.03921127319336,-348.28950935046896,0.08474197585970861,1,-17498.604513802653,0.0016084413509815931,,,,,0,,1,,
Raw,505316063,53476000000,,,-1222339314523875169,0.0,5.768617032292531,,,0,14,0.0,16431,38567920349013,15,35.67475509643555,-604.8804420859688,0.08039477350786617,1,-30359.11844329951,0.0014949544565752149,,,,,0,,1,,
Raw,505316063,53476000000,,,-1222339314523875169,0.0,5.768617032292531,,,0,18,0.0,16431,38567933794894,14,36.42789077758789,-162.3300029566892,0.07284265531516637,1,-8136.636819478525,0.001370790763758123,,,,,0,,1,,
Raw,505316063,53476000000,,,-1222339314523875169,0.0,5.768617032292531,,,0,20,0.0,16,53015858119,1000000000,7.0,609.8674552892994,2.99792458E8,2,9.13552946153725,3.4028234663852886E38,,,,,0,,1,,
Raw,505316063,53476000000,,,-1222339314523875169,0.0,5.768617032292531,,,0,22,0.0,16431,38567924341254,14,36.41786193847656,-675.2492631001805,0.07122345571931682,1,-33906.039085655,0.0013723745942115784,,,,,0,,1,,
Raw,505316063,53476000000,,,-1222339314523875169,0.0,5.768617032292531,,,0,24,0.0,16,53015751704,1000000000,14.124128341674805,-294.63002163604324,2.99792458E8,2,-4.413419950346424,3.4028234663852886E38,,,,,0,,1,,
Raw,505316063,53476000000,,,-1222339314523875169,0.0,5.768617032292531,,,0,27,0.0,16431,38567921865681,10,39.011383056640625,587.3505395629395,0.05259438521982726,1,29709.618428342626,0.0010181143879890442,,,,,0,,1,,
Raw,505316063,53476000000,,,-1222339314523875169,0.0,5.768617032292531,,,0,28,0.0,16431,38567924424249,16,35.242462158203125,-262.56170196390485,0.08144597931350489,1,-13186.674422756721,0.001571240252815187,,,,,0,,1,,
Raw,505316064,53476000000,,,-1222339314523875169,0.0,5.768617032292531,,,0,32,0.0,16431,38567923064713,29,30.042879104614258,-403.49766980683466,0.14730339522394253,1,-20276.483753844568,0.002695538103580475,,,,,0,,1,,
Raw,505316064,53476000000,,,-1222339314523875169,0.0,5.768617032292531,,,0,2,0.0,32995,49349931117245,33,37.89753341674805,-699.7592527190814,0.06140870258975975,1,-32400.021235515844,0.0011398119386285543,,,,,0,,3,,
Raw,505316064,53476000000,,,-1222339314523875169,0.0,5.768617032292531,,,0,18,0.0,99,1927838860,98,25.692584991455078,-729.5689279974531,0.2435682618795031,1,-28337.850579622387,0.004378766752779484,,,,,0,,3,,
Raw,505316065,53476000000,,,-1222339314523875169,0.0,5.768617032292531,,,0,9,0.0,17,741778,114,12.397537231445312,-490.91232021408223,4.20049288669215,4,-2453.895758544387,3.4028234663852886E38,,,,,0,,3,,
Raw,505316065,53476000000,,,-1222339314523875169,0.0,5.768617032292531,,,0,16,0.0,99,1925670055,76,19.80166244506836,272.8358755239343,4.201020099691487,4,12659.067992001972,3.4028234663852886E38,,,,,0,,3,,
Raw,505316065,53476000000,,,-1222339314523875169,0.0,5.768617032292531,,,0,15,0.0,16,53007805780,1000000000,11.888496398925781,709.9664031283587,2.99792458E8,2,4.9540655855828275,3.4028234663852886E38,,,,,0,,3,,
Raw,505316065,53476000000,,,-1222339314523875169,0.0,5.768617032292531,,,0,1,0.0,32995,49349932058651,33,38.4083251953125,209.4719025102579,0.058185131263667006,1,10530.677141188671,0.0010728298220783472,,,,,0,,3,,
Raw,505316065,53476000000,,,-1222339314523875169,0.0,5.768617032292531,,,0,24,0.0,32995,49349929731565,69,21.068063735961914,464.1163520712835,4.201750476084003,4,21639.8281600357,3.4028234663852886E38,,,,,0,,3,,
Raw,505316065,53476000000,,,-1222339314523875169,0.0,5.768617032292531,,,0,17,0.0,32995,49349935973025,33,36.51911926269531,-165.6974348672842,0.07249936775991611,1,-8310.556956708255,0.0013320914003998041,,,,,0,,3,,
Raw,505316065,53476000000,,,-1222339314523875169,0.0,5.768617032292531,,,0,3,0.0,17,930519,105,14.174617767333984,-964.0317576706052,4.203225341136189,4,-38424.7837662572,3.4028234663852886E38,,,,,0,,3,,
Raw,505316066,53476000000,,,-1222339314523875169,0.0,5.768617032292531,,,0,8,0.0,16,53001505202,1000000000,7.0,670.8887536126522,2.99792458E8,2,0.6901890670412918,3.4028234663852886E38,,,,,0,,3,,
Raw,505316066,53476000000,,,-1222339314523875169,0.0,5.768617032292531,,,0,5,0.0,16,59794,1000000000,7.0,-84.30994311275867,2.99792458E8,4,-583.5010449716278,3.4028234663852886E38,,,,,0,,5,,
