# 
# Header Description:
# 
# Version: v2.0.0.1 Platform: 8.0.0 Manufacturer: HUAWEI Model: VKY-TL00
# 
# Raw,ElapsedRealtimeMillis,TimeNanos,LeapSecond,TimeUncertaintyNanos,FullBiasNanos,BiasNanos,BiasUncertaintyNanos,DriftNanosPerSecond,DriftUncertaintyNanosPerSecond,HardwareClockDiscontinuityCount,Svid,TimeOffsetNanos,State,ReceivedSvTimeNanos,ReceivedSvTimeUncertaintyNanos,Cn0DbHz,PseudorangeRateMetersPerSecond,PseudorangeRateUncertaintyMetersPerSecond,AccumulatedDeltaRangeState,AccumulatedDeltaRangeMeters,AccumulatedDeltaRangeUncertaintyMeters,CarrierFrequencyHz,CarrierCycles,CarrierPhase,CarrierPhaseUncertainty,MultipathIndicator,SnrInDb,ConstellationType,AgcDb,CarrierFrequencyHz
# 
# Fix,Provider,Latitude,Longitude,Altitude,Speed,Accuracy,(UTC)TimeInMs
# 
# Nav,Svid,Type,Status,MessageId,Sub-messageId,Data(Bytes)
# 
Raw,504905235,10536000000,,,-1222338947464477763,0.0,21.22384646424776,,,0,1,0.0,51,10002253,8,41.13224411010742,-518.1808416165698,0.04273617196565627,4,-3855.117194753757,3.4028234663852886E38,,,,,0,,1,,
Raw,504905236,10536000000,,,-1222338947464477763,0.0,21.22384646424776,,,0,3,0.0,51,18148653,35,28.424657821655273,-842.0249476032486,0.18006988283464465,4,-7105.593933003605,3.4028234663852886E38,,,,,0,,1,,
Raw,504905237,10536000000,,,-1222338947464477763,0.0,21.22384646424776,,,0,8,0.0,51,10261016,10,39.07688903808594,283.40540765219043,0.053711854610065446,4,2379.8195879449245,3.4028234663852886E38,,,,,0,,1,,
Raw,504905237,10536000000,,,-1222338947464477763,0.0,21.22384646424776,,,0,10,0.0,17,65637,166,16.79434585571289,426.0437260335216,4.200911195592129,4,3151.6160020340867,3.4028234663852886E38,,,,,1,,1,,
Raw,504905238,10536000000,,,-1222338947464477763,0.0,21.22384646424776,,,0,11,0.0,51,12358179,14,36.30132293701172,-392.8924363053709,0.07361700772885515,4,-3321.7209290222895,3.4028234663852886E38,,,,,0,,1,,
Raw,504905238,10536000000,,,-1222338947464477763,0.0,21.22384646424776,,,0,14,0.0,51,236232,20,33.09611892700195,-631.0232540319644,0.10689768611124356,4,-4688.139966333609,3.4028234663852886E38,,,,,0,,1,,
Raw,504905239,10536000000,,,-1222338947464477763,0.0,21.22384646424776,,,0,18,0.0,51,14273465,10,39.30370330810547,-209.1274992870949,0.05309674781476864,4,-1556.8526589962296,3.4028234663852886E38,,,,,0,,1,,
Raw,504905239,10536000000,,,-1222338947464477763,0.0,21.22384646424776,,,0,20,0.0,16,17418653,1000000000,11.231861114501953,599.4931645132342,2.99792458E8,4,3246.724792896912,3.4028234663852886E38,,,,,1,,1,,
Raw,504905240,10536000000,,,-1222338947464477763,0.0,21.22384646424776,,,0,22,0.0,51,4132074,53,24.88518714904785,-701.5980694134,0.26649066098455654,4,-5921.698717458004,3.4028234663852886E38,,,,,0,,1,,
Raw,504905240,10536000000,,,-1222338947464477763,0.0,21.22384646424776,,,0,27,0.0,51,3388773,38,27.68942642211914,568.2883579595577,0.19303259932125283,4,4783.632728653495,3.4028234663852886E38,,,,,0,,1,,
Raw,504905241,10536000000,,,-1222338947464477763,0.0,21.22384646424776,,,0,28,0.0,51,4765201,60,22.90886688232422,-310.53361158117355,4.200857142946237,4,-2308.760898195171,3.4028234663852886E38,,,,,0,,1,,
Raw,504905241,10536000000,,,-1222338947464477763,0.0,21.22384646424776,,,0,32,0.0,51,3213911,29,29.994136810302734,-449.0691179287453,0.1481560890263428,4,-3339.742562476566,3.4028234663852886E38,,,,,0,,1,,
Raw,504905242,10536000000,,,-1222338947464477763,0.0,21.22384646424776,,,0,2,0.0,99,1930859214,33,38.27259063720703,-748.3886470051316,0.058851619692027374,4,-4808.637930967205,3.4028234663852886E38,,,,,0,,3,,
Raw,504905242,10536000000,,,-1222338947464477763,0.0,21.22384646424776,,,0,18,0.0,17,560359,66,21.623722076416016,-749.3434329421616,4.201360391718332,4,-3318.2272784274655,3.4028234663852886E38,,,,,0,,3,,
Raw,504905243,10536000000,,,-1222338947464477763,0.0,21.22384646424776,,,0,1,0.0,99,1933031455,58,30.249696731567383,141.37659436147084,0.14564322345623792,4,762.5405554562867,3.4028234663852886E38,,,,,0,,3,,
Raw,504905243,10536000000,,,-1222338947464477763,0.0,21.22384646424776,,,0,24,0.0,99,1931076519,40,33.26637649536133,430.5929160003602,0.10324584575322393,4,3190.492075118744,3.4028234663852886E38,,,,,0,,3,,
Raw,504905245,10536000000,,,-1222338947464477763,0.0,21.22384646424776,,,0,17,0.0,99,1936445639,33,36.39427947998047,-214.31135571807306,0.07359232790316017,4,-1595.6558123126038,3.4028234663852886E38,,,,,0,,3,,
Raw,504906250,11536000000,,,-1222338947464478084,0.0,19.6227530586923,,,0,1,0.0,51,10003985,9,39.794437408447266,-517.3173284981078,0.049553108439023025,4,-4372.853297614963,3.4028234663852886E38,,,,,0,,1,,
Raw,504906250,11536000000,,,-1222338947464478084,0.0,19.6227530586923,,,0,3,0.0,51,18151451,44,26.59896469116211,-840.9522363666497,0.2214275126281703,4,-7947.249661214784,3.4028234663852886E38,,,,,0,,1,,
Raw,504906251,11536000000,,,-1222338947464478084,0.0,19.6227530586923,,,0,8,0.0,51,10260070,11,38.10994338989258,284.19368374787825,0.05981927105743812,4,2663.6922891535683,3.4028234663852886E38,,,,,0,,1,,
Raw,504906251,11536000000,,,-1222338947464478084,0.0,19.6227530586923,,,0,10,0.0,17,64060,76,19.80124855041504,426.29586804687733,4.200910929322937,4,3578.310312351984,3.4028234663852886E38,,,,,0,,1,,
Raw,504906251,11536000000,,,-1222338947464478084,0.0,19.6227530586923,,,0,11,0.0,51,12359473,16,35.38434982299805,-391.724873592269,0.08156659093638041,4,-3714.0472619015427,3.4028234663852886E38,,,,,0,,1,,
Raw,504906252,11536000000,,,-1222338947464478084,0.0,19.6227530586923,,,0,14,0.0,51,238293,19,33.54586410522461,-630.6175364695168,0.10168756355586156,4,-5318.717053721293,3.4028234663852886E38,,,,,0,,1,,
Raw,504906252,11536000000,,,-1222338947464478084,0.0,19.6227530586923,,,0,18,0.0,51,14274170,15,35.88408660888672,-208.20352389076152,0.07747486555295102,4,-1765.4958697604766,3.4028234663852886E38,,,,,0,,1,,
Raw,504906252,11536000000,,,-1222338947464478084,0.0,19.6227530586923,,,0,20,0.0,16,17416651,1000000000,10.37164306640625,598.8203086565609,2.99792458E8,4,3846.9774040193347,3.4028234663852886E38,,,,,1,,1,,
Raw,504906253,11536000000,,,-1222338947464478084,0.0,19.6227530586923,,,0,22,0.0,51,4134526,12,37.37322998046875,-700.8213302292452,0.0638491512606659,4,-6622.94473262741,3.4028234663852886E38,,,,,0,,1,,
Raw,504906253,11536000000,,,-1222338947464478084,0.0,19.6227530586923,,,0,27,0.0,51,3386857,17,34.55674362182617,568.8024918162043,0.08788447653787612,4,5352.265238356981,3.4028234663852886E38,,,,,0,,1,,
Raw,504906253,11536000000,,,-1222338947464478084,0.0,19.6227530586923,,,0,28,0.0,51,4766180,61,22.566930770874023,-309.1644170552827,4.200857409215429,4,-2618.3657600563274,3.4028234663852886E38,,,,,0,,1,,
Raw,504906254,11536000000,,,-1222338947464478084,0.0,19.6227530586923,,,0,32,0.0,51,3215591,23,32.05763244628906,-448.42983329174695,0.11694994719923785,4,-3788.4076667200166,3.4028234663852886E38,,,,,0,,1,,
Raw,504906254,11536000000,,,-1222338947464478084,0.0,19.6227530586923,,,0,2,0.0,99,930861712,33,35.83657455444336,-747.5234979287566,0.0772719767498759,4,-5556.50500630992,3.4028234663852886E38,,,,,0,,3,,
Raw,504906254,11536000000,,,-1222338947464478084,0.0,19.6227530586923,,,0,18,0.0,17,562876,87,17.58585548400879,-748.983931190759,4.201360657987523,4,-4066.6555654803865,3.4028234663852886E38,,,,,0,,3,,
Raw,504906255,11536000000,,,-1222338947464478084,0.0,19.6227530586923,,,0,9,0.0,17,764565,72,20.430030822753906,-550.3122479157319,4.200497146999215,6,-1.104441812470838,3.4028234663852886E38,,,,,0,,3,,
Raw,504906255,11536000000,,,-1222338947464478084,0.0,19.6227530586923,,,0,1,0.0,99,933030959,43,32.75250244140625,141.96453377771758,0.10976848404213585,4,904.2953943845857,3.4028234663852886E38,,,,,0,,3,,
Raw,504906256,11536000000,,,-1222338947464478084,0.0,19.6227530586923,,,0,24,0.0,99,931075045,37,33.990196228027344,431.3788233653197,0.09514983945306393,4,3621.54801573373,3.4028234663852886E38,,,,,0,,3,,
Raw,504906256,11536000000,,,-1222338947464478084,0.0,19.6227530586923,,,0,17,0.0,99,936446345,41,33.19870376586914,-213.08121761479526,0.10500369670967885,4,-1809.472189227346,3.4028234663852886E38,,,,,0,,3,,
Raw,504907235,12536000000,,,-1222338947464478403,0.0,19.282030182062623,,,0,1,0.0,51,10005723,11,38.36073303222656,-516.9065326496384,0.05812353571083251,4,-4890.002667165017,3.4028234663852886E38,,,,,0,,1,,
Raw,504907236,12536000000,,,-1222338947464478403,0.0,19.282030182062623,,,0,3,0.0,51,18154218,41,27.206533432006836,-840.9141321802572,0.20668926324660353,4,-8788.337482734427,3.4028234663852886E38,,,,,0,,1,,
Raw,504907236,12536000000,,,-1222338947464478403,0.0,19.282030182062623,,,0,8,0.0,51,10259111,166,33.38417053222656,284.9371243720103,0.10173487626284122,4,2947.964304147972,3.4028234663852886E38,,,,,1,,1,,
Raw,504907236,12536000000,,,-1222338947464478403,0.0,19.282030182062623,,,0,10,0.0,17,62626,83,18.450010299682617,426.5169609423408,4.200910663053746,4,4005.510046077117,3.4028234663852886E38,,,,,0,,1,,
Raw,504907236,12536000000,,,-1222338947464478403,0.0,19.282030182062623,,,0,11,0.0,51,12360747,26,31.162639617919922,-391.3635995531272,0.13122537912126964,4,-4105.910950724148,3.4028234663852886E38,,,,,0,,1,,
Raw,504907236,12536000000,,,-1222338947464478403,0.0,19.282030182062623,,,0,14,0.0,51,240385,166,30.188385009765625,-629.7592720493594,0.14795497257757417,1,-5948.882695498596,0.002650759182870388,,,,,1,,1,,
Raw,504907237,12536000000,,,-1222338947464478403,0.0,19.282030182062623,,,0,18,0.0,51,14274777,166,30.48618507385254,-209.16342219626995,0.1420178685618687,4,-1973.9078027899736,3.4028234663852886E38,,,,,1,,1,,
Raw,504907237,12536000000,,,-1222338947464478403,0.0,19.282030182062623,,,0,20,0.0,16,17414648,1000000000,9.51144027709961,599.9611848062054,2.99792458E8,4,4447.728423549278,3.4028234663852886E38,,,,,0,,1,,
Raw,504907237,12536000000,,,-1222338947464478403,0.0,19.282030182062623,,,0,22,0.0,51,4136851,9,40.3182373046875,-700.5205866328879,0.04570310971653502,4,-7323.677394135591,3.4028234663852886E38,,,,,0,,1,,
Raw,504907237,12536000000,,,-1222338947464478403,0.0,19.282030182062623,,,0,27,0.0,51,3384974,20,33.132347106933594,569.2938585918937,0.10343679404723893,4,5921.262901667768,3.4028234663852886E38,,,,,0,,1,,
Raw,504907238,12536000000,,,-1222338947464478403,0.0,19.282030182062623,,,0,28,0.0,51,4767224,73,20.372024536132812,-308.70297467642035,4.200857409215429,4,-2926.167457541633,3.4028234663852886E38,,,,,0,,1,,
Raw,504907238,12536000000,,,-1222338947464478403,0.0,19.282030182062623,,,0,32,0.0,51,3217093,23,32.081321716308594,-447.8298457271194,0.11663323663767261,4,-4236.57385755916,3.4028234663852886E38,,,,,0,,1,,
Raw,504907238,12536000000,,,-1222338947464478403,0.0,19.282030182062623,,,0,2,0.0,99,1930864197,33,35.907928466796875,-747.1528171316145,0.07665621260251237,4,-6303.92322569567,3.4028234663852886E38,,,,,0,,3,,
Raw,504907238,12536000000,,,-1222338947464478403,0.0,19.282030182062623,,,0,18,0.0,17,565370,105,14.045105934143066,-748.9561880711494,4.2013611905259065,4,-4814.500495427781,3.4028234663852886E38,,,,,0,,3,,
Raw,504907239,12536000000,,,-1222338947464478403,0.0,19.282030182062623,,,0,9,0.0,17,766299,103,15.098247528076172,-550.5407707867173,299.79296847994465,4,-549.9129726349936,3.4028234663852886E38,,,,,0,,3,,
Raw,504907239,12536000000,,,-1222338947464478403,0.0,19.282030182062623,,,0,1,0.0,99,1933030437,166,29.413272857666016,142.1591105220063,0.1601285503894484,4,1046.6990668079013,3.4028234663852886E38,,,,,1,,3,,
Raw,504907239,12536000000,,,-1222338947464478403,0.0,19.282030182062623,,,0,24,0.0,99,1931073569,59,30.096576690673828,432.0895789136464,0.1478396114503202,4,4053.014699114323,3.4028234663852886E38,,,,,0,,3,,
Raw,504907239,12536000000,,,-1222338947464478403,0.0,19.282030182062623,,,0,17,0.0,99,1936447132,75,27.962261199951172,-211.91167811921503,0.18943120865412622,4,-2021.4269134908423,3.4028234663852886E38,,,,,0,,3,,
Raw,504908212,13536000000,,,-1222338947464478720,0.0,18.91322919296169,,,0,1,0.0,51,10007447,12,37.501338958740234,-516.5030986117779,0.06398163682530364,4,-5406.727180303127,3.4028234663852886E38,,,,,0,,1,,
Raw,504908212,13536000000,,,-1222338947464478720,0.0,18.91322919296169,,,0,3,0.0,51,18157039,37,27.992582321166992,-840.29982998389,0.18908888632469545,4,-9628.93281856547,3.4028234663852886E38,,,,,0,,1,,
Raw,504908212,13536000000,,,-1222338947464478720,0.0,18.91322919296169,,,0,8,0.0,51,10258175,26,30.982303619384766,285.1962192064967,0.1335535204397128,4,3232.700836031799,3.4028234663852886E38,,,,,0,,1,,
Raw,504908212,13536000000,,,-1222338947464478720,0.0,18.91322919296169,,,0,10,0.0,17,61198,91,16.806453704833984,427.0897847891197,4.200910396784554,4,4433.161140533134,3.4028234663852886E38,,,,,0,,1,,
Raw,504908212,13536000000,,,-1222338947464478720,0.0,18.91322919296169,,,0,11,0.0,51,12362030,36,28.233980178833008,-391.2655784081676,0.18295327862666377,4,-4497.230914935374,3.4028234663852886E38,,,,,0,,1,,
Raw,504908212,13536000000,,,-1222338947464478720,0.0,18.91322919296169,,,0,14,0.0,51,242518,35,28.424348831176758,-629.3525320132162,0.18045281121579204,1,-6578.53662882844,0.003247670829296112,,,,,0,,1,,
Raw,504908212,13536000000,,,-1222338947464478720,0.0,18.91322919296169,,,0,18,0.0,51,14275534,166,26.51483154296875,-207.4504379314335,0.22285376691106795,4,-2182.9975863151567,3.4028234663852886E38,,,,,1,,1,,
Raw,504908212,13536000000,,,-1222338947464478720,0.0,18.91322919296169,,,0,20,0.0,16,17412645,1000000000,8.651235580444336,600.3393637437825,2.99792458E8,4,5048.1242565226075,3.4028234663852886E38,,,,,0,,1,,
Raw,504908212,13536000000,,,-1222338947464478720,0.0,18.91322919296169,,,0,22,0.0,51,4139206,12,37.79316711425781,-700.0019198095238,0.06087161266759719,4,-8023.896543635207,3.4028234663852886E38,,,,,0,,1,,
Raw,504908214,13536000000,,,-1222338947464478720,0.0,18.91322919296169,,,0,27,0.0,51,3383062,14,36.36884307861328,569.6249014920998,0.07144979285307584,4,6490.761585984926,3.4028234663852886E38,,,,,0,,1,,
Raw,504908214,13536000000,,,-1222338947464478720,0.0,18.91322919296169,,,0,28,0.0,51,4768292,52,25.142545700073242,-308.5269047060235,0.2588466383161989,4,-3233.932877184089,3.4028234663852886E38,,,,,0,,1,,
Raw,504908214,13536000000,,,-1222338947464478720,0.0,18.91322919296169,,,0,32,0.0,51,3218584,23,32.095359802246094,-447.4138693452585,0.11644608267963769,4,-4684.1882691495975,3.4028234663852886E38,,,,,0,,1,,
Raw,504908215,13536000000,,,-1222338947464478720,0.0,18.91322919296169,,,0,2,0.0,99,930866644,33,37.83102035522461,-746.6405578100766,0.061820308994932016,4,-7050.803416642697,3.4028234663852886E38,,,,,0,,3,,
Raw,504908215,13536000000,,,-1222338947464478720,0.0,18.91322919296169,,,0,18,0.0,17,567812,89,17.254844665527344,-748.6230661410955,4.20136172306429,4,-5562.023472191058,3.4028234663852886E38,,,,,0,,3,,
Raw,504908215,13536000000,,,-1222338947464478720,0.0,18.91322919296169,,,0,9,0.0,17,767977,169,14.23804759979248,-550.1471865787919,299.79296847994465,4,-1098.2535293396052,3.4028234663852886E38,,,,,1,,3,,
Raw,504908216,13536000000,,,-1222338947464478720,0.0,18.91322919296169,,,0,15,0.0,16,19498899,1000000000,8.958221435546875,704.3188037527029,2.99792458E8,6,13.38789645952482,3.4028234663852886E38,,,,,0,,3,,
Raw,504908216,13536000000,,,-1222338947464478720,0.0,18.91322919296169,,,0,1,0.0,99,933030028,67,28.976152420043945,143.29201989743865,0.16827227712128767,4,1189.6686574931468,3.4028234663852886E38,,,,,0,,3,,
Raw,504908216,13536000000,,,-1222338947464478720,0.0,18.91322919296169,,,0,24,0.0,99,931072292,66,29.055173873901367,432.3657490588507,0.16641739600723693,4,4485.024064801259,3.4028234663852886E38,,,,,0,,3,,
Raw,504908216,13536000000,,,-1222338947464478720,0.0,18.91322919296169,,,0,17,0.0,99,936447811,166,24.57196807861328,-212.25631991957368,0.2784639211552369,4,-2232.604670983825,3.4028234663852886E38,,,,,1,,3,,
Raw,504909213,14536000000,,,-1222338947464479026,0.0,18.04662504447819,,,0,1,0.0,16431,38161930009167,15,35.967987060546875,-515.8067258601038,0.0759876106624438,4,-5922.969624835109,3.4028234663852886E38,,,,,0,,1,,
Raw,504909213,14536000000,,,-1222338947464479026,0.0,18.04662504447819,,,0,3,0.0,16431,38161918159850,41,27.090225219726562,-840.3284592473692,0.2094325515183758,4,-10469.243335578743,3.4028234663852886E38,,,,,0,,1,,
Raw,504909213,14536000000,,,-1222338947464479026,0.0,18.04662504447819,,,0,8,0.0,51,10257247,34,28.715883255004883,285.93313304020467,0.17282067081010888,4,3518.2108888013245,3.4028234663852886E38,,,,,0,,1,,
Raw,504909214,14536000000,,,-1222338947464479026,0.0,18.04662504447819,,,0,10,0.0,17,59808,71,20.62701416015625,427.6287988390279,4.200910130515362,4,4861.283161981248,3.4028234663852886E38,,,,,0,,1,,
Raw,504909214,14536000000,,,-1222338947464479026,0.0,18.04662504447819,,,0,11,0.0,51,12363357,41,27.099536895751953,-390.6535597363875,0.20816898771153625,4,-4888.016989234071,3.4028234663852886E38,,,,,0,,1,,
Raw,504909214,14536000000,,,-1222338947464479026,0.0,18.04662504447819,,,0,14,0.0,16431,38161920244594,24,31.5330753326416,-629.0782364031206,0.12725746059101478,1,-7207.788041902756,0.0022705744486302137,,,,,0,,1,,
Raw,504909214,14536000000,,,-1222338947464479026,0.0,18.04662504447819,,,0,18,0.0,51,14276276,60,22.8031005859375,-207.2536799099273,4.202567922502167,4,-2389.894270417689,3.4028234663852886E38,,,,,0,,1,,
Raw,504909214,14536000000,,,-1222338947464479026,0.0,18.04662504447819,,,0,20,0.0,16,17410639,1000000000,7.790988922119141,600.9562562068454,2.99792458E8,4,5648.520860501317,3.4028234663852886E38,,,,,0,,1,,
Raw,504909214,14536000000,,,-1222338947464479026,0.0,18.04662504447819,,,0,22,0.0,16431,38161924141492,15,35.9217643737793,-699.8862439520854,0.07532802027032792,1,-8723.764408210454,0.001453039818443358,,,,,0,,1,,
Raw,504909215,14536000000,,,-1222338947464479026,0.0,18.04662504447819,,,0,27,0.0,16431,38161923381131,16,35.342308044433594,570.0150092894598,0.08033655208494378,1,7060.657779711736,0.0015532822581008077,,,,,0,,1,,
Raw,504909215,14536000000,,,-1222338947464479026,0.0,18.04662504447819,,,0,28,0.0,16431,38161924769278,46,26.110248565673828,-308.246746913406,0.2316473236049691,4,-3542.049023052555,3.4028234663852886E38,,,,,0,,1,,
Raw,504909215,14536000000,,,-1222338947464479026,0.0,18.04662504447819,,,0,32,0.0,16431,38161923220073,19,33.63172149658203,-447.0414162603772,0.09766202270836538,4,-5131.347165954702,3.4028234663852886E38,,,,,0,,1,,
Raw,504909215,14536000000,,,-1222338947464479026,0.0,18.04662504447819,,,0,2,0.0,99,1930869160,33,37.904109954833984,-746.2594477812386,0.061319119648616055,4,-7797.197936317168,3.4028234663852886E38,,,,,0,,3,,
Raw,504909215,14536000000,,,-1222338947464479026,0.0,18.04662504447819,,,0,18,0.0,17,570244,89,17.226707458496094,-748.0414831029902,4.201361989333481,4,-6309.125585321696,3.4028234663852886E38,,,,,0,,3,,
Raw,504909215,14536000000,,,-1222338947464479026,0.0,18.04662504447819,,,0,9,0.0,17,769831,166,14.006587982177734,-548.2992017036686,4.20049794580679,4,-1648.4605279352465,3.4028234663852886E38,,,,,1,,3,,
Raw,504909215,14536000000,,,-1222338947464479026,0.0,18.04662504447819,,,0,15,0.0,16,19496543,1000000000,9.515859603881836,705.1741370815994,2.99792458E8,4,717.9362003282195,3.4028234663852886E38,,,,,0,,3,,
Raw,504909215,14536000000,,,-1222338947464479026,0.0,18.04662504447819,,,0,1,0.0,99,1933029580,50,31.498220443725586,143.5556476986426,0.12645678913192032,4,1333.1255059488226,3.4028234663852886E38,,,,,0,,3,,
Raw,504909215,14536000000,,,-1222338947464479026,0.0,18.04662504447819,,,0,24,0.0,99,1931070787,47,31.973726272583008,432.46782601613654,0.11949256835150229,4,4917.451046585581,3.4028234663852886E38,,,,,0,,3,,
Raw,504909215,14536000000,,,-1222338947464479026,0.0,18.04662504447819,,,0,17,0.0,99,1936448362,113,24.422555923461914,-212.9277272718448,0.2832441853844547,4,-2445.9173046001324,3.4028234663852886E38,,,,,0,,3,,
Raw,504910218,15536000000,,,-1222338947464479335,0.0,17.166171911386563,,,0,1,0.0,16431,38162930010896,17,34.63359451293945,-515.6965713606221,0.08830720384225316,4,-6439.058694495658,3.4028234663852886E38,,,,,0,,1,,
Raw,504910219,15536000000,,,-1222338947464479335,0.0,17.166171911386563,,,0,3,0.0,16431,38162918162625,53,24.95743751525879,-839.8939760916164,0.26681307969191637,4,-11309.484310417929,3.4028234663852886E38,,,,,0,,1,,
Raw,504910219,15536000000,,,-1222338947464479335,0.0,17.166171911386563,,,0,8,0.0,51,10256235,36,28.184072494506836,286.46829577252583,0.1836158895099217,4,3804.4261158332274,3.4028234663852886E38,,,,,0,,1,,
Raw,504910219,15536000000,,,-1222338947464479335,0.0,17.166171911386563,,,0,10,0.0,17,58401,73,20.354724884033203,427.7371128858574,4.200909864246171,4,5289.501661346626,3.4028234663852886E38,,,,,0,,1,,
Raw,504910219,15536000000,,,-1222338947464479335,0.0,17.166171911386563,,,0,11,0.0,51,12364682,47,26.004329681396484,-390.2970572411589,0.235845090693947,4,-5278.689217843327,3.4028234663852886E38,,,,,0,,1,,
Raw,504910220,15536000000,,,-1222338947464479335,0.0,17.166171911386563,,,0,14,0.0,16431,38162920246687,27,30.859237670898438,-629.2499438190825,0.13722958297325438,1,-7836.971986577345,0.002453734865412116,,,,,0,,1,,
Raw,504910220,15536000000,,,-1222338947464479335,0.0,17.166171911386563,,,0,18,0.0,51,14276982,58,24.074283599853516,-207.48409435724977,0.2943202847977402,4,-2596.419072947069,3.4028234663852886E38,,,,,0,,1,,
Raw,504910220,15536000000,,,-1222338947464479335,0.0,17.166171911386563,,,0,20,0.0,16,17408610,1000000000,7.0,601.1420055948947,2.99792458E8,4,6250.030456129,3.4028234663852886E38,,,,,0,,1,,
Raw,504910220,15536000000,,,-1222338947464479335,0.0,17.166171911386563,,,0,22,0.0,16431,38162924143850,11,38.0465202331543,-699.8287127654748,0.05914396662256263,1,-9423.49116176921,0.0011377313639968634,,,,,0,,1,,
Raw,504910221,15536000000,,,-1222338947464479335,0.0,17.166171911386563,,,0,27,0.0,16431,38162923379219,16,35.09864044189453,569.9075132215869,0.08260454984973781,1,7630.637405833333,0.001597473630681634,,,,,0,,1,,
Raw,504910221,15536000000,,,-1222338947464479335,0.0,17.166171911386563,,,0,28,0.0,16431,38162924770290,38,27.76620101928711,-307.95292205572287,0.1915877394785932,4,-3849.989185318971,3.4028234663852886E38,,,,,0,,1,,
Raw,504910221,15536000000,,,-1222338947464479335,0.0,17.166171911386563,,,0,32,0.0,16431,38162923221526,17,34.53049850463867,-447.09257402761796,0.08811885999376834,4,-5578.359105565594,3.4028234663852886E38,,,,,0,,1,,
Raw,504910221,15536000000,,,-1222338947464479335,0.0,17.166171911386563,,,0,2,0.0,99,930871641,33,37.94609069824219,-746.354265175285,0.06103333375737968,4,-8543.463110822033,3.4028234663852886E38,,,,,0,,3,,
Raw,504910222,15536000000,,,-1222338947464479335,0.0,17.166171911386563,,,0,18,0.0,17,572769,82,18.626237869262695,-747.5461286798877,4.201362521871864,4,-7056.097406679897,3.4028234663852886E38,,,,,0,,3,,
Raw,504910222,15536000000,,,-1222338947464479335,0.0,17.166171911386563,,,0,9,0.0,16,2771837,1000000000,13.843900680541992,-547.6118267205165,2.99792458E8,4,-2195.7991202522817,3.4028234663852886E38,,,,,1,,3,,
Raw,504910222,15536000000,,,-1222338947464479335,0.0,17.166171911386563,,,0,15,0.0,16,19494180,1000000000,8.65567398071289,705.0701855892048,2.99792458E8,4,1423.8220191807422,3.4028234663852886E38,,,,,1,,3,,
Raw,504910222,15536000000,,,-1222338947464479335,0.0,17.166171911386563,,,0,1,0.0,99,933029080,50,31.392684936523438,143.65985480946108,0.12797388281370947,4,1476.789075191248,3.4028234663852886E38,,,,,0,,3,,
Raw,504910223,15536000000,,,-1222338947464479335,0.0,17.166171911386563,,,0,24,0.0,99,931069305,39,33.55034637451172,432.48220881278917,0.09998775096225981,4,5350.024170729159,3.4028234663852886E38,,,,,0,,3,,
Raw,504910223,15536000000,,,-1222338947464479335,0.0,17.166171911386563,,,0,17,0.0,99,936449188,99,25.575435638427734,-212.47189145708046,0.24840520816287948,4,-2658.4379899096243,3.4028234663852886E38,,,,,0,,3,,
Raw,504911232,16536000000,,,-1222338947464479652,0.0,16.140650386177235,,,0,1,0.0,16431,38163930012599,17,34.501686096191406,-516.5449518683879,0.08963125236014358,4,-6955.493581597413,3.4028234663852886E38,,,,,0,,1,,
Raw,504911232,16536000000,,,-1222338947464479652,0.0,16.140650386177235,,,0,3,0.0,16431,38163918165444,42,27.017335891723633,-840.7889132349924,0.2111709065774594,4,-12150.037797414867,3.4028234663852886E38,,,,,0,,1,,
Raw,504911233,16536000000,,,-1222338947464479652,0.0,16.140650386177235,,,0,8,0.0,51,10255274,40,27.370119094848633,285.3393655238925,0.2014731329925864,4,4089.682686742386,3.4028234663852886E38,,,,,0,,1,,
Raw,504911233,16536000000,,,-1222338947464479652,0.0,16.140650386177235,,,0,10,0.0,17,56971,68,21.287261962890625,427.8216714604905,4.200909597976979,4,5717.471515257734,3.4028234663852886E38,,,,,0,,1,,
Raw,504911234,16536000000,,,-1222338947464479652,0.0,16.140650386177235,,,0,11,0.0,51,12365931,50,25.462684631347656,-391.1487437472074,0.2508775675322146,4,-5669.698209517335,3.4028234663852886E38,,,,,0,,1,,
Raw,504911235,16536000000,,,-1222338947464479652,0.0,16.140650386177235,,,0,14,0.0,16431,38163920248762,30,29.89934539794922,-629.6357572269208,0.15283959768806865,1,-8466.39868396775,0.0027404522988945246,,,,,0,,1,,
Raw,504911235,16536000000,,,-1222338947464479652,0.0,16.140650386177235,,,0,18,0.0,51,14277611,50,25.42206382751465,-207.29277248755898,0.2523870142956579,4,-2803.6251714371842,3.4028234663852886E38,,,,,0,,1,,
Raw,504911236,16536000000,,,-1222338947464479652,0.0,16.140650386177235,,,0,20,0.0,16,17406595,1000000000,7.0,601.512959051689,2.99792458E8,4,6851.515480637948,3.4028234663852886E38,,,,,0,,1,,
Raw,504911236,16536000000,,,-1222338947464479652,0.0,16.140650386177235,,,0,22,0.0,16431,38163924146168,10,39.2243537902832,-700.2489494544011,0.05173880822133686,1,-10123.512222965543,9.934547124430537E-4,,,,,0,,1,,
Raw,504911237,16536000000,,,-1222338947464479652,0.0,16.140650386177235,,,0,27,0.0,16431,38163923377339,15,35.636295318603516,569.5049994100525,0.07768251391782571,1,8200.34076729171,0.0015015885001048446,,,,,0,,1,,
Raw,504911237,16536000000,,,-1222338947464479652,0.0,16.140650386177235,,,0,28,0.0,16431,38163924771338,38,27.763010025024414,-308.2837945436463,0.1916580345451715,4,-4158.1528781297675,3.4028234663852886E38,,,,,0,,1,,
Raw,504911237,16536000000,,,-1222338947464479652,0.0,16.140650386177235,,,0,32,0.0,16431,38163923223043,18,34.34358596801758,-447.44832670880305,0.09002330046110274,4,-6025.594401451019,3.4028234663852886E38,,,,,0,,1,,
Raw,504911238,16536000000,,,-1222338947464479652,0.0,16.140650386177235,,,0,2,0.0,99,1930874097,33,37.841796875,-746.6491465891204,0.06174742196419189,4,-9289.922780792089,3.4028234663852886E38,,,,,0,,3,,
Raw,504911238,16536000000,,,-1222338947464479652,0.0,16.140650386177235,,,0,18,0.0,17,575319,81,18.82994842529297,-747.3249335370547,4.201363054410248,4,-7803.101812240643,3.4028234663852886E38,,,,,0,,3,,
Raw,504911238,16536000000,,,-1222338947464479652,0.0,16.140650386177235,,,0,9,0.0,17,773806,166,14.160436630249023,-547.2533133603531,4.2004987446143645,4,-2743.33041340313,3.4028234663852886E38,,,,,1,,3,,
Raw,504911239,16536000000,,,-1222338947464479652,0.0,16.140650386177235,,,0,15,0.0,16,19491827,1000000000,7.795469284057617,705.8229307239676,2.99792458E8,4,2129.0027625822745,3.4028234663852886E38,,,,,1,,3,,
Raw,504911239,16536000000,,,-1222338947464479652,0.0,16.140650386177235,,,0,1,0.0,99,1933028570,50,31.402828216552734,143.39048411433305,0.1278271851309709,4,1620.2895532285947,3.4028234663852886E38,,,,,0,,3,,
Raw,504911240,16536000000,,,-1222338947464479652,0.0,16.140650386177235,,,0,24,0.0,99,1931067851,38,33.92015838623047,432.13405651940866,0.09590275719683017,4,5782.351131147439,3.4028234663852886E38,,,,,0,,3,,
Raw,504911240,16536000000,,,-1222338947464479652,0.0,16.140650386177235,,,0,17,0.0,99,1936449930,104,25.173263549804688,-212.02164516518587,0.260037127871773,4,-2870.53559613726,3.4028234663852886E38,,,,,0,,3,,
Raw,504912222,17536000000,,,-1222338947464479971,0.0,15.53666319515875,,,0,1,0.0,16431,38164930014328,17,34.49997329711914,-517.1532896348635,0.08964889269408605,4,-7472.342607041563,3.4028234663852886E38,,,,,0,,1,,
Raw,504912222,17536000000,,,-1222338947464479971,0.0,15.53666319515875,,,0,3,0.0,16431,38164918168279,40,27.381332397460938,-841.2671582649205,0.2026388927969921,4,-12991.057631319301,3.4028234663852886E38,,,,,0,,1,,
Raw,504912223,17536000000,,,-1222338947464479971,0.0,15.53666319515875,,,0,8,0.0,51,10254294,42,26.858625411987305,284.5111277479317,0.21358167455441612,4,4374.437113072307,3.4028234663852886E38,,,,,0,,1,,
Raw,504912223,17536000000,,,-1222338947464479971,0.0,15.53666319515875,,,0,10,0.0,51,5055476,71,20.656139373779297,427.7261724173136,4.200909331707788,4,6145.008249075026,3.4028234663852886E38,,,,,0,,1,,
Raw,504912223,17536000000,,,-1222338947464479971,0.0,15.53666319515875,,,0,11,0.0,51,12367185,52,25.15045166015625,-391.5816250275036,0.25997879827699155,4,-6061.115583365419,3.4028234663852886E38,,,,,0,,1,,
Raw,504912224,17536000000,,,-1222338947464479971,0.0,15.53666319515875,,,0,14,0.0,16431,38164920250887,32,29.231609344482422,-630.1086853936313,0.1647620503686298,1,-9096.278877550649,0.0029594358056783676,,,,,0,,1,,
Raw,504912224,17536000000,,,-1222338947464479971,0.0,15.53666319515875,,,0,18,0.0,51,14278336,46,26.111600875854492,-207.44150832782452,0.23332182398354584,4,-3011.2696987143127,3.4028234663852886E38,,,,,0,,1,,
Raw,504912224,17536000000,,,-1222338947464479971,0.0,15.53666319515875,,,0,20,0.0,16,17404592,1000000000,7.0,601.3271414987266,2.99792458E8,4,7452.474419833129,3.4028234663852886E38,,,,,0,,1,,
Raw,504912225,17536000000,,,-1222338947464479971,0.0,15.53666319515875,,,0,22,0.0,16431,38164924148510,10,39.15968322753906,-700.7336019861555,0.052120326207860085,1,-10823.981788214922,0.0010008788667619228,,,,,0,,1,,
Raw,504912226,17536000000,,,-1222338947464479971,0.0,15.53666319515875,,,0,27,0.0,16431,38164923375432,15,35.55433654785156,568.990933718319,0.07841289031034188,1,8769.581297338,0.0015158242313191295,,,,,0,,1,,
Raw,504912227,17536000000,,,-1222338947464479971,0.0,15.53666319515875,,,0,28,0.0,16431,38164924772346,39,27.577777862548828,-308.73306948553,0.19577084512020948,4,-4466.710387778846,3.4028234663852886E38,,,,,0,,1,,
Raw,504912227,17536000000,,,-1222338947464479971,0.0,15.53666319515875,,,0,32,0.0,16431,38164923224522,17,34.485801696777344,-447.9124616017307,0.08857101004381546,1,-6473.2260523909,0.0017142557771876454,,,,,0,,1,,
Raw,504912228,17536000000,,,-1222338947464479971,0.0,15.53666319515875,,,0,2,0.0,99,930876619,33,38.227169036865234,-747.0521375550461,0.05915305721918157,1,-10036.78704657717,0.0010973659809678793,,,,,0,,3,,
Raw,504912228,17536000000,,,-1222338947464479971,0.0,15.53666319515875,,,0,18,0.0,17,577865,83,18.344188690185547,-747.2164831603991,4.201363320679439,4,-8550.875665211037,3.4028234663852886E38,,,,,0,,3,,
Raw,504912228,17536000000,,,-1222338947464479971,0.0,15.53666319515875,,,0,9,0.0,17,775651,166,15.175506591796875,-547.5427415811448,4.200499010883556,4,-3291.3963278220517,3.4028234663852886E38,,,,,1,,3,,
Raw,504912229,17536000000,,,-1222338947464479971,0.0,15.53666319515875,,,0,15,0.0,16,19489473,1000000000,7.0,704.9502153422445,2.99792458E8,4,2834.624315915024,3.4028234663852886E38,,,,,1,,3,,
Raw,504912229,17536000000,,,-1222338947464479971,0.0,15.53666319515875,,,0,1,0.0,99,933028151,50,31.521047592163086,142.98802142648344,0.12613078411138634,1,1763.4597810651144,0.002235210267826915,,,,,0,,3,,
Raw,504912229,17536000000,,,-1222338947464479971,0.0,15.53666319515875,,,0,24,0.0,99,931066438,38,33.76958465576172,431.6415991051106,0.09754469784582348,1,6214.251261750377,0.0018294285982847214,,,,,0,,3,,
Raw,504912229,17536000000,,,-1222338947464479971,0.0,15.53666319515875,,,0,17,0.0,99,936450558,114,24.34575080871582,-212.85298444469026,0.28573403531131203,4,-3083.321090438126,3.4028234663852886E38,,,,,0,,3,,
Raw,504913219,18536000000,,,-1222338947464480290,0.0,14.89754695003953,,,0,1,0.0,16431,38165930016039,17,34.798004150390625,-517.5575075692241,0.08668609875750133,4,-7989.6395533872865,3.4028234663852886E38,,,,,0,,1,,
Raw,504913220,18536000000,,,-1222338947464480290,0.0,14.89754695003953,,,0,3,0.0,16431,38165918171059,38,27.82464599609375,-841.8533083521997,0.19271918384093345,4,-13832.615479381338,3.4028234663852886E38,,,,,0,,1,,
Raw,504913220,18536000000,,,-1222338947464480290,0.0,14.89754695003953,,,0,8,0.0,51,10253374,36,28.27119255065918,284.01560291254657,0.181801348178396,4,4658.760412801009,3.4028234663852886E38,,,,,0,,1,,
Raw,504913220,18536000000,,,-1222338947464480290,0.0,14.89754695003953,,,0,10,0.0,51,5054085,72,20.48419952392578,427.6830240273557,4.200909065438596,4,6572.093584224879,3.4028234663852886E38,,,,,0,,1,,
Raw,504913221,18536000000,,,-1222338947464480290,0.0,14.89754695003953,,,0,11,0.0,51,12368536,61,22.746442794799805,-391.9077600539704,4.202224701514215,4,-6452.946682755858,3.4028234663852886E38,,,,,0,,1,,
Raw,504913222,18536000000,,,-1222338947464480290,0.0,14.89754695003953,,,0,14,0.0,16431,38165920252976,32,29.267885208129883,-630.6422121680394,0.1640909521548901,1,-9726.643410887023,0.002947102067992091,,,,,0,,1,,
Raw,504913222,18536000000,,,-1222338947464480290,0.0,14.89754695003953,,,0,18,0.0,51,14279002,53,24.982051849365234,-207.80445240733593,0.26536865253669306,4,-3219.354555857314,3.4028234663852886E38,,,,,0,,1,,
Raw,504913223,18536000000,,,-1222338947464480290,0.0,14.89754695003953,,,0,20,0.0,16,17402593,1000000000,7.0,600.9561198770193,2.99792458E8,4,8052.802166701416,3.4028234663852886E38,,,,,0,,1,,
Raw,504913223,18536000000,,,-1222338947464480290,0.0,14.89754695003953,,,0,22,0.0,16431,38165924150854,10,38.81092071533203,-701.2108927073009,0.05422552948519305,1,-11524.92880829926,0.0010418847668915987,,,,,0,,1,,
Raw,504913224,18536000000,,,-1222338947464480290,0.0,14.89754695003953,,,0,27,0.0,16431,38165923373537,14,36.207984924316406,568.4762204599115,0.072772252076729,1,9338.326550346852,0.001405938877724111,,,,,0,,1,,
Raw,504913224,18536000000,,,-1222338947464480290,0.0,14.89754695003953,,,0,28,0.0,16431,38165924773400,38,27.832395553588867,-309.243317942133,0.19014031679496457,4,-4775.6936966606445,3.4028234663852886E38,,,,,0,,1,,
Raw,504913224,18536000000,,,-1222338947464480290,0.0,14.89754695003953,,,0,32,0.0,16431,38165923225995,17,34.41603088378906,-448.3140892693955,0.08928094195496528,1,-6921.29051765926,0.0017280812608078122,,,,,0,,1,,
Raw,504913225,18536000000,,,-1222338947464480290,0.0,14.89754695003953,,,0,2,0.0,99,1930879115,33,38.47966003417969,-747.5565579115837,0.05751479441339702,1,-10784.098243989301,0.0010659259278327227,,,,,0,,3,,
Raw,504913225,18536000000,,,-1222338947464480290,0.0,14.89754695003953,,,0,18,0.0,17,580280,82,18.511131286621094,-747.7156548186322,4.201363853217822,4,-9299.210541395194,3.4028234663852886E38,,,,,0,,3,,
Raw,504913225,18536000000,,,-1222338947464480290,0.0,14.89754695003953,,,0,9,0.0,17,777424,98,15.517827987670898,-547.6532709876483,4.200499277152748,4,-3839.486328741608,3.4028234663852886E38,,,,,0,,3,,
Raw,504913226,18536000000,,,-1222338947464480290,0.0,14.89754695003953,,,0,15,0.0,16,19487121,1000000000,7.649818420410156,704.9702558266799,2.99792458E8,4,3538.508525949169,3.4028234663852886E38,,,,,1,,3,,
Raw,504913226,18536000000,,,-1222338947464480290,0.0,14.89754695003953,,,0,1,0.0,99,1933027634,51,31.302576065063477,142.52849618580052,0.12928371089258683,1,1906.2399127208485,0.002292144577950239,,,,,0,,3,,
Raw,504913226,18536000000,,,-1222338947464480290,0.0,14.89754695003953,,,0,24,0.0,99,1931064991,38,33.740943908691406,431.1694889173566,0.09786004377778185,1,6645.69158606829,0.0018354706699028611,,,,,0,,3,,
Raw,504913226,18536000000,,,-1222338947464480290,0.0,14.89754695003953,,,0,17,0.0,99,1936451285,115,24.296207427978516,-213.24149036659378,0.2873516872174855,4,-3296.5599656402446,3.4028234663852886E38,,,,,0,,3,,
Raw,504914236,19536000000,,,-1222338947464480612,0.0,14.369990821083102,,,0,1,0.0,16431,38166930017767,16,35.30731201171875,-517.9793120511504,0.08185220624891593,4,-8507.385664664567,3.4028234663852886E38,,,,,0,,1,,
Raw,504914238,19536000000,,,-1222338947464480612,0.0,14.369990821083102,,,0,3,0.0,16431,38166918173906,39,27.460718154907227,-842.2876551781264,0.20082604893156275,4,-14674.667000319881,3.4028234663852886E38,,,,,0,,1,,
Raw,504914239,19536000000,,,-1222338947464480612,0.0,14.369990821083102,,,0,8,0.0,51,10252420,31,29.476726531982422,283.7672781343214,0.15848032745171614,4,4942.6784985726235,3.4028234663852886E38,,,,,0,,1,,
Raw,504914239,19536000000,,,-1222338947464480612,0.0,14.369990821083102,,,0,10,0.0,51,5052683,72,20.461782455444336,427.4721558688491,4.2009087991694045,4,6998.73019937734,3.4028234663852886E38,,,,,0,,1,,
Raw,504914239,19536000000,,,-1222338947464480612,0.0,14.369990821083102,,,0,11,0.0,16431,38166932369877,63,22.349517822265625,-391.99439765845136,4.2022249677834065,4,-6845.218945414187,3.4028234663852886E38,,,,,0,,1,,
Raw,504914239,19536000000,,,-1222338947464480612,0.0,14.369990821083102,,,0,14,0.0,16431,38166920255097,31,29.48377799987793,-631.0832391554445,0.16015246469121758,1,-10357.482952207914,0.0028747529722750187,,,,,0,,1,,
Raw,504914240,19536000000,,,-1222338947464480612,0.0,14.369990821083102,,,0,18,0.0,16431,38166934279770,64,23.267486572265625,-209.06759936975607,0.32271899244063773,4,-3427.841733630446,3.4028234663852886E38,,,,,0,,1,,
Raw,504914240,19536000000,,,-1222338947464480612,0.0,14.369990821083102,,,0,20,0.0,16,17400588,1000000000,7.0,600.3991443725236,2.99792458E8,4,8653.046160988439,3.4028234663852886E38,,,,,0,,1,,
Raw,504914240,19536000000,,,-1222338947464480612,0.0,14.369990821083102,,,0,22,0.0,16431,38166924153182,10,38.75495147705078,-701.6294934383141,0.05457165447151613,1,-12226.344175005877,0.001048619975335896,,,,,0,,1,,
Raw,504914240,19536000000,,,-1222338947464480612,0.0,14.369990821083102,,,0,27,0.0,16431,38166923371628,13,36.574588775634766,568.0489627849415,0.06978940474165307,1,9906.59673262336,0.0013478337787091732,,,,,0,,1,,
Raw,504914241,19536000000,,,-1222338947464480612,0.0,14.369990821083102,,,0,28,0.0,16431,38166924774405,37,28.04229736328125,-309.6206107358405,0.1856211794335687,1,-5085.090424014056,0.0033937091939151287,,,,,0,,1,,
Raw,504914241,19536000000,,,-1222338947464480612,0.0,14.369990821083102,,,0,32,0.0,16431,38166923227518,17,34.63895034790039,-448.66275279962383,0.08703369654529036,1,-7369.775856746692,0.0016842951299622655,,,,,0,,1,,
Raw,504914241,19536000000,,,-1222338947464480612,0.0,14.369990821083102,,,0,2,0.0,99,930881591,33,38.509544372558594,-747.9172184665081,0.05732442026232637,1,-11531.814424392614,0.0010622646659612656,,,,,0,,3,,
Raw,504914241,19536000000,,,-1222338947464480612,0.0,14.369990821083102,,,0,18,0.0,17,582709,83,18.394655227661133,-747.8356250655925,4.2013643857562055,4,-10048.038951407056,3.4028234663852886E38,,,,,0,,3,,
Raw,504914242,19536000000,,,-1222338947464480612,0.0,14.369990821083102,,,0,9,0.0,17,779208,98,15.379783630371094,-548.1265740613806,4.200499809691131,4,-4388.064540489884,3.4028234663852886E38,,,,,0,,3,,
Raw,504914242,19536000000,,,-1222338947464480612,0.0,14.369990821083102,,,0,15,0.0,16,19484767,1000000000,7.0,704.4973958248825,2.99792458E8,4,4243.205784722266,3.4028234663852886E38,,,,,1,,3,,
Raw,504914242,19536000000,,,-1222338947464480612,0.0,14.369990821083102,,,0,1,0.0,99,933027131,50,31.373605728149414,142.34692189867525,0.1282498125844011,1,2048.689256536513,0.002273476915434003,,,,,0,,3,,
Raw,504914242,19536000000,,,-1222338947464480612,0.0,14.369990821083102,,,0,24,0.0,99,931063559,37,34.10032272338867,430.7969676675623,0.09397411951671053,1,7076.702372312324,0.0017610779032111168,,,,,0,,3,,
Raw,504914243,19536000000,,,-1222338947464480612,0.0,14.369990821083102,,,0,17,0.0,99,936452012,111,24.579124450683594,-213.6916344111188,0.27823775876063483,4,-3510.189250607323,3.4028234663852886E38,,,,,0,,3,,
Raw,504915214,20536000000,,,-1222338947464480936,0.0,13.980916585420182,,,0,1,0.0,16431,38167930019510,16,35.03788375854492,-518.2953927529429,0.08437452437532206,1,-9025.517744325438,0.0016086866380646825,,,,,0,,1,,
Raw,504915214,20536000000,,,-1222338947464480936,0.0,13.980916585420182,,,0,3,0.0,16431,38167918176694,38,27.727521896362305,-842.7085735161832,0.19485046901767333,1,-15517.16729073149,0.0035189518239349127,,,,,0,,1,,
Raw,504915214,20536000000,,,-1222338947464480936,0.0,13.980916585420182,,,0,8,0.0,39,1930251455,29,30.16350746154785,283.38088532472227,0.14657213681472925,4,5226.196323803931,3.4028234663852886E38,,,,,0,,1,,
Raw,504915214,20536000000,,,-1222338947464480936,0.0,13.980916585420182,,,0,10,0.0,51,5051290,76,19.665088653564453,427.270319561321,4.200908532900213,4,7424.954199755836,3.4028234663852886E38,,,,,0,,1,,
Raw,504915215,20536000000,,,-1222338947464480936,0.0,13.980916585420182,,,0,11,0.0,16431,38167932371183,69,21.179975509643555,-393.17279859272753,4.202225234052598,4,-7237.854370535915,3.4028234663852886E38,,,,,0,,1,,
Raw,504915215,20536000000,,,-1222338947464480936,0.0,13.980916585420182,,,0,14,0.0,16431,38167920257193,32,29.335742950439453,-631.435106436586,0.16284308158852956,1,-10988.722847868034,0.002924168249592185,,,,,0,,1,,
Raw,504915216,20536000000,,,-1222338947464480936,0.0,13.980916585420182,,,0,18,0.0,16431,38167934280468,66,23.01360321044922,-208.95580891236125,0.3322149506201142,4,-3636.682607607622,3.4028234663852886E38,,,,,0,,1,,
Raw,504915216,20536000000,,,-1222338947464480936,0.0,13.980916585420182,,,0,20,0.0,16,17398590,1000000000,7.0,600.2135313143003,2.99792458E8,4,9252.489083868306,3.4028234663852886E38,,,,,0,,1,,
Raw,504915216,20536000000,,,-1222338947464480936,0.0,13.980916585420182,,,0,22,0.0,16431,38167924155543,11,38.59516906738281,-701.9902221581515,0.05557137047223221,1,-12928.169487565972,0.0010680886916816235,,,,,0,,1,,
Raw,504915217,20536000000,,,-1222338947464480936,0.0,13.980916585420182,,,0,27,0.0,16431,38167923369749,13,36.61564254760742,567.6881999826476,0.06946283389908697,1,10474.449959976864,0.0013414779677987099,,,,,0,,1,,
Raw,504915217,20536000000,,,-1222338947464480936,0.0,13.980916585420182,,,0,28,0.0,16431,38167924775478,35,28.47974395751953,-309.9291592147415,0.17654659224977465,1,-5394.850343193848,0.0032270250376313925,,,,,0,,1,,
Raw,504915217,20536000000,,,-1222338947464480936,0.0,13.980916585420182,,,0,32,0.0,16431,38167923229018,17,34.626712799072266,-448.96714321882905,0.08715585585784197,1,-7818.619984008842,0.0016866697696968913,,,,,0,,1,,
Raw,504915217,20536000000,,,-1222338947464480936,0.0,13.980916585420182,,,0,2,0.0,99,1930884077,33,38.61919403076172,-748.1927410450385,0.05663029808442688,1,-12279.885474110211,0.0010489390697330236,,,,,0,,3,,
Raw,504915218,20536000000,,,-1222338947464480936,0.0,13.980916585420182,,,0,18,0.0,17,585259,84,18.288314819335938,-748.6075927058341,4.201364652025397,4,-10797.188353853726,3.4028234663852886E38,,,,,0,,3,,
Raw,504915218,20536000000,,,-1222338947464480936,0.0,13.980916585420182,,,0,9,0.0,17,781045,99,15.255106925964355,-548.1431381352506,4.200500075960322,4,-4936.340114640117,3.4028234663852886E38,,,,,0,,3,,
Raw,504915218,20536000000,,,-1222338947464480936,0.0,13.980916585420182,,,0,15,0.0,16,19482422,1000000000,7.0,704.2295077166132,2.99792458E8,4,4947.029202206068,3.4028234663852886E38,,,,,1,,3,,
Raw,504915218,20536000000,,,-1222338947464480936,0.0,13.980916585420182,,,0,1,0.0,99,1933026733,50,31.520645141601562,141.99155264512603,0.12613626759255053,1,2190.8151276227354,0.0022353141102939844,,,,,0,,3,,
Raw,504915218,20536000000,,,-1222338947464480936,0.0,13.980916585420182,,,0,24,0.0,99,1931062104,37,34.02836608886719,430.46670866385625,0.0947390276950103,1,7507.315232724983,0.001775727840140462,,,,,0,,3,,
Raw,504915219,20536000000,,,-1222338947464480936,0.0,13.980916585420182,,,0,17,0.0,99,1936452811,115,24.26886558532715,-213.35789899684744,0.2882485817056888,4,-3724.179720266553,3.4028234663852886E38,,,,,0,,3,,
Raw,504916214,21536000000,,,-1222338947464481264,0.0,13.495262104622306,,,0,1,0.0,16431,38168930021230,16,34.93696594238281,-518.4774953181443,0.08533981676211361,1,-9543.939647497931,0.0016274864319711924,,,,,0,,1,,
Raw,504916215,21536000000,,,-1222338947464481264,0.0,13.495262104622306,,,0,3,0.0,16431,38168918179504,37,28.09080696105957,-842.9998421896271,0.1870033994489081,1,-16360.02532772608,0.0033748087007552385,,,,,0,,1,,
Raw,504916215,21536000000,,,-1222338947464481264,0.0,13.495262104622306,,,0,8,0.0,39,2930250538,28,30.329044342041016,283.2429706644027,0.14383981550528535,4,5509.448080222908,3.4028234663852886E38,,,,,0,,1,,
Raw,504916215,21536000000,,,-1222338947464481264,0.0,13.495262104622306,,,0,10,0.0,51,5049903,74,20.15157699584961,426.75233438708733,4.200908266631021,4,7850.910838910348,3.4028234663852886E38,,,,,0,,1,,
Raw,504916215,21536000000,,,-1222338947464481264,0.0,13.495262104622306,,,0,11,0.0,16431,38168932372562,64,22.037891387939453,-394.0913548784738,4.20222550032179,4,-7630.7566324100735,3.4028234663852886E38,,,,,0,,1,,
Raw,504916216,21536000000,,,-1222338947464481264,0.0,13.495262104622306,,,0,14,0.0,16431,38168920259318,33,29.043378829956055,-631.7588897735527,0.1682932791037739,1,-11620.285183439173,0.003024269826710224,,,,,0,,1,,
Raw,504916216,21536000000,,,-1222338947464481264,0.0,13.495262104622306,,,0,18,0.0,16431,38168934281085,60,22.778743743896484,-209.41432019996262,4.202568721309742,4,-3845.7865927212124,3.4028234663852886E38,,,,,0,,1,,
Raw,504916216,21536000000,,,-1222338947464481264,0.0,13.495262104622306,,,0,20,0.0,16,17396594,1000000000,7.0,599.4709427515813,2.99792458E8,4,9851.801658374601,3.4028234663852886E38,,,,,0,,1,,
Raw,504916216,21536000000,,,-1222338947464481264,0.0,13.495262104622306,,,0,22,0.0,16431,38168924157871,10,38.92815399169922,-702.2756968139865,0.0535098145400385,1,-13630.308620980513,0.0010279170237481594,,,,,0,,1,,
Raw,504916216,21536000000,,,-1222338947464481264,0.0,13.495262104622306,,,0,27,0.0,16431,38168923367859,14,36.23954772949219,567.4092009935518,0.07250946102645961,1,11041.972555641813,0.001400839420966804,,,,,0,,1,,
Raw,504916217,21536000000,,,-1222338947464481264,0.0,13.495262104622306,,,0,28,0.0,16431,38168924776509,37,28.038188934326172,-310.1136475518995,0.1857089650576692,1,-5704.852276503691,0.0033953143283724785,,,,,0,,1,,
Raw,504916217,21536000000,,,-1222338947464481264,0.0,13.495262104622306,,,0,32,0.0,16431,38168923230486,17,34.78059768676758,-449.175489275553,0.08563581657312092,1,-8267.738826896095,0.0016570509178563952,,,,,0,,1,,
Raw,504916217,21536000000,,,-1222338947464481264,0.0,13.495262104622306,,,0,2,0.0,99,930886580,33,38.7585563659668,-748.4641737287861,0.05576055889330908,1,-13028.22031030807,0.0010322433663532138,,,,,0,,3,,
Raw,504916217,21536000000,,,-1222338947464481264,0.0,13.495262104622306,,,0,18,0.0,17,587852,88,17.422231674194336,-748.8048619641881,4.20136518456378,4,-11546.718490780904,3.4028234663852886E38,,,,,0,,3,,
Raw,504916218,21536000000,,,-1222338947464481264,0.0,13.495262104622306,,,0,9,0.0,17,782854,100,15.064197540283203,-548.6702574078324,4.200500342229514,4,-5485.980847453752,3.4028234663852886E38,,,,,0,,3,,
Raw,504916218,21536000000,,,-1222338947464481264,0.0,13.495262104622306,,,0,15,0.0,16,19480077,1000000000,7.0,703.6825524543351,2.99792458E8,4,5650.369742419544,3.4028234663852886E38,,,,,1,,3,,
Raw,504916219,21536000000,,,-1222338947464481264,0.0,13.495262104622306,,,0,1,0.0,99,933026263,49,31.58528709411621,141.905758581444,0.12521829623365088,1,2332.7519346864624,0.0022187400609254837,,,,,0,,3,,
Raw,504916219,21536000000,,,-1222338947464481264,0.0,13.495262104622306,,,0,24,0.0,99,931060689,36,34.35823059082031,430.1576148656509,0.09128250410993011,1,7937.631260629706,0.001709555508568883,,,,,0,,3,,
Raw,504916219,21536000000,,,-1222338947464481264,0.0,13.495262104622306,,,0,17,0.0,99,936453486,109,24.70484733581543,-213.82823689686222,0.27428226335234984,4,-3938.44152255407,3.4028234663852886E38,,,,,0,,3,,
Raw,504917232,22536000000,,,-1222338947464481592,0.0,13.101188746572419,,,0,1,0.0,16431,38169930022966,17,34.75831604003906,-518.772922051284,0.08707608327222571,1,-10062.609648354293,0.0016613072948530316,,,,,0,,1,,
Raw,504917232,22536000000,,,-1222338947464481592,0.0,13.101188746572419,,,0,3,0.0,16431,38169918182289,36,28.150632858276367,-843.2808861261142,0.18574274796135148,1,-17203.17578127288,0.003351643681526184,,,,,0,,1,,
Raw,504917232,22536000000,,,-1222338947464481592,0.0,13.101188746572419,,,0,8,0.0,39,3930249582,31,29.61447525024414,282.8925178052069,0.15601534041062304,1,5792.46134002015,0.002831820398569107,,,,,0,,1,,
Raw,504917233,22536000000,,,-1222338947464481592,0.0,13.101188746572419,,,0,10,0.0,51,5048484,82,18.650226593017578,426.44876194683866,4.20090800036183,4,8276.625725847267,3.4028234663852886E38,,,,,0,,1,,
Raw,504917233,22536000000,,,-1222338947464481592,0.0,13.101188746572419,,,0,11,0.0,16431,38169932373828,66,21.619688034057617,-393.01281554180946,4.202225766590981,4,-8023.8481657423545,3.4028234663852886E38,,,,,0,,1,,
Raw,504917233,22536000000,,,-1222338947464481592,0.0,13.101188746572419,,,0,14,0.0,16431,38169920261408,35,28.40519142150879,-631.944639161602,0.1808465900664965,1,-12252.092560645779,0.0032548417802900076,,,,,0,,1,,
Raw,504917233,22536000000,,,-1222338947464481592,0.0,13.101188746572419,,,0,18,0.0,16431,38169934281868,60,22.91288185119629,-209.320014042764,4.202568987578934,4,-4055.102038587944,3.4028234663852886E38,,,,,0,,1,,
Raw,504917234,22536000000,,,-1222338947464481592,0.0,13.101188746572419,,,0,20,0.0,16,17394597,1000000000,7.0,599.2852615284451,2.99792458E8,4,10450.86380237368,3.4028234663852886E38,,,,,0,,1,,
Raw,504917235,22536000000,,,-1222338947464481592,0.0,13.101188746572419,,,0,22,0.0,16431,38169924160227,10,39.38752365112305,-702.5532643399083,0.050792346058937676,1,-14332.70296300165,9.749661548994482E-4,,,,,0,,1,,
Raw,504917236,22536000000,,,-1222338947464481592,0.0,13.101188746572419,,,0,27,0.0,16431,38169923365955,15,35.64339828491211,567.0892689741722,0.0776174527050445,1,11609.222707756793,0.0015003611333668232,,,,,0,,1,,
Raw,504917237,22536000000,,,-1222338947464481592,0.0,13.101188746572419,,,0,28,0.0,16431,38169924777516,38,27.830934524536133,-310.2738350975567,0.19017288484546024,1,-6015.065154553553,0.003477304708212614,,,,,0,,1,,
Raw,504917237,22536000000,,,-1222338947464481592,0.0,13.101188746572419,,,0,32,0.0,16431,38169923231987,17,34.7483024597168,-449.4304260503436,0.08595291821756129,1,-8717.066486996631,0.0016632237238809466,,,,,0,,1,,
Raw,504917238,22536000000,,,-1222338947464481592,0.0,13.101188746572419,,,0,2,0.0,99,1930889089,33,38.77397155761719,-748.6176811129649,0.05566559232194804,1,-13776.745306074288,0.0010304133174940944,,,,,0,,3,,
Raw,504917238,22536000000,,,-1222338947464481592,0.0,13.101188746572419,,,0,18,0.0,17,590329,89,17.193340301513672,-748.8595302244507,4.201365717102163,4,-12296.543242646121,3.4028234663852886E38,,,,,0,,3,,
Raw,504917238,22536000000,,,-1222338947464481592,0.0,13.101188746572419,,,0,9,0.0,17,784802,166,14.930999755859375,-548.9110840456226,4.2005006084987055,4,-6034.89503044675,3.4028234663852886E38,,,,,1,,3,,
Raw,504917238,22536000000,,,-1222338947464481592,0.0,13.101188746572419,,,0,15,0.0,16,19477731,1000000000,7.0,703.3179383344541,2.99792458E8,4,6353.378604221273,3.4028234663852886E38,,,,,1,,3,,
Raw,504917239,22536000000,,,-1222338947464481592,0.0,13.101188746572419,,,0,1,0.0,99,1933025746,48,31.83213233947754,141.74475305683023,0.12177536901916597,1,2474.533234106583,0.002156573347747326,,,,,0,,3,,
Raw,504917239,22536000000,,,-1222338947464481592,0.0,13.101188746572419,,,0,24,0.0,99,1931059250,37,34.15074920654297,429.94793959312256,0.093440857214177,1,8367.722114465609,0.0017508838791400194,,,,,0,,3,,
Raw,504917239,22536000000,,,-1222338947464481592,0.0,13.101188746572419,,,0,17,0.0,99,1936454269,118,24.026601791381836,-214.50961336766625,0.2963180359749005,4,-4152.902931261157,3.4028234663852886E38,,,,,0,,3,,
Raw,504918207,23536000000,,,-1222338947464481922,0.0,12.555955160979408,,,0,1,0.0,16431,38170930024694,17,34.449607849121094,-518.9193062020495,0.09016164394795534,1,-10581.457357744262,0.0017214140389114618,,,,,0,,1,,
Raw,504918208,23536000000,,,-1222338947464481922,0.0,12.555955160979408,,,0,3,0.0,16431,38170918185098,36,28.340415954589844,-843.5574311783403,0.18179958414500175,1,-18046.58365736148,0.003279205644503236,,,,,0,,1,,
Raw,504918208,23536000000,,,-1222338947464481922,0.0,12.555955160979408,,,0,8,0.0,39,4930248625,31,29.525087356567383,282.8463531178468,0.15760994338989998,1,6075.334074830847,0.002861113753169775,,,,,0,,1,,
Raw,504918208,23536000000,,,-1222338947464481922,0.0,12.555955160979408,,,0,10,0.0,51,5047033,80,19.04037857055664,426.36134044585765,4.200907734092638,4,8702.118150779708,3.4028234663852886E38,,,,,0,,1,,
Raw,504918208,23536000000,,,-1222338947464481922,0.0,12.555955160979408,,,0,11,0.0,16431,38170932375187,66,21.617008209228516,-392.7780214988238,4.202226032860173,4,-8417.118944309825,3.4028234663852886E38,,,,,0,,1,,
Raw,504918208,23536000000,,,-1222338947464481922,0.0,12.555955160979408,,,0,14,0.0,16431,38170920263520,36,28.177814483642578,-632.1241855425642,0.185546973538239,1,-12884.112584304436,0.0033411714248359203,,,,,0,,1,,
Raw,504918208,23536000000,,,-1222338947464481922,0.0,12.555955160979408,,,0,18,0.0,16431,38170934282548,66,23.049190521240234,-209.1841954535206,0.33086749537610105,4,-4264.566796968559,3.4028234663852886E38,,,,,0,,1,,
Raw,504918208,23536000000,,,-1222338947464481922,0.0,12.555955160979408,,,0,20,0.0,16,17392605,1000000000,7.0,599.0996484702218,2.99792458E8,4,11049.669156083084,3.4028234663852886E38,,,,,0,,1,,
Raw,504918208,23536000000,,,-1222338947464481922,0.0,12.555955160979408,,,0,22,0.0,16431,38170924162565,10,39.45175552368164,-702.7333560401748,0.05042405416241519,1,-15035.301599335651,9.677827474661171E-4,,,,,0,,1,,
Raw,504918208,23536000000,,,-1222338947464481922,0.0,12.555955160979408,,,0,27,0.0,16431,38170923364066,15,35.837913513183594,566.8869895947093,0.0759116490546321,1,12176.259073301617,0.0014671351527795196,,,,,0,,1,,
Raw,504918208,23536000000,,,-1222338947464481922,0.0,12.555955160979408,,,0,28,0.0,16431,38170924778584,37,27.92693519592285,-310.44574700825774,0.18809220745694588,1,-6325.4421117331085,0.003439082996919751,,,,,0,,1,,
Raw,504918208,23536000000,,,-1222338947464481922,0.0,12.555955160979408,,,0,32,0.0,16431,38170923233489,17,34.55105972290039,-449.6067345979361,0.087914032418142,1,-9166.554883631024,0.0017014245968312025,,,,,0,,1,,
Raw,504918209,23536000000,,,-1222338947464481922,0.0,12.555955160979408,,,0,2,0.0,99,930891576,33,38.71286392211914,-748.8317189399281,0.05604521730093734,1,-14525.433444077618,0.0010376879945397377,,,,,0,,3,,
Raw,504918209,23536000000,,,-1222338947464481922,0.0,12.555955160979408,,,0,18,0.0,17,592780,89,17.254711151123047,-749.20955705294,4.201365983371355,4,-13046.543815137187,3.4028234663852886E38,,,,,0,,3,,
Raw,504918209,23536000000,,,-1222338947464481922,0.0,12.555955160979408,,,0,9,0.0,17,786557,166,14.527286529541016,-548.8337168693158,4.200501141037089,4,-6583.78124735976,3.4028234663852886E38,,,,,1,,3,,
Raw,504918209,23536000000,,,-1222338947464481922,0.0,12.555955160979408,,,0,15,0.0,16,19475393,1000000000,7.0,702.7618489738279,2.99792458E8,4,7056.098838835194,3.4028234663852886E38,,,,,1,,3,,
Raw,504918209,23536000000,,,-1222338947464481922,0.0,12.555955160979408,,,0,1,0.0,99,933025291,49,31.675867080688477,141.6112009509456,0.12394339934434451,1,2616.207929669622,0.0021957221906632185,,,,,0,,3,,
Raw,504918209,23536000000,,,-1222338947464481922,0.0,12.555955160979408,,,0,24,0.0,99,931057785,37,34.01881408691406,429.7969543107265,0.09484033480149595,1,8797.624639152775,0.0017776816384866834,,,,,0,,3,,
Raw,504918209,23536000000,,,-1222338947464481922,0.0,12.555955160979408,,,0,17,0.0,99,936454846,126,23.506549835205078,-214.64336996829002,0.314418882484216,4,-4367.504601663668,3.4028234663852886E38,,,,,0,,3,,
Raw,504919221,24536000000,,,-1222338947464482251,0.0,12.070988596322916,,,0,1,0.0,16431,38171930026431,17,34.43407440185547,-519.1909433805363,0.0903200990796848,1,-11100.54077363556,0.0017244950868189335,,,,,0,,1,,
Raw,504919221,24536000000,,,-1222338947464482251,0.0,12.070988596322916,,,0,3,0.0,16431,38171918187987,36,28.18777084350586,-843.8435193183927,0.18496527520557382,1,-18890.282422581222,0.0033373439218848944,,,,,0,,1,,
Raw,504919221,24536000000,,,-1222338947464482251,0.0,12.070988596322916,,,0,8,0.0,39,5930247721,24,31.64268684387207,282.5948075474802,0.12390913382775248,1,6357.983578456505,0.0022421006578952074,,,,,0,,1,,
Raw,504919221,24536000000,,,-1222338947464482251,0.0,12.070988596322916,,,0,10,0.0,51,5045565,74,20.031709671020508,426.0915437200231,4.200907467823447,4,9127.42060597491,3.4028234663852886E38,,,,,0,,1,,
Raw,504919222,24536000000,,,-1222338947464482251,0.0,12.070988596322916,,,0,11,0.0,16431,38171932376394,62,22.395112991333008,-392.9849360923738,4.202226299129364,4,-8810.578000531046,3.4028234663852886E38,,,,,0,,1,,
Raw,504919222,24536000000,,,-1222338947464482251,0.0,12.070988596322916,,,0,14,0.0,16431,38171920265640,35,28.567556381225586,-632.3899605385291,0.17756568765509073,1,-13516.394836344723,0.0031945640221238136,,,,,0,,1,,
Raw,504919222,24536000000,,,-1222338947464482251,0.0,12.070988596322916,,,0,18,0.0,16431,38171934283282,62,22.55020523071289,-209.22506031889145,4.202569253848125,4,-4474.232269263742,3.4028234663852886E38,,,,,0,,1,,
Raw,504919222,24536000000,,,-1222338947464482251,0.0,12.070988596322916,,,0,20,0.0,16,17390613,1000000000,7.0,598.7282860239493,2.99792458E8,4,11648.134079333791,3.4028234663852886E38,,,,,0,,1,,
Raw,504919223,24536000000,,,-1222338947464482251,0.0,12.070988596322916,,,0,22,0.0,16431,38171924164902,10,39.15626525878906,-702.9501204636599,0.05214347082524734,1,-15738.15612948228,0.001001272932626307,,,,,0,,1,,
Raw,504919224,24536000000,,,-1222338947464482251,0.0,12.070988596322916,,,0,27,0.0,16431,38171923362180,14,36.31529235839844,566.6879139661596,0.07188411950911128,1,12743.026535726007,0.0013886764645576477,,,,,0,,1,,
Raw,504919224,24536000000,,,-1222338947464482251,0.0,12.070988596322916,,,0,28,0.0,16431,38171924779624,36,28.33704948425293,-310.68469911093916,0.17945744705217592,1,-6636.02283104078,0.003280476899817586,,,,,0,,1,,
Raw,504919224,24536000000,,,-1222338947464482251,0.0,12.070988596322916,,,0,32,0.0,16431,38171923234975,18,34.37016677856445,-449.7648431137454,0.08975214689403516,1,-9616.244188903234,0.0017372302245348692,,,,,0,,1,,
Raw,504919225,24536000000,,,-1222338947464482251,0.0,12.070988596322916,,,0,2,0.0,99,1930894096,33,39.072288513183594,-748.9771828643675,0.05385324355079679,1,-15274.322978142389,9.956243447959423E-4,,,,,0,,3,,
Raw,504919225,24536000000,,,-1222338947464482251,0.0,12.070988596322916,,,0,18,0.0,17,595212,93,16.459716796875,-749.5998693450392,4.201366515909738,4,-13796.837134641879,3.4028234663852886E38,,,,,0,,3,,
Raw,504919225,24536000000,,,-1222338947464482251,0.0,12.070988596322916,,,0,9,0.0,17,788367,102,14.623607635498047,-549.5731357635782,4.20050140730628,4,-7133.0555323101835,3.4028234663852886E38,,,,,0,,3,,
Raw,504919225,24536000000,,,-1222338947464482251,0.0,12.070988596322916,,,0,15,0.0,16,19473055,1000000000,7.0,702.7729598546543,2.99792458E8,4,7758.64119915742,3.4028234663852886E38,,,,,1,,3,,
Raw,504919226,24536000000,,,-1222338947464482251,0.0,12.070988596322916,,,0,1,0.0,99,1933024784,49,31.54395294189453,141.53390193955187,0.12580416334334682,1,2757.7569403876087,0.0022293238434940577,,,,,0,,3,,
Raw,504919226,24536000000,,,-1222338947464482251,0.0,12.070988596322916,,,0,24,0.0,99,1931056423,35,34.397727966308594,429.5888468311982,0.09087659336918408,1,9227.30126563297,0.0017017991049215198,,,,,0,,3,,
Raw,504919226,24536000000,,,-1222338947464482251,0.0,12.070988596322916,,,0,17,0.0,99,1936455695,111,24.55794906616211,-214.92189180299442,0.2789103380967527,4,-4582.297677386695,3.4028234663852886E38,,,,,0,,3,,
Raw,504920220,25536000000,,,-1222338947464482582,0.0,11.601843307639434,,,0,1,0.0,16431,38172930028167,17,34.50021743774414,-519.3851111353467,0.08964890101499828,1,-11619.806359385662,0.0017114132642745972,,,,,0,,1,,
